t_sec,raw,bat,pitch,roll,yaw,vgx,vgy,vgz,agx,agy,agz,baro,tof,h
7183.517924,"pitch:0;roll:0;yaw:0;vgx:0;vgy:0;vgz:0;templ:77;temph:80;tof:10;h:0;bat:81;baro:17.26;time:0;agx:14.00;agy:2.00;agz:-1001.00;
 OAĽ~",81,0,0,0,0,0,0,14.00,2.00,-1001.00,17.26,10,0
7183.620036,"pitch:0;roll:0;yaw:0;vgx:0;vgy:0;vgz:0;templ:77;temph:80;tof:10;h:0;bat:81;baro:17.28;time:0;agx:15.00;agy:0.00;agz:-1002.00;
 OAĽ~",81,0,0,0,0,0,0,15.00,0.00,-1002.00,17.28,10,0
7183.722082,"pitch:0;roll:0;yaw:0;vgx:0;vgy:0;vgz:0;templ:77;temph:80;tof:10;h:0;bat:81;baro:17.30;time:0;agx:14.00;agy:0.00;agz:-1004.00;
 OAĽ~",81,0,0,0,0,0,0,14.00,0.00,-1004.00,17.30,10,0
7183.824056,"pitch:0;roll:0;yaw:0;vgx:0;vgy:0;vgz:0;templ:77;temph:80;tof:10;h:0;bat:81;baro:17.22;time:0;agx:14.00;agy:2.00;agz:-999.00;

 OAĽ~",81,0,0,0,0,0,0,14.00,2.00,-999.00,17.22,10,0
7183.925966,"pitch:0;roll:0;yaw:0;vgx:0;vgy:0;vgz:0;templ:77;temph:80;tof:10;h:0;bat:81;baro:17.26;time:0;agx:13.00;agy:0.00;agz:-997.00;

 OAĽ~",81,0,0,0,0,0,0,13.00,0.00,-997.00,17.26,10,0
7184.027679,"pitch:0;roll:0;yaw:0;vgx:0;vgy:0;vgz:0;templ:77;temph:80;tof:10;h:0;bat:81;baro:17.24;time:0;agx:13.00;agy:0.00;agz:-998.00;

 OAĽ~",81,0,0,0,0,0,0,13.00,0.00,-998.00,17.24,10,0
7184.130053,"pitch:0;roll:0;yaw:0;vgx:0;vgy:0;vgz:0;templ:77;temph:80;tof:10;h:0;bat:81;baro:17.23;time:0;agx:12.00;agy:0.00;agz:-998.00;

 OAĽ~",81,0,0,0,0,0,0,12.00,0.00,-998.00,17.23,10,0
7184.231877,"pitch:0;roll:0;yaw:0;vgx:0;vgy:0;vgz:0;templ:77;temph:79;tof:10;h:0;bat:81;baro:17.27;time:0;agx:13.00;agy:1.00;agz:-998.00;

 OAĽ~",81,0,0,0,0,0,0,13.00,1.00,-998.00,17.27,10,0
7184.333838,"pitch:0;roll:0;yaw:0;vgx:0;vgy:0;vgz:0;templ:77;temph:79;tof:10;h:0;bat:81;baro:17.24;time:0;agx:12.00;agy:1.00;agz:-995.00;

 OAĽ~",81,0,0,0,0,0,0,12.00,1.00,-995.00,17.24,10,0
7184.435966,"pitch:0;roll:0;yaw:0;vgx:0;vgy:0;vgz:0;templ:77;temph:79;tof:10;h:0;bat:81;baro:17.26;time:0;agx:14.00;agy:0.00;agz:-999.00;

 OAĽ~",81,0,0,0,0,0,0,14.00,0.00,-999.00,17.26,10,0
7184.537949,"pitch:0;roll:0;yaw:0;vgx:0;vgy:0;vgz:0;templ:77;temph:79;tof:10;h:0;bat:81;baro:17.29;time:0;agx:13.00;agy:0.00;agz:-1001.00;
 OAĽ~",81,0,0,0,0,0,0,13.00,0.00,-1001.00,17.29,10,0
7184.640065,"pitch:0;roll:0;yaw:0;vgx:0;vgy:0;vgz:0;templ:77;temph:79;tof:10;h:0;bat:81;baro:17.30;time:0;agx:12.00;agy:1.00;agz:-1002.00;
 OAĽ~",81,0,0,0,0,0,0,12.00,1.00,-1002.00,17.30,10,0
7184.741970,"pitch:0;roll:0;yaw:0;vgx:0;vgy:0;vgz:0;templ:77;temph:79;tof:10;h:0;bat:81;baro:17.22;time:0;agx:12.00;agy:2.00;agz:-998.00;

 OAĽ~",81,0,0,0,0,0,0,12.00,2.00,-998.00,17.22,10,0
7184.846037,"pitch:0;roll:0;yaw:0;vgx:0;vgy:0;vgz:0;templ:77;temph:79;tof:10;h:0;bat:81;baro:17.24;time:0;agx:13.00;agy:2.00;agz:-1002.00;
 OAĽ~",81,0,0,0,0,0,0,13.00,2.00,-1002.00,17.24,10,0
7184.946205,"pitch:0;roll:0;yaw:0;vgx:0;vgy:0;vgz:0;templ:77;temph:79;tof:10;h:0;bat:81;baro:17.24;time:0;agx:14.00;agy:1.00;agz:-999.00;

 OAĽ~",81,0,0,0,0,0,0,14.00,1.00,-999.00,17.24,10,0
7185.047927,"pitch:0;roll:0;yaw:0;vgx:0;vgy:0;vgz:0;templ:77;temph:79;tof:10;h:0;bat:81;baro:17.28;time:0;agx:14.00;agy:0.00;agz:-1000.00;
 OAĽ~",81,0,0,0,0,0,0,14.00,0.00,-1000.00,17.28,10,0
7185.149931,"pitch:0;roll:0;yaw:0;vgx:0;vgy:0;vgz:0;templ:77;temph:79;tof:10;h:0;bat:81;baro:17.24;time:0;agx:15.00;agy:0.00;agz:-999.00;

 OAĽ~",81,0,0,0,0,0,0,15.00,0.00,-999.00,17.24,10,0
7185.251805,"pitch:0;roll:0;yaw:0;vgx:0;vgy:0;vgz:0;templ:78;temph:80;tof:10;h:0;bat:81;baro:17.23;time:0;agx:13.00;agy:1.00;agz:-1001.00;
 OAĽ~",81,0,0,0,0,0,0,13.00,1.00,-1001.00,17.23,10,0
7185.353785,"pitch:0;roll:0;yaw:0;vgx:0;vgy:0;vgz:0;templ:78;temph:80;tof:10;h:0;bat:81;baro:17.23;time:0;agx:14.00;agy:1.00;agz:-1001.00;
 OAĽ~",81,0,0,0,0,0,0,14.00,1.00,-1001.00,17.23,10,0
7185.455523,"pitch:0;roll:0;yaw:0;vgx:0;vgy:0;vgz:0;templ:78;temph:80;tof:10;h:0;bat:81;baro:17.22;time:0;agx:13.00;agy:1.00;agz:-1000.00;
 OAĽ~",81,0,0,0,0,0,0,13.00,1.00,-1000.00,17.22,10,0
7185.557743,"pitch:0;roll:0;yaw:0;vgx:0;vgy:0;vgz:0;templ:78;temph:80;tof:10;h:0;bat:81;baro:17.24;time:0;agx:11.00;agy:0.00;agz:-998.00;

 OAĽ~",81,0,0,0,0,0,0,11.00,0.00,-998.00,17.24,10,0
7185.659944,"pitch:0;roll:0;yaw:0;vgx:0;vgy:0;vgz:0;templ:78;temph:80;tof:10;h:0;bat:81;baro:17.29;time:0;agx:12.00;agy:1.00;agz:-1000.00;
 OAĽ~",81,0,0,0,0,0,0,12.00,1.00,-1000.00,17.29,10,0
7185.762117,"pitch:0;roll:0;yaw:0;vgx:0;vgy:0;vgz:0;templ:78;temph:80;tof:10;h:0;bat:81;baro:17.21;time:0;agx:14.00;agy:0.00;agz:-1000.00;
 OAĽ~",81,0,0,0,0,0,0,14.00,0.00,-1000.00,17.21,10,0
7185.813212,"pitch:0;roll:0;yaw:0;vgx:0;vgy:0;vgz:0;templ:78;temph:80;tof:10;h:0;bat:81;baro:17.19;time:0;agx:14.00;agy:2.00;agz:-1000.00;
 OAĽ~",81,0,0,0,0,0,0,14.00,2.00,-1000.00,17.19,10,0
7185.915026,"pitch:0;roll:0;yaw:0;vgx:0;vgy:0;vgz:0;templ:78;temph:80;tof:10;h:0;bat:81;baro:17.22;time:0;agx:13.00;agy:1.00;agz:-1001.00;
 OAĽ~",81,0,0,0,0,0,0,13.00,1.00,-1001.00,17.22,10,0
7186.016998,"pitch:0;roll:0;yaw:0;vgx:0;vgy:0;vgz:0;templ:78;temph:80;tof:10;h:0;bat:81;baro:17.25;time:0;agx:13.00;agy:2.00;agz:-1000.00;
 OAĽ~",81,0,0,0,0,0,0,13.00,2.00,-1000.00,17.25,10,0
7186.118731,"pitch:0;roll:0;yaw:0;vgx:0;vgy:0;vgz:0;templ:78;temph:80;tof:10;h:0;bat:81;baro:17.23;time:0;agx:15.00;agy:0.00;agz:-998.00;

 OAĽ~",81,0,0,0,0,0,0,15.00,0.00,-998.00,17.23,10,0
7186.226260,"pitch:0;roll:0;yaw:0;vgx:0;vgy:0;vgz:0;templ:77;temph:80;tof:10;h:0;bat:81;baro:17.24;time:0;agx:13.00;agy:0.00;agz:-1000.00;
 OAĽ~",81,0,0,0,0,0,0,13.00,0.00,-1000.00,17.24,10,0
7186.322903,"pitch:0;roll:0;yaw:0;vgx:0;vgy:0;vgz:0;templ:77;temph:80;tof:10;h:0;bat:81;baro:17.26;time:0;agx:14.00;agy:2.00;agz:-998.00;

 OAĽ~",81,0,0,0,0,0,0,14.00,2.00,-998.00,17.26,10,0
7186.425048,"pitch:0;roll:0;yaw:0;vgx:0;vgy:0;vgz:0;templ:77;temph:80;tof:10;h:0;bat:81;baro:17.20;time:0;agx:14.00;agy:1.00;agz:-1000.00;
 OAĽ~",81,0,0,0,0,0,0,14.00,1.00,-1000.00,17.20,10,0
7186.526886,"pitch:0;roll:0;yaw:0;vgx:0;vgy:0;vgz:0;templ:77;temph:80;tof:10;h:0;bat:81;baro:17.22;time:0;agx:13.00;agy:0.00;agz:-1001.00;
 OAĽ~",81,0,0,0,0,0,0,13.00,0.00,-1001.00,17.22,10,0
7186.629056,"pitch:0;roll:0;yaw:0;vgx:0;vgy:0;vgz:0;templ:77;temph:80;tof:10;h:0;bat:81;baro:17.25;time:0;agx:13.00;agy:2.00;agz:-1000.00;
 OAĽ~",81,0,0,0,0,0,0,13.00,2.00,-1000.00,17.25,10,0
7186.731060,"pitch:0;roll:0;yaw:0;vgx:0;vgy:0;vgz:0;templ:77;temph:80;tof:10;h:0;bat:81;baro:17.22;time:0;agx:13.00;agy:1.00;agz:-1000.00;
 OAĽ~",81,0,0,0,0,0,0,13.00,1.00,-1000.00,17.22,10,0
7186.832605,"pitch:0;roll:0;yaw:0;vgx:0;vgy:0;vgz:0;templ:77;temph:80;tof:10;h:0;bat:81;baro:17.18;time:0;agx:13.00;agy:1.00;agz:-999.00;

 OAĽ~",81,0,0,0,0,0,0,13.00,1.00,-999.00,17.18,10,0
7186.934723,"pitch:0;roll:0;yaw:0;vgx:0;vgy:0;vgz:0;templ:77;temph:80;tof:10;h:0;bat:81;baro:17.16;time:0;agx:14.00;agy:1.00;agz:-997.00;

 OAĽ~",81,0,0,0,0,0,0,14.00,1.00,-997.00,17.16,10,0
7187.036619,"pitch:0;roll:0;yaw:0;vgx:0;vgy:0;vgz:0;templ:77;temph:80;tof:10;h:0;bat:81;baro:17.23;time:0;agx:13.00;agy:2.00;agz:-999.00;

 OAĽ~",81,0,0,0,0,0,0,13.00,2.00,-999.00,17.23,10,0
7187.138709,"pitch:0;roll:0;yaw:0;vgx:0;vgy:0;vgz:0;templ:77;temph:80;tof:10;h:0;bat:81;baro:17.17;time:0;agx:14.00;agy:2.00;agz:-1000.00;
 OAĽ~",81,0,0,0,0,0,0,14.00,2.00,-1000.00,17.17,10,0
7187.241103,"pitch:0;roll:0;yaw:0;vgx:0;vgy:0;vgz:0;templ:77;temph:80;tof:10;h:0;bat:81;baro:17.19;time:0;agx:13.00;agy:1.00;agz:-1002.00;
 OAĽ~",81,0,0,0,0,0,0,13.00,1.00,-1002.00,17.19,10,0
7187.344098,"pitch:0;roll:0;yaw:0;vgx:0;vgy:0;vgz:0;templ:77;temph:80;tof:10;h:0;bat:81;baro:17.20;time:0;agx:14.00;agy:2.00;agz:-1000.00;
 OAĽ~",81,0,0,0,0,0,0,14.00,2.00,-1000.00,17.20,10,0
7187.446298,"pitch:0;roll:0;yaw:0;vgx:0;vgy:0;vgz:0;templ:77;temph:80;tof:10;h:0;bat:81;baro:17.25;time:0;agx:14.00;agy:2.00;agz:-999.00;

 OAĽ~",81,0,0,0,0,0,0,14.00,2.00,-999.00,17.25,10,0
7187.547471,"pitch:0;roll:0;yaw:0;vgx:0;vgy:0;vgz:0;templ:77;temph:80;tof:10;h:0;bat:81;baro:17.17;time:0;agx:12.00;agy:0.00;agz:-1000.00;
 OAĽ~",81,0,0,0,0,0,0,12.00,0.00,-1000.00,17.17,10,0
7187.648950,"pitch:0;roll:0;yaw:0;vgx:0;vgy:0;vgz:0;templ:77;temph:80;tof:10;h:0;bat:81;baro:17.23;time:0;agx:14.00;agy:1.00;agz:-1001.00;
 OAĽ~",81,0,0,0,0,0,0,14.00,1.00,-1001.00,17.23,10,0
7187.750942,"pitch:0;roll:0;yaw:0;vgx:0;vgy:0;vgz:0;templ:77;temph:80;tof:10;h:0;bat:81;baro:17.26;time:0;agx:12.00;agy:0.00;agz:-998.00;

 OAĽ~",81,0,0,0,0,0,0,12.00,0.00,-998.00,17.26,10,0
7187.852643,"pitch:0;roll:0;yaw:0;vgx:0;vgy:0;vgz:0;templ:77;temph:80;tof:10;h:0;bat:81;baro:17.20;time:0;agx:14.00;agy:2.00;agz:-1000.00;
 OAĽ~",81,0,0,0,0,0,0,14.00,2.00,-1000.00,17.20,10,0
7187.954611,"pitch:0;roll:0;yaw:0;vgx:0;vgy:0;vgz:0;templ:77;temph:80;tof:10;h:0;bat:81;baro:17.18;time:0;agx:13.00;agy:1.00;agz:-1000.00;
 OAĽ~",81,0,0,0,0,0,0,13.00,1.00,-1000.00,17.18,10,0
7188.057045,"pitch:0;roll:0;yaw:0;vgx:0;vgy:0;vgz:0;templ:77;temph:80;tof:10;h:0;bat:81;baro:17.21;time:0;agx:14.00;agy:0.00;agz:-1001.00;
 OAĽ~",81,0,0,0,0,0,0,14.00,0.00,-1001.00,17.21,10,0
7188.158973,"pitch:0;roll:0;yaw:0;vgx:0;vgy:0;vgz:0;templ:77;temph:80;tof:10;h:0;bat:81;baro:17.22;time:0;agx:14.00;agy:0.00;agz:-999.00;

 OAĽ~",81,0,0,0,0,0,0,14.00,0.00,-999.00,17.22,10,0
7188.260942,"pitch:0;roll:0;yaw:0;vgx:0;vgy:0;vgz:0;templ:77;temph:80;tof:10;h:0;bat:81;baro:17.24;time:0;agx:11.00;agy:0.00;agz:-995.00;

 OAĽ~",81,0,0,0,0,0,0,11.00,0.00,-995.00,17.24,10,0
7188.362968,"pitch:0;roll:0;yaw:0;vgx:0;vgy:0;vgz:0;templ:77;temph:80;tof:10;h:0;bat:81;baro:17.21;time:0;agx:12.00;agy:2.00;agz:-1000.00;
 OAĽ~",81,0,0,0,0,0,0,12.00,2.00,-1000.00,17.21,10,0
7188.413943,"pitch:0;roll:0;yaw:0;vgx:0;vgy:0;vgz:0;templ:77;temph:80;tof:10;h:0;bat:81;baro:17.24;time:0;agx:13.00;agy:1.00;agz:-999.00;

 OAĽ~",81,0,0,0,0,0,0,13.00,1.00,-999.00,17.24,10,0
7188.515948,"pitch:0;roll:0;yaw:0;vgx:0;vgy:0;vgz:0;templ:77;temph:80;tof:10;h:0;bat:81;baro:17.24;time:0;agx:13.00;agy:1.00;agz:-999.00;

 OAĽ~",81,0,0,0,0,0,0,13.00,1.00,-999.00,17.24,10,0
7188.617712,"pitch:0;roll:0;yaw:0;vgx:0;vgy:0;vgz:0;templ:77;temph:80;tof:10;h:0;bat:81;baro:17.23;time:0;agx:13.00;agy:0.00;agz:-1001.00;
 OAĽ~",81,0,0,0,0,0,0,13.00,0.00,-1001.00,17.23,10,0
7188.719686,"pitch:0;roll:0;yaw:0;vgx:0;vgy:0;vgz:0;templ:77;temph:80;tof:10;h:0;bat:81;baro:17.24;time:0;agx:12.00;agy:1.00;agz:-999.00;

 OAĽ~",81,0,0,0,0,0,0,12.00,1.00,-999.00,17.24,10,0
7188.821906,"pitch:0;roll:0;yaw:0;vgx:0;vgy:0;vgz:0;templ:77;temph:80;tof:10;h:0;bat:81;baro:17.21;time:0;agx:13.00;agy:0.00;agz:-1002.00;
 OAĽ~",81,0,0,0,0,0,0,13.00,0.00,-1002.00,17.21,10,0
7188.923962,"pitch:0;roll:0;yaw:0;vgx:0;vgy:0;vgz:0;templ:77;temph:80;tof:10;h:0;bat:81;baro:17.22;time:0;agx:13.00;agy:2.00;agz:-999.00;

 OAĽ~",81,0,0,0,0,0,0,13.00,2.00,-999.00,17.22,10,0
7189.025939,"pitch:0;roll:0;yaw:0;vgx:0;vgy:0;vgz:0;templ:77;temph:80;tof:10;h:0;bat:81;baro:17.19;time:0;agx:13.00;agy:0.00;agz:-998.00;

 OAĽ~",81,0,0,0,0,0,0,13.00,0.00,-998.00,17.19,10,0
7189.127707,"pitch:0;roll:0;yaw:0;vgx:0;vgy:0;vgz:0;templ:77;temph:80;tof:10;h:0;bat:81;baro:17.25;time:0;agx:14.00;agy:0.00;agz:-998.00;

 OAĽ~",81,0,0,0,0,0,0,14.00,0.00,-998.00,17.25,10,0
7189.229274,"pitch:0;roll:0;yaw:0;vgx:0;vgy:0;vgz:0;templ:78;temph:80;tof:10;h:0;bat:81;baro:17.18;time:0;agx:13.00;agy:1.00;agz:-999.00;

 OAĽ~",81,0,0,0,0,0,0,13.00,1.00,-999.00,17.18,10,0
7189.331763,"pitch:0;roll:0;yaw:0;vgx:0;vgy:0;vgz:0;templ:78;temph:80;tof:10;h:0;bat:81;baro:17.22;time:0;agx:14.00;agy:2.00;agz:-1002.00;
 OAĽ~",81,0,0,0,0,0,0,14.00,2.00,-1002.00,17.22,10,0
7189.433945,"pitch:0;roll:0;yaw:0;vgx:0;vgy:0;vgz:0;templ:78;temph:80;tof:10;h:0;bat:81;baro:17.21;time:0;agx:11.00;agy:1.00;agz:-1000.00;
 OAĽ~",81,0,0,0,0,0,0,11.00,1.00,-1000.00,17.21,10,0
7189.535940,"pitch:0;roll:0;yaw:0;vgx:0;vgy:0;vgz:0;templ:78;temph:80;tof:10;h:0;bat:81;baro:17.19;time:0;agx:12.00;agy:0.00;agz:-999.00;

 OAĽ~",81,0,0,0,0,0,0,12.00,0.00,-999.00,17.19,10,0
7189.637465,"pitch:0;roll:0;yaw:0;vgx:0;vgy:0;vgz:0;templ:78;temph:80;tof:10;h:0;bat:81;baro:17.22;time:0;agx:12.00;agy:2.00;agz:-997.00;

 OAĽ~",81,0,0,0,0,0,0,12.00,2.00,-997.00,17.22,10,0
7189.739658,"pitch:0;roll:0;yaw:0;vgx:0;vgy:0;vgz:0;templ:78;temph:80;tof:10;h:0;bat:81;baro:17.17;time:0;agx:11.00;agy:0.00;agz:-1001.00;
 OAĽ~",81,0,0,0,0,0,0,11.00,0.00,-1001.00,17.17,10,0
7189.843947,"pitch:0;roll:0;yaw:0;vgx:0;vgy:0;vgz:0;templ:78;temph:80;tof:10;h:0;bat:81;baro:17.21;time:0;agx:12.00;agy:0.00;agz:-1001.00;
 OAĽ~",81,0,0,0,0,0,0,12.00,0.00,-1001.00,17.21,10,0
7189.946271,"pitch:0;roll:0;yaw:0;vgx:0;vgy:0;vgz:0;templ:78;temph:80;tof:10;h:0;bat:81;baro:17.21;time:0;agx:13.00;agy:0.00;agz:-997.00;

 OAĽ~",81,0,0,0,0,0,0,13.00,0.00,-997.00,17.21,10,0
7190.047035,"pitch:0;roll:0;yaw:0;vgx:0;vgy:0;vgz:0;templ:78;temph:80;tof:10;h:0;bat:81;baro:17.25;time:0;agx:11.00;agy:0.00;agz:-1001.00;
 OAĽ~",81,0,0,0,0,0,0,11.00,0.00,-1001.00,17.25,10,0
7190.147877,"pitch:0;roll:0;yaw:0;vgx:0;vgy:0;vgz:0;templ:78;temph:80;tof:10;h:0;bat:81;baro:17.21;time:0;agx:11.00;agy:0.00;agz:-1000.00;
 OAĽ~",81,0,0,0,0,0,0,11.00,0.00,-1000.00,17.21,10,0
7190.249420,"pitch:0;roll:0;yaw:0;vgx:0;vgy:0;vgz:0;templ:79;temph:81;tof:10;h:0;bat:81;baro:17.26;time:0;agx:13.00;agy:2.00;agz:-999.00;

 OAĽ~",81,0,0,0,0,0,0,13.00,2.00,-999.00,17.26,10,0
7190.351519,"pitch:0;roll:0;yaw:0;vgx:0;vgy:0;vgz:0;templ:79;temph:81;tof:10;h:0;bat:81;baro:17.26;time:0;agx:14.00;agy:1.00;agz:-999.00;

 OAĽ~",81,0,0,0,0,0,0,14.00,1.00,-999.00,17.26,10,0
7190.453494,"pitch:0;roll:0;yaw:0;vgx:0;vgy:0;vgz:0;templ:79;temph:81;tof:10;h:0;bat:81;baro:17.20;time:0;agx:13.00;agy:1.00;agz:-1001.00;
 OAĽ~",81,0,0,0,0,0,0,13.00,1.00,-1001.00,17.20,10,0
7190.555582,"pitch:0;roll:0;yaw:0;vgx:0;vgy:0;vgz:0;templ:79;temph:81;tof:10;h:0;bat:81;baro:17.20;time:0;agx:13.00;agy:2.00;agz:-1001.00;
 OAĽ~",81,0,0,0,0,0,0,13.00,2.00,-1001.00,17.20,10,0
7190.657700,"pitch:0;roll:0;yaw:0;vgx:0;vgy:0;vgz:0;templ:79;temph:81;tof:10;h:0;bat:81;baro:17.15;time:0;agx:12.00;agy:1.00;agz:-999.00;

 OAĽ~",81,0,0,0,0,0,0,12.00,1.00,-999.00,17.15,10,0
7190.759558,"pitch:0;roll:0;yaw:0;vgx:0;vgy:0;vgz:0;templ:79;temph:81;tof:10;h:0;bat:81;baro:17.18;time:0;agx:13.00;agy:0.00;agz:-1000.00;
 OAĽ~",81,0,0,0,0,0,0,13.00,0.00,-1000.00,17.18,10,0
7190.861295,"pitch:0;roll:0;yaw:0;vgx:0;vgy:0;vgz:0;templ:79;temph:81;tof:10;h:0;bat:81;baro:17.25;time:0;agx:11.00;agy:0.00;agz:-997.00;

 OAĽ~",81,0,0,0,0,0,0,11.00,0.00,-997.00,17.25,10,0
7190.912347,"pitch:0;roll:0;yaw:0;vgx:0;vgy:0;vgz:0;templ:79;temph:81;tof:10;h:0;bat:81;baro:17.19;time:0;agx:13.00;agy:2.00;agz:-1000.00;
 OAĽ~",81,0,0,0,0,0,0,13.00,2.00,-1000.00,17.19,10,0
7191.014807,"pitch:0;roll:0;yaw:0;vgx:0;vgy:0;vgz:0;templ:79;temph:81;tof:10;h:0;bat:81;baro:17.23;time:0;agx:13.00;agy:2.00;agz:-998.00;

 OAĽ~",81,0,0,0,0,0,0,13.00,2.00,-998.00,17.23,10,0
7191.116498,"pitch:0;roll:0;yaw:0;vgx:0;vgy:0;vgz:0;templ:79;temph:81;tof:10;h:0;bat:81;baro:17.16;time:0;agx:12.00;agy:0.00;agz:-1001.00;
 OAĽ~",81,0,0,0,0,0,0,12.00,0.00,-1001.00,17.16,10,0
7191.218546,"pitch:0;roll:0;yaw:0;vgx:0;vgy:0;vgz:0;templ:79;temph:81;tof:10;h:0;bat:81;baro:17.21;time:0;agx:12.00;agy:2.00;agz:-1001.00;
 OAĽ~",81,0,0,0,0,0,0,12.00,2.00,-1001.00,17.21,10,0
7191.320569,"pitch:0;roll:0;yaw:0;vgx:0;vgy:0;vgz:0;templ:79;temph:81;tof:10;h:0;bat:81;baro:17.19;time:0;agx:12.00;agy:0.00;agz:-999.00;

 OAĽ~",81,0,0,0,0,0,0,12.00,0.00,-999.00,17.19,10,0
7191.422274,"pitch:0;roll:0;yaw:0;vgx:0;vgy:0;vgz:0;templ:79;temph:81;tof:10;h:0;bat:81;baro:17.23;time:0;agx:12.00;agy:1.00;agz:-1000.00;
 OAĽ~",81,0,0,0,0,0,0,12.00,1.00,-1000.00,17.23,10,0
7191.524276,"pitch:0;roll:0;yaw:0;vgx:0;vgy:0;vgz:0;templ:79;temph:81;tof:10;h:0;bat:81;baro:17.20;time:0;agx:12.00;agy:1.00;agz:-999.00;

 OAĽ~",81,0,0,0,0,0,0,12.00,1.00,-999.00,17.20,10,0
7191.626837,"pitch:0;roll:0;yaw:0;vgx:0;vgy:0;vgz:0;templ:79;temph:81;tof:10;h:0;bat:81;baro:17.18;time:0;agx:14.00;agy:0.00;agz:-1001.00;
 OAĽ~",81,0,0,0,0,0,0,14.00,0.00,-1001.00,17.18,10,0
7191.728488,"pitch:0;roll:0;yaw:0;vgx:0;vgy:0;vgz:0;templ:79;temph:81;tof:10;h:0;bat:81;baro:17.26;time:0;agx:12.00;agy:1.00;agz:-998.00;

 OAĽ~",81,0,0,0,0,0,0,12.00,1.00,-998.00,17.26,10,0
7191.831662,"pitch:0;roll:0;yaw:0;vgx:0;vgy:0;vgz:0;templ:79;temph:81;tof:10;h:0;bat:81;baro:17.22;time:0;agx:13.00;agy:0.00;agz:-1002.00;
 OAĽ~",81,0,0,0,0,0,0,13.00,0.00,-1002.00,17.22,10,0
7191.933487,"pitch:0;roll:0;yaw:0;vgx:0;vgy:0;vgz:0;templ:79;temph:81;tof:10;h:0;bat:81;baro:17.14;time:0;agx:12.00;agy:0.00;agz:-1000.00;
 OAĽ~",81,0,0,0,0,0,0,12.00,0.00,-1000.00,17.14,10,0
7192.035287,"pitch:0;roll:0;yaw:0;vgx:0;vgy:0;vgz:0;templ:79;temph:81;tof:10;h:0;bat:81;baro:17.18;time:0;agx:12.00;agy:0.00;agz:-1000.00;
 OAĽ~",81,0,0,0,0,0,0,12.00,0.00,-1000.00,17.18,10,0
7192.137499,"pitch:0;roll:0;yaw:0;vgx:0;vgy:0;vgz:0;templ:79;temph:81;tof:10;h:0;bat:81;baro:17.23;time:0;agx:14.00;agy:1.00;agz:-1000.00;
 OAĽ~",81,0,0,0,0,0,0,14.00,1.00,-1000.00,17.23,10,0
7192.239480,"pitch:0;roll:0;yaw:0;vgx:0;vgy:0;vgz:0;templ:79;temph:81;tof:10;h:0;bat:81;baro:17.18;time:0;agx:12.00;agy:1.00;agz:-999.00;

 OAĽ~",81,0,0,0,0,0,0,12.00,1.00,-999.00,17.18,10,0
7192.343990,"pitch:0;roll:0;yaw:0;vgx:0;vgy:0;vgz:0;templ:79;temph:81;tof:10;h:0;bat:81;baro:17.18;time:0;agx:12.00;agy:0.00;agz:-1001.00;
 OAĽ~",81,0,0,0,0,0,0,12.00,0.00,-1001.00,17.18,10,0
7192.446127,"pitch:0;roll:0;yaw:0;vgx:0;vgy:0;vgz:0;templ:79;temph:81;tof:10;h:0;bat:81;baro:17.12;time:0;agx:13.00;agy:0.00;agz:-1001.00;
 OAĽ~",81,0,0,0,0,0,0,13.00,0.00,-1001.00,17.12,10,0
7192.546353,"pitch:0;roll:0;yaw:0;vgx:0;vgy:0;vgz:0;templ:79;temph:81;tof:10;h:0;bat:81;baro:17.18;time:0;agx:14.00;agy:0.00;agz:-999.00;

 OAĽ~",81,0,0,0,0,0,0,14.00,0.00,-999.00,17.18,10,0
7192.648445,"pitch:0;roll:0;yaw:0;vgx:0;vgy:0;vgz:0;templ:79;temph:81;tof:10;h:0;bat:81;baro:17.11;time:0;agx:12.00;agy:1.00;agz:-1002.00;
 OAĽ~",81,0,0,0,0,0,0,12.00,1.00,-1002.00,17.11,10,0
7192.750618,"pitch:0;roll:0;yaw:0;vgx:0;vgy:0;vgz:0;templ:79;temph:81;tof:10;h:0;bat:81;baro:17.15;time:0;agx:12.00;agy:0.00;agz:-999.00;

 OAĽ~",81,0,0,0,0,0,0,12.00,0.00,-999.00,17.15,10,0
7192.852441,"pitch:0;roll:0;yaw:0;vgx:0;vgy:0;vgz:0;templ:79;temph:81;tof:10;h:0;bat:81;baro:17.17;time:0;agx:13.00;agy:1.00;agz:-1000.00;
 OAĽ~",81,0,0,0,0,0,0,13.00,1.00,-1000.00,17.17,10,0
7192.954398,"pitch:0;roll:0;yaw:0;vgx:0;vgy:0;vgz:0;templ:79;temph:81;tof:10;h:0;bat:81;baro:17.17;time:0;agx:12.00;agy:1.00;agz:-1000.00;
 OAĽ~",81,0,0,0,0,0,0,12.00,1.00,-1000.00,17.17,10,0
7193.056409,"pitch:0;roll:0;yaw:0;vgx:0;vgy:0;vgz:0;templ:79;temph:81;tof:10;h:0;bat:81;baro:17.16;time:0;agx:13.00;agy:0.00;agz:-1001.00;
 OAĽ~",81,0,0,0,0,0,0,13.00,0.00,-1001.00,17.16,10,0
7193.158353,"pitch:0;roll:0;yaw:0;vgx:0;vgy:0;vgz:0;templ:79;temph:81;tof:10;h:0;bat:81;baro:17.19;time:0;agx:13.00;agy:0.00;agz:-1000.00;
 OAĽ~",81,0,0,0,0,0,0,13.00,0.00,-1000.00,17.19,10,0
7193.260846,"pitch:0;roll:0;yaw:0;vgx:0;vgy:0;vgz:0;templ:80;temph:82;tof:10;h:0;bat:81;baro:17.16;time:0;agx:13.00;agy:0.00;agz:-1000.00;
 OAĽ~",81,0,0,0,0,0,0,13.00,0.00,-1000.00,17.16,10,0
7193.311898,"pitch:0;roll:0;yaw:0;vgx:0;vgy:0;vgz:0;templ:80;temph:82;tof:10;h:0;bat:81;baro:17.21;time:0;agx:11.00;agy:2.00;agz:-1002.00;
 OAĽ~",81,0,0,0,0,0,0,11.00,2.00,-1002.00,17.21,10,0
7193.413410,"pitch:0;roll:0;yaw:0;vgx:0;vgy:0;vgz:0;templ:80;temph:82;tof:10;h:0;bat:81;baro:17.19;time:0;agx:12.00;agy:2.00;agz:-999.00;

 OAĽ~",81,0,0,0,0,0,0,12.00,2.00,-999.00,17.19,10,0
7193.515393,"pitch:0;roll:0;yaw:0;vgx:0;vgy:0;vgz:0;templ:80;temph:82;tof:10;h:0;bat:81;baro:17.18;time:0;agx:14.00;agy:1.00;agz:-1002.00;
 OAĽ~",81,0,0,0,0,0,0,14.00,1.00,-1002.00,17.18,10,0
7193.617703,"pitch:0;roll:0;yaw:0;vgx:0;vgy:0;vgz:0;templ:80;temph:82;tof:10;h:0;bat:81;baro:17.17;time:0;agx:13.00;agy:0.00;agz:-1001.00;
 OAĽ~",81,0,0,0,0,0,0,13.00,0.00,-1001.00,17.17,10,0
7193.719394,"pitch:0;roll:0;yaw:0;vgx:0;vgy:0;vgz:0;templ:80;temph:82;tof:10;h:0;bat:81;baro:17.11;time:0;agx:12.00;agy:1.00;agz:-999.00;

 OAĽ~",81,0,0,0,0,0,0,12.00,1.00,-999.00,17.11,10,0
7193.821342,"pitch:0;roll:0;yaw:0;vgx:0;vgy:0;vgz:0;templ:80;temph:82;tof:10;h:0;bat:81;baro:17.13;time:0;agx:13.00;agy:1.00;agz:-998.00;

 OAĽ~",81,0,0,0,0,0,0,13.00,1.00,-998.00,17.13,10,0
7193.923387,"pitch:0;roll:0;yaw:0;vgx:0;vgy:0;vgz:0;templ:80;temph:82;tof:10;h:0;bat:81;baro:17.12;time:0;agx:14.00;agy:1.00;agz:-1002.00;
 OAĽ~",81,0,0,0,0,0,0,14.00,1.00,-1002.00,17.12,10,0
7194.025270,"pitch:0;roll:0;yaw:0;vgx:0;vgy:0;vgz:0;templ:80;temph:82;tof:10;h:0;bat:81;baro:17.18;time:0;agx:13.00;agy:1.00;agz:-1001.00;
 OAĽ~",81,0,0,0,0,0,0,13.00,1.00,-1001.00,17.18,10,0
7194.127704,"pitch:0;roll:0;yaw:0;vgx:0;vgy:0;vgz:0;templ:80;temph:82;tof:10;h:0;bat:81;baro:17.19;time:0;agx:13.00;agy:0.00;agz:-1001.00;
 OAĽ~",81,0,0,0,0,0,0,13.00,0.00,-1001.00,17.19,10,0
7194.229683,"pitch:0;roll:0;yaw:0;vgx:0;vgy:0;vgz:0;templ:80;temph:82;tof:10;h:0;bat:81;baro:17.18;time:0;agx:14.00;agy:1.00;agz:-1001.00;
 OAĽ~",81,0,0,0,0,0,0,14.00,1.00,-1001.00,17.18,10,0
7194.331394,"pitch:0;roll:0;yaw:0;vgx:0;vgy:0;vgz:0;templ:80;temph:82;tof:10;h:0;bat:81;baro:17.16;time:0;agx:13.00;agy:1.00;agz:-999.00;

 OAĽ~",81,0,0,0,0,0,0,13.00,1.00,-999.00,17.16,10,0
7194.433230,"pitch:0;roll:0;yaw:0;vgx:0;vgy:0;vgz:0;templ:80;temph:82;tof:10;h:0;bat:81;baro:17.17;time:0;agx:12.00;agy:1.00;agz:-999.00;

 OAĽ~",81,0,0,0,0,0,0,12.00,1.00,-999.00,17.17,10,0
7194.535701,"pitch:0;roll:0;yaw:0;vgx:0;vgy:0;vgz:0;templ:80;temph:82;tof:10;h:0;bat:81;baro:17.17;time:0;agx:14.00;agy:1.00;agz:-1000.00;
 OAĽ~",81,0,0,0,0,0,0,14.00,1.00,-1000.00,17.17,10,0
7194.637742,"pitch:0;roll:0;yaw:0;vgx:0;vgy:0;vgz:0;templ:80;temph:82;tof:10;h:0;bat:81;baro:17.14;time:0;agx:13.00;agy:0.00;agz:-998.00;

 OAĽ~",81,0,0,0,0,0,0,13.00,0.00,-998.00,17.14,10,0
7194.739268,"pitch:0;roll:0;yaw:0;vgx:0;vgy:0;vgz:0;templ:80;temph:82;tof:10;h:0;bat:81;baro:17.19;time:0;agx:13.00;agy:0.00;agz:-1000.00;
 OAĽ~",81,0,0,0,0,0,0,13.00,0.00,-1000.00,17.19,10,0
7194.843242,"pitch:0;roll:0;yaw:0;vgx:0;vgy:0;vgz:0;templ:80;temph:82;tof:10;h:0;bat:81;baro:17.18;time:0;agx:10.00;agy:0.00;agz:-1000.00;
 OAĽ~",81,0,0,0,0,0,0,10.00,0.00,-1000.00,17.18,10,0
7194.945929,"pitch:0;roll:0;yaw:0;vgx:0;vgy:0;vgz:0;templ:80;temph:82;tof:10;h:0;bat:81;baro:17.18;time:0;agx:13.00;agy:1.00;agz:-1000.00;
 OAĽ~",81,0,0,0,0,0,0,13.00,1.00,-1000.00,17.18,10,0
7195.045585,"pitch:0;roll:0;yaw:0;vgx:0;vgy:0;vgz:0;templ:80;temph:82;tof:10;h:0;bat:81;baro:17.14;time:0;agx:12.00;agy:3.00;agz:-1001.00;
 OAĽ~",81,0,0,0,0,0,0,12.00,3.00,-1001.00,17.14,10,0
7195.147670,"pitch:0;roll:0;yaw:0;vgx:0;vgy:0;vgz:0;templ:80;temph:82;tof:10;h:0;bat:81;baro:17.14;time:0;agx:13.00;agy:2.00;agz:-998.00;

 OAĽ~",81,0,0,0,0,0,0,13.00,2.00,-998.00,17.14,10,0
7195.249153,"pitch:0;roll:0;yaw:0;vgx:0;vgy:0;vgz:0;templ:80;temph:82;tof:10;h:0;bat:81;baro:17.16;time:0;agx:15.00;agy:0.00;agz:-999.00;

 OAĽ~",81,0,0,0,0,0,0,15.00,0.00,-999.00,17.16,10,0
7195.351297,"pitch:0;roll:0;yaw:0;vgx:0;vgy:0;vgz:0;templ:80;temph:82;tof:10;h:0;bat:81;baro:17.16;time:0;agx:14.00;agy:1.00;agz:-999.00;

 OAĽ~",81,0,0,0,0,0,0,14.00,1.00,-999.00,17.16,10,0
7195.453225,"pitch:0;roll:0;yaw:0;vgx:0;vgy:0;vgz:0;templ:80;temph:82;tof:10;h:0;bat:81;baro:17.16;time:0;agx:12.00;agy:2.00;agz:-1001.00;
 OAĽ~",81,0,0,0,0,0,0,12.00,2.00,-1001.00,17.16,10,0
7195.555352,"pitch:0;roll:0;yaw:0;vgx:0;vgy:0;vgz:0;templ:80;temph:82;tof:10;h:0;bat:81;baro:17.15;time:0;agx:12.00;agy:2.00;agz:-1004.00;
 OAĽ~",81,0,0,0,0,0,0,12.00,2.00,-1004.00,17.15,10,0
7195.657276,"pitch:0;roll:0;yaw:0;vgx:0;vgy:0;vgz:0;templ:80;temph:82;tof:10;h:0;bat:81;baro:17.13;time:0;agx:12.00;agy:2.00;agz:-1002.00;
 OAĽ~",81,0,0,0,0,0,0,12.00,2.00,-1002.00,17.13,10,0
7195.759279,"pitch:0;roll:0;yaw:0;vgx:0;vgy:0;vgz:0;templ:80;temph:82;tof:10;h:0;bat:81;baro:17.15;time:0;agx:12.00;agy:1.00;agz:-1000.00;
 OAĽ~",81,0,0,0,0,0,0,12.00,1.00,-1000.00,17.15,10,0
7195.861207,"pitch:0;roll:0;yaw:0;vgx:0;vgy:0;vgz:0;templ:80;temph:82;tof:10;h:0;bat:81;baro:17.18;time:0;agx:11.00;agy:2.00;agz:-1001.00;
 OAĽ~",81,0,0,0,0,0,0,11.00,2.00,-1001.00,17.18,10,0
7195.912237,"pitch:0;roll:0;yaw:0;vgx:0;vgy:0;vgz:0;templ:80;temph:82;tof:10;h:0;bat:81;baro:17.16;time:0;agx:13.00;agy:0.00;agz:-1000.00;
 OAĽ~",81,0,0,0,0,0,0,13.00,0.00,-1000.00,17.16,10,0
7196.014322,"pitch:0;roll:0;yaw:0;vgx:0;vgy:0;vgz:0;templ:80;temph:82;tof:10;h:0;bat:81;baro:17.17;time:0;agx:12.00;agy:1.00;agz:-997.00;

 OAĽ~",81,0,0,0,0,0,0,12.00,1.00,-997.00,17.17,10,0
7196.116157,"pitch:0;roll:0;yaw:0;vgx:0;vgy:0;vgz:0;templ:80;temph:82;tof:10;h:0;bat:81;baro:17.15;time:0;agx:13.00;agy:1.00;agz:-999.00;

 OAĽ~",81,0,0,0,0,0,0,13.00,1.00,-999.00,17.15,10,0
7196.218636,"pitch:0;roll:0;yaw:0;vgx:0;vgy:0;vgz:0;templ:79;temph:82;tof:10;h:0;bat:81;baro:17.18;time:0;agx:12.00;agy:1.00;agz:-999.00;

 OAĽ~",81,0,0,0,0,0,0,12.00,1.00,-999.00,17.18,10,0
7196.320503,"pitch:0;roll:0;yaw:0;vgx:0;vgy:0;vgz:0;templ:79;temph:82;tof:10;h:0;bat:81;baro:17.15;time:0;agx:13.00;agy:1.00;agz:-1002.00;
 OAĽ~",81,0,0,0,0,0,0,13.00,1.00,-1002.00,17.15,10,0
7196.422191,"pitch:0;roll:0;yaw:0;vgx:0;vgy:0;vgz:0;templ:79;temph:82;tof:10;h:0;bat:81;baro:17.15;time:0;agx:13.00;agy:1.00;agz:-1000.00;
 OAĽ~",81,0,0,0,0,0,0,13.00,1.00,-1000.00,17.15,10,0
7196.524203,"pitch:0;roll:0;yaw:0;vgx:0;vgy:0;vgz:0;templ:79;temph:82;tof:10;h:0;bat:81;baro:17.17;time:0;agx:13.00;agy:1.00;agz:-1000.00;
 OAĽ~",81,0,0,0,0,0,0,13.00,1.00,-1000.00,17.17,10,0
7196.626321,"pitch:0;roll:0;yaw:0;vgx:0;vgy:0;vgz:0;templ:79;temph:82;tof:10;h:0;bat:81;baro:17.14;time:0;agx:12.00;agy:1.00;agz:-1000.00;
 OAĽ~",81,0,0,0,0,0,0,12.00,1.00,-1000.00,17.14,10,0
7196.728347,"pitch:0;roll:0;yaw:0;vgx:0;vgy:0;vgz:0;templ:79;temph:82;tof:10;h:0;bat:81;baro:17.17;time:0;agx:11.00;agy:0.00;agz:-1002.00;
 OAĽ~",81,0,0,0,0,0,0,11.00,0.00,-1002.00,17.17,10,0
7196.830333,"pitch:0;roll:0;yaw:0;vgx:0;vgy:0;vgz:0;templ:79;temph:82;tof:10;h:0;bat:81;baro:17.16;time:0;agx:12.00;agy:0.00;agz:-998.00;

 OAĽ~",81,0,0,0,0,0,0,12.00,0.00,-998.00,17.16,10,0
7196.932513,"pitch:0;roll:0;yaw:0;vgx:0;vgy:0;vgz:0;templ:79;temph:82;tof:10;h:0;bat:81;baro:17.16;time:0;agx:12.00;agy:2.00;agz:-1000.00;
 OAĽ~",81,0,0,0,0,0,0,12.00,2.00,-1000.00,17.16,10,0
7197.034336,"pitch:0;roll:0;yaw:0;vgx:0;vgy:0;vgz:0;templ:79;temph:82;tof:10;h:0;bat:81;baro:17.19;time:0;agx:12.00;agy:0.00;agz:-1000.00;
 OAĽ~",81,0,0,0,0,0,0,12.00,0.00,-1000.00,17.19,10,0
7197.136152,"pitch:0;roll:0;yaw:0;vgx:0;vgy:0;vgz:0;templ:79;temph:82;tof:10;h:0;bat:81;baro:17.21;time:0;agx:12.00;agy:1.00;agz:-1000.00;
 OAĽ~",81,0,0,0,0,0,0,12.00,1.00,-1000.00,17.21,10,0
7197.238157,"pitch:0;roll:0;yaw:0;vgx:0;vgy:0;vgz:0;templ:80;temph:83;tof:10;h:0;bat:81;baro:17.16;time:0;agx:12.00;agy:2.00;agz:-1001.00;
 OAĽ~",81,0,0,0,0,0,0,12.00,2.00,-1001.00,17.16,10,0
7197.340289,"pitch:0;roll:0;yaw:0;vgx:0;vgy:0;vgz:0;templ:80;temph:83;tof:10;h:0;bat:81;baro:17.12;time:0;agx:12.00;agy:2.00;agz:-999.00;

 OAĽ~",81,0,0,0,0,0,0,12.00,2.00,-999.00,17.12,10,0
7197.443323,"pitch:0;roll:0;yaw:0;vgx:0;vgy:0;vgz:0;templ:80;temph:83;tof:10;h:0;bat:81;baro:17.17;time:0;agx:13.00;agy:0.00;agz:-1000.00;
 OAĽ~",81,0,0,0,0,0,0,13.00,0.00,-1000.00,17.17,10,0
7197.545812,"pitch:0;roll:0;yaw:0;vgx:0;vgy:0;vgz:0;templ:80;temph:83;tof:10;h:0;bat:81;baro:17.18;time:0;agx:12.00;agy:0.00;agz:-1000.00;
 OAĽ~",81,0,0,0,0,0,0,12.00,0.00,-1000.00,17.18,10,0
7197.646161,"pitch:0;roll:0;yaw:0;vgx:0;vgy:0;vgz:0;templ:80;temph:83;tof:10;h:0;bat:81;baro:17.17;time:0;agx:13.00;agy:1.00;agz:-1001.00;
 OAĽ~",81,0,0,0,0,0,0,13.00,1.00,-1001.00,17.17,10,0
7197.748278,"pitch:0;roll:0;yaw:0;vgx:0;vgy:0;vgz:0;templ:80;temph:83;tof:10;h:0;bat:81;baro:17.15;time:0;agx:11.00;agy:1.00;agz:-1001.00;
 OAĽ~",81,0,0,0,0,0,0,11.00,1.00,-1001.00,17.15,10,0
7197.850267,"pitch:0;roll:0;yaw:0;vgx:0;vgy:0;vgz:0;templ:80;temph:83;tof:10;h:0;bat:81;baro:17.15;time:0;agx:12.00;agy:2.00;agz:-1001.00;
 OAĽ~",81,0,0,0,0,0,0,12.00,2.00,-1001.00,17.15,10,0
7197.952288,"pitch:0;roll:0;yaw:0;vgx:0;vgy:0;vgz:0;templ:80;temph:83;tof:10;h:0;bat:81;baro:17.15;time:0;agx:13.00;agy:0.00;agz:-995.00;

 OAĽ~",81,0,0,0,0,0,0,13.00,0.00,-995.00,17.15,10,0
7198.054197,"pitch:0;roll:0;yaw:0;vgx:0;vgy:0;vgz:0;templ:80;temph:83;tof:10;h:0;bat:81;baro:17.16;time:0;agx:12.00;agy:2.00;agz:-1000.00;
 OAĽ~",81,0,0,0,0,0,0,12.00,2.00,-1000.00,17.16,10,0
7198.156119,"pitch:0;roll:0;yaw:0;vgx:0;vgy:0;vgz:0;templ:80;temph:83;tof:10;h:0;bat:81;baro:17.17;time:0;agx:11.00;agy:0.00;agz:-1001.00;
 OAĽ~",81,0,0,0,0,0,0,11.00,0.00,-1001.00,17.17,10,0
7198.258180,"pitch:0;roll:0;yaw:0;vgx:0;vgy:0;vgz:0;templ:80;temph:83;tof:10;h:0;bat:81;baro:17.15;time:0;agx:13.00;agy:0.00;agz:-998.00;

 OAĽ~",81,0,0,0,0,0,0,13.00,0.00,-998.00,17.15,10,0
7198.360278,"pitch:0;roll:0;yaw:0;vgx:0;vgy:0;vgz:0;templ:80;temph:83;tof:10;h:0;bat:81;baro:17.15;time:0;agx:12.00;agy:0.00;agz:-999.00;

 OAĽ~",81,0,0,0,0,0,0,12.00,0.00,-999.00,17.15,10,0
7198.462268,"pitch:0;roll:0;yaw:0;vgx:0;vgy:0;vgz:0;templ:80;temph:83;tof:10;h:0;bat:81;baro:17.11;time:0;agx:13.00;agy:0.00;agz:-1000.00;
 OAĽ~",81,0,0,0,0,0,0,13.00,0.00,-1000.00,17.11,10,0
7198.564240,"pitch:0;roll:0;yaw:0;vgx:0;vgy:0;vgz:0;templ:80;temph:83;tof:10;h:0;bat:81;baro:17.14;time:0;agx:13.00;agy:1.00;agz:-1001.00;
 OAĽ~",81,0,0,0,0,0,0,13.00,1.00,-1001.00,17.14,10,0
7198.665852,"pitch:0;roll:0;yaw:0;vgx:0;vgy:0;vgz:0;templ:80;temph:83;tof:10;h:0;bat:81;baro:17.11;time:0;agx:13.00;agy:0.00;agz:-997.00;

 OAĽ~",81,0,0,0,0,0,0,13.00,0.00,-997.00,17.11,10,0
7198.768247,"pitch:0;roll:0;yaw:0;vgx:0;vgy:0;vgz:0;templ:80;temph:83;tof:10;h:0;bat:81;baro:17.12;time:0;agx:11.00;agy:1.00;agz:-998.00;

 OAĽ~",81,0,0,0,0,0,0,11.00,1.00,-998.00,17.12,10,0
7198.819077,"pitch:0;roll:0;yaw:0;vgx:0;vgy:0;vgz:0;templ:80;temph:83;tof:10;h:0;bat:81;baro:17.14;time:0;agx:12.00;agy:1.00;agz:-999.00;

 OAĽ~",81,0,0,0,0,0,0,12.00,1.00,-999.00,17.14,10,0
7198.921205,"pitch:0;roll:0;yaw:0;vgx:0;vgy:0;vgz:0;templ:80;temph:83;tof:10;h:0;bat:81;baro:17.15;time:0;agx:13.00;agy:1.00;agz:-998.00;

 OAĽ~",81,0,0,0,0,0,0,13.00,1.00,-998.00,17.15,10,0
7199.023113,"pitch:0;roll:0;yaw:0;vgx:0;vgy:0;vgz:0;templ:80;temph:83;tof:10;h:0;bat:81;baro:17.12;time:0;agx:12.00;agy:2.00;agz:-998.00;

 OAĽ~",81,0,0,0,0,0,0,12.00,2.00,-998.00,17.12,10,0
7199.125084,"pitch:0;roll:0;yaw:0;vgx:0;vgy:0;vgz:0;templ:80;temph:83;tof:10;h:0;bat:81;baro:17.10;time:0;agx:12.00;agy:0.00;agz:-1001.00;
 OAĽ~",81,0,0,0,0,0,0,12.00,0.00,-1001.00,17.10,10,0
7199.227197,"pitch:0;roll:0;yaw:0;vgx:0;vgy:0;vgz:0;templ:80;temph:82;tof:10;h:0;bat:81;baro:17.11;time:0;agx:11.00;agy:1.00;agz:-999.00;

 OAĽ~",81,0,0,0,0,0,0,11.00,1.00,-999.00,17.11,10,0
7199.329165,"pitch:0;roll:0;yaw:0;vgx:0;vgy:0;vgz:0;templ:80;temph:82;tof:10;h:0;bat:81;baro:17.07;time:0;agx:11.00;agy:1.00;agz:-1000.00;
 OAĽ~",81,0,0,0,0,0,0,11.00,1.00,-1000.00,17.07,10,0
7199.431193,"pitch:0;roll:0;yaw:0;vgx:0;vgy:0;vgz:0;templ:80;temph:82;tof:10;h:0;bat:81;baro:17.14;time:0;agx:14.00;agy:2.00;agz:-1001.00;
 OAĽ~",81,0,0,0,0,0,0,14.00,2.00,-1001.00,17.14,10,0
7199.533205,"pitch:0;roll:0;yaw:0;vgx:0;vgy:0;vgz:0;templ:80;temph:82;tof:10;h:0;bat:81;baro:17.07;time:0;agx:14.00;agy:0.00;agz:-998.00;

 OAĽ~",81,0,0,0,0,0,0,14.00,0.00,-998.00,17.07,10,0
7199.635063,"pitch:0;roll:0;yaw:0;vgx:0;vgy:0;vgz:0;templ:80;temph:82;tof:10;h:0;bat:81;baro:17.08;time:0;agx:12.00;agy:1.00;agz:-999.00;

 OAĽ~",81,0,0,0,0,0,0,12.00,1.00,-999.00,17.08,10,0
7199.738261,"pitch:0;roll:0;yaw:0;vgx:0;vgy:0;vgz:0;templ:80;temph:82;tof:10;h:0;bat:81;baro:17.11;time:0;agx:14.00;agy:1.00;agz:-999.00;

 OAĽ~",81,0,0,0,0,0,0,14.00,1.00,-999.00,17.11,10,0
7199.839140,"pitch:0;roll:0;yaw:0;vgx:0;vgy:0;vgz:0;templ:80;temph:82;tof:10;h:0;bat:81;baro:17.10;time:0;agx:13.00;agy:0.00;agz:-998.00;

 OAĽ~",81,0,0,0,0,0,0,13.00,0.00,-998.00,17.10,10,0
7199.943305,"pitch:0;roll:0;yaw:0;vgx:0;vgy:0;vgz:0;templ:80;temph:82;tof:10;h:0;bat:81;baro:17.08;time:0;agx:12.00;agy:2.00;agz:-997.00;

 OAĽ~",81,0,0,0,0,0,0,12.00,2.00,-997.00,17.08,10,0
7200.045939,"pitch:0;roll:0;yaw:0;vgx:0;vgy:0;vgz:0;templ:80;temph:82;tof:10;h:0;bat:81;baro:17.08;time:0;agx:13.00;agy:0.00;agz:-1000.00;
 OAĽ~",81,0,0,0,0,0,0,13.00,0.00,-1000.00,17.08,10,0
7200.146686,"pitch:0;roll:0;yaw:0;vgx:0;vgy:0;vgz:0;templ:80;temph:82;tof:10;h:0;bat:81;baro:17.06;time:0;agx:12.00;agy:1.00;agz:-997.00;

 OAĽ~",81,0,0,0,0,0,0,12.00,1.00,-997.00,17.06,10,0
7200.248140,"pitch:0;roll:0;yaw:0;vgx:0;vgy:0;vgz:0;templ:80;temph:83;tof:10;h:0;bat:81;baro:17.12;time:0;agx:11.00;agy:0.00;agz:-998.00;

 OAĽ~",81,0,0,0,0,0,0,11.00,0.00,-998.00,17.12,10,0
7200.350154,"pitch:0;roll:0;yaw:0;vgx:0;vgy:0;vgz:0;templ:80;temph:83;tof:10;h:0;bat:81;baro:17.12;time:0;agx:11.00;agy:1.00;agz:-998.00;

 OAĽ~",81,0,0,0,0,0,0,11.00,1.00,-998.00,17.12,10,0
7200.452105,"pitch:0;roll:0;yaw:0;vgx:0;vgy:0;vgz:0;templ:80;temph:83;tof:10;h:0;bat:81;baro:17.07;time:0;agx:14.00;agy:1.00;agz:-1000.00;
 OAĽ~",81,0,0,0,0,0,0,14.00,1.00,-1000.00,17.07,10,0
7200.554595,"pitch:0;roll:0;yaw:0;vgx:0;vgy:0;vgz:0;templ:80;temph:83;tof:10;h:0;bat:81;baro:17.10;time:0;agx:12.00;agy:2.00;agz:-998.00;

 OAĽ~",81,0,0,0,0,0,0,12.00,2.00,-998.00,17.10,10,0
7200.656110,"pitch:0;roll:0;yaw:0;vgx:0;vgy:0;vgz:0;templ:80;temph:83;tof:10;h:0;bat:81;baro:17.10;time:0;agx:11.00;agy:1.00;agz:-1000.00;
 OAĽ~",81,0,0,0,0,0,0,11.00,1.00,-1000.00,17.10,10,0
7200.758049,"pitch:0;roll:0;yaw:0;vgx:0;vgy:0;vgz:0;templ:80;temph:83;tof:10;h:0;bat:81;baro:17.09;time:0;agx:12.00;agy:0.00;agz:-999.00;

 OAĽ~",81,0,0,0,0,0,0,12.00,0.00,-999.00,17.09,10,0
7200.860225,"pitch:0;roll:0;yaw:0;vgx:0;vgy:0;vgz:0;templ:80;temph:83;tof:10;h:0;bat:81;baro:17.07;time:0;agx:14.00;agy:0.00;agz:-998.00;

 OAĽ~",81,0,0,0,0,0,0,14.00,0.00,-998.00,17.07,10,0
7200.962136,"pitch:0;roll:0;yaw:0;vgx:0;vgy:0;vgz:0;templ:80;temph:83;tof:10;h:0;bat:81;baro:17.11;time:0;agx:13.00;agy:0.00;agz:-997.00;

 OAĽ~",81,0,0,0,0,0,0,13.00,0.00,-997.00,17.11,10,0
7201.064162,"pitch:0;roll:0;yaw:0;vgx:0;vgy:0;vgz:0;templ:80;temph:83;tof:10;h:0;bat:81;baro:17.10;time:0;agx:13.00;agy:1.00;agz:-997.00;

 OAĽ~",81,0,0,0,0,0,0,13.00,1.00,-997.00,17.10,10,0
7201.166163,"pitch:0;roll:0;yaw:0;vgx:0;vgy:0;vgz:0;templ:80;temph:83;tof:10;h:0;bat:81;baro:17.11;time:0;agx:12.00;agy:0.00;agz:-1001.00;
 OAĽ~",81,0,0,0,0,0,0,12.00,0.00,-1001.00,17.11,10,0
7201.268150,"pitch:0;roll:0;yaw:0;vgx:0;vgy:0;vgz:0;templ:80;temph:83;tof:10;h:0;bat:81;baro:17.10;time:0;agx:12.00;agy:2.00;agz:-999.00;

 OAĽ~",81,0,0,0,0,0,0,12.00,2.00,-999.00,17.10,10,0
7201.370161,"pitch:0;roll:0;yaw:0;vgx:0;vgy:0;vgz:0;templ:80;temph:83;tof:10;h:0;bat:81;baro:17.03;time:0;agx:13.00;agy:1.00;agz:-1000.00;
 OAĽ~",81,0,0,0,0,0,0,13.00,1.00,-1000.00,17.03,10,0
7201.472133,"pitch:0;roll:0;yaw:0;vgx:0;vgy:0;vgz:0;templ:80;temph:83;tof:10;h:0;bat:81;baro:17.04;time:0;agx:10.00;agy:1.00;agz:-1000.00;
 OAĽ~",81,0,0,0,0,0,0,10.00,1.00,-1000.00,17.04,10,0
7201.573966,"pitch:0;roll:0;yaw:0;vgx:0;vgy:0;vgz:0;templ:80;temph:83;tof:10;h:0;bat:81;baro:17.04;time:0;agx:13.00;agy:2.00;agz:-997.00;

 OAĽ~",81,0,0,0,0,0,0,13.00,2.00,-997.00,17.04,10,0
7201.679143,"pitch:0;roll:0;yaw:0;vgx:0;vgy:0;vgz:0;templ:80;temph:83;tof:10;h:0;bat:81;baro:17.08;time:0;agx:13.00;agy:1.00;agz:-1002.00;
 OAĽ~",81,0,0,0,0,0,0,13.00,1.00,-1002.00,17.08,10,0
7201.780076,"pitch:0;roll:0;yaw:0;vgx:0;vgy:0;vgz:0;templ:80;temph:83;tof:10;h:0;bat:81;baro:17.01;time:0;agx:11.00;agy:1.00;agz:-1000.00;
 OAĽ~",81,0,0,0,0,0,0,11.00,1.00,-1000.00,17.01,10,0
7201.881066,"pitch:0;roll:0;yaw:0;vgx:0;vgy:0;vgz:0;templ:80;temph:83;tof:10;h:0;bat:81;baro:17.08;time:0;agx:12.00;agy:1.00;agz:-1000.00;
 OAĽ~",81,0,0,0,0,0,0,12.00,1.00,-1000.00,17.08,10,0
7201.932072,"pitch:0;roll:0;yaw:0;vgx:0;vgy:0;vgz:0;templ:80;temph:83;tof:10;h:0;bat:81;baro:17.07;time:0;agx:12.00;agy:2.00;agz:-1000.00;
 OAĽ~",81,0,0,0,0,0,0,12.00,2.00,-1000.00,17.07,10,0
7202.034116,"pitch:0;roll:0;yaw:0;vgx:0;vgy:0;vgz:0;templ:80;temph:83;tof:10;h:0;bat:81;baro:17.04;time:0;agx:13.00;agy:1.00;agz:-996.00;

 OAĽ~",81,0,0,0,0,0,0,13.00,1.00,-996.00,17.04,10,0
7202.136193,"pitch:0;roll:0;yaw:0;vgx:0;vgy:0;vgz:0;templ:80;temph:83;tof:10;h:0;bat:81;baro:17.07;time:0;agx:12.00;agy:1.00;agz:-1000.00;
 OAĽ~",81,0,0,0,0,0,0,12.00,1.00,-1000.00,17.07,10,0
7202.288983,"pitch:0;roll:0;yaw:0;vgx:0;vgy:0;vgz:0;templ:80;temph:83;tof:10;h:0;bat:81;baro:17.09;time:0;agx:13.00;agy:1.00;agz:-998.00;

 OAĽ~",81,0,0,0,0,0,0,13.00,1.00,-998.00,17.09,10,0
7202.390923,"pitch:0;roll:0;yaw:0;vgx:0;vgy:0;vgz:0;templ:80;temph:83;tof:10;h:0;bat:81;baro:17.05;time:0;agx:13.00;agy:3.00;agz:-999.00;

 OAĽ~",81,0,0,0,0,0,0,13.00,3.00,-999.00,17.05,10,0
7202.443299,"pitch:0;roll:0;yaw:0;vgx:0;vgy:0;vgz:0;templ:80;temph:83;tof:10;h:0;bat:81;baro:17.02;time:0;agx:14.00;agy:2.00;agz:-1000.00;
 OAĽ~",81,0,0,0,0,0,0,14.00,2.00,-1000.00,17.02,10,0
7202.545424,"pitch:0;roll:0;yaw:0;vgx:0;vgy:0;vgz:0;templ:80;temph:83;tof:10;h:0;bat:81;baro:17.07;time:0;agx:13.00;agy:2.00;agz:-999.00;

 OAĽ~",81,0,0,0,0,0,0,13.00,2.00,-999.00,17.07,10,0
7202.648073,"pitch:0;roll:0;yaw:0;vgx:0;vgy:0;vgz:0;templ:80;temph:83;tof:10;h:0;bat:81;baro:17.03;time:0;agx:12.00;agy:3.00;agz:-998.00;

 OAĽ~",81,0,0,0,0,0,0,12.00,3.00,-998.00,17.03,10,0
7202.747912,"pitch:0;roll:0;yaw:0;vgx:0;vgy:0;vgz:0;templ:80;temph:83;tof:10;h:0;bat:81;baro:17.02;time:0;agx:13.00;agy:1.00;agz:-999.00;

 OAĽ~",81,0,0,0,0,0,0,13.00,1.00,-999.00,17.02,10,0
7202.849971,"pitch:0;roll:0;yaw:0;vgx:0;vgy:0;vgz:0;templ:80;temph:83;tof:10;h:0;bat:81;baro:17.02;time:0;agx:11.00;agy:1.00;agz:-999.00;

 OAĽ~",81,0,0,0,0,0,0,11.00,1.00,-999.00,17.02,10,0
7202.952042,"pitch:0;roll:0;yaw:0;vgx:0;vgy:0;vgz:0;templ:80;temph:83;tof:10;h:0;bat:81;baro:17.02;time:0;agx:13.00;agy:1.00;agz:-999.00;

 OAĽ~",81,0,0,0,0,0,0,13.00,1.00,-999.00,17.02,10,0
7203.053929,"pitch:0;roll:0;yaw:0;vgx:0;vgy:0;vgz:0;templ:80;temph:83;tof:10;h:0;bat:81;baro:17.06;time:0;agx:13.00;agy:1.00;agz:-1002.00;
 OAĽ~",81,0,0,0,0,0,0,13.00,1.00,-1002.00,17.06,10,0
7203.155991,"pitch:0;roll:0;yaw:0;vgx:0;vgy:0;vgz:0;templ:80;temph:83;tof:10;h:0;bat:81;baro:17.05;time:0;agx:12.00;agy:0.00;agz:-1001.00;
 OAĽ~",81,0,0,0,0,0,0,12.00,0.00,-1001.00,17.05,10,0
7203.257876,"pitch:0;roll:0;yaw:0;vgx:0;vgy:0;vgz:0;templ:81;temph:83;tof:10;h:0;bat:81;baro:17.08;time:0;agx:12.00;agy:2.00;agz:-999.00;

 OAĽ~",81,0,0,0,0,0,0,12.00,2.00,-999.00,17.08,10,0
7203.360335,"pitch:0;roll:0;yaw:0;vgx:0;vgy:0;vgz:0;templ:81;temph:83;tof:10;h:0;bat:81;baro:17.05;time:0;agx:12.00;agy:0.00;agz:-1000.00;
 OAĽ~",81,0,0,0,0,0,0,12.00,0.00,-1000.00,17.05,10,0
7203.462064,"pitch:0;roll:0;yaw:0;vgx:0;vgy:0;vgz:0;templ:81;temph:83;tof:10;h:0;bat:81;baro:17.01;time:0;agx:13.00;agy:2.00;agz:-1000.00;
 OAĽ~",81,0,0,0,0,0,0,13.00,2.00,-1000.00,17.01,10,0
7203.564061,"pitch:0;roll:0;yaw:0;vgx:0;vgy:0;vgz:0;templ:81;temph:83;tof:10;h:0;bat:81;baro:17.02;time:0;agx:13.00;agy:3.00;agz:-998.00;

 OAĽ~",81,0,0,0,0,0,0,13.00,3.00,-998.00,17.02,10,0
7203.666074,"pitch:0;roll:0;yaw:0;vgx:0;vgy:0;vgz:0;templ:81;temph:83;tof:10;h:0;bat:81;baro:17.03;time:0;agx:13.00;agy:1.00;agz:-1001.00;
 OAĽ~",81,0,0,0,0,0,0,13.00,1.00,-1001.00,17.03,10,0
7203.767875,"pitch:0;roll:0;yaw:0;vgx:0;vgy:0;vgz:0;templ:81;temph:83;tof:10;h:0;bat:81;baro:17.05;time:0;agx:12.00;agy:2.00;agz:-1000.00;
 OAĽ~",81,0,0,0,0,0,0,12.00,2.00,-1000.00,17.05,10,0
7203.869994,"pitch:0;roll:0;yaw:0;vgx:0;vgy:0;vgz:0;templ:81;temph:83;tof:10;h:0;bat:81;baro:17.00;time:0;agx:14.00;agy:2.00;agz:-1001.00;
 OAĽ~",81,0,0,0,0,0,0,14.00,2.00,-1001.00,17.00,10,0
7203.971985,"pitch:0;roll:0;yaw:0;vgx:0;vgy:0;vgz:0;templ:81;temph:83;tof:10;h:0;bat:81;baro:17.02;time:0;agx:13.00;agy:1.00;agz:-998.00;

 OAĽ~",81,0,0,0,0,0,0,13.00,1.00,-998.00,17.02,10,0
7204.073991,"pitch:0;roll:0;yaw:0;vgx:0;vgy:0;vgz:0;templ:81;temph:83;tof:10;h:0;bat:81;baro:17.02;time:0;agx:13.00;agy:0.00;agz:-1001.00;
 OAĽ~",81,0,0,0,0,0,0,13.00,0.00,-1001.00,17.02,10,0
7204.178123,"pitch:0;roll:0;yaw:0;vgx:0;vgy:0;vgz:0;templ:81;temph:83;tof:10;h:0;bat:81;baro:17.05;time:0;agx:12.00;agy:2.00;agz:-999.00;

 OAĽ~",81,0,0,0,0,0,0,12.00,2.00,-999.00,17.05,10,0
7204.277912,"pitch:0;roll:0;yaw:0;vgx:0;vgy:0;vgz:0;templ:82;temph:83;tof:10;h:0;bat:81;baro:16.97;time:0;agx:12.00;agy:2.00;agz:-999.00;

 OAĽ~",81,0,0,0,0,0,0,12.00,2.00,-999.00,16.97,10,0
7204.380038,"pitch:0;roll:0;yaw:0;vgx:0;vgy:0;vgz:0;templ:82;temph:83;tof:10;h:0;bat:81;baro:17.00;time:0;agx:14.00;agy:1.00;agz:-1000.00;
 OAĽ~",81,0,0,0,0,0,0,14.00,1.00,-1000.00,17.00,10,0
7204.481830,"pitch:0;roll:0;yaw:0;vgx:0;vgy:0;vgz:0;templ:82;temph:83;tof:10;h:0;bat:81;baro:16.99;time:0;agx:13.00;agy:1.00;agz:-1001.00;
 OAĽ~",81,0,0,0,0,0,0,13.00,1.00,-1001.00,16.99,10,0
7204.583812,"pitch:0;roll:0;yaw:0;vgx:0;vgy:0;vgz:0;templ:82;temph:83;tof:10;h:0;bat:81;baro:16.97;time:0;agx:13.00;agy:1.00;agz:-998.00;

 OAĽ~",81,0,0,0,0,0,0,13.00,1.00,-998.00,16.97,10,0
7204.686079,"pitch:0;roll:0;yaw:0;vgx:0;vgy:0;vgz:0;templ:82;temph:83;tof:10;h:0;bat:81;baro:17.01;time:0;agx:13.00;agy:1.00;agz:-1000.00;
 OAĽ~",81,0,0,0,0,0,0,13.00,1.00,-1000.00,17.01,10,0
7204.787966,"pitch:0;roll:0;yaw:0;vgx:0;vgy:0;vgz:0;templ:82;temph:83;tof:10;h:0;bat:81;baro:17.00;time:0;agx:13.00;agy:2.00;agz:-1002.00;
 OAĽ~",81,0,0,0,0,0,0,13.00,2.00,-1002.00,17.00,10,0
7204.889791,"pitch:0;roll:0;yaw:0;vgx:0;vgy:0;vgz:0;templ:82;temph:83;tof:10;h:0;bat:81;baro:17.00;time:0;agx:12.00;agy:1.00;agz:-1002.00;
 OAĽ~",81,0,0,0,0,0,0,12.00,1.00,-1002.00,17.00,10,0
7204.991959,"pitch:0;roll:0;yaw:0;vgx:0;vgy:0;vgz:0;templ:82;temph:83;tof:10;h:0;bat:81;baro:17.00;time:0;agx:13.00;agy:2.00;agz:-998.00;

 OAĽ~",81,0,0,0,0,0,0,13.00,2.00,-998.00,17.00,10,0
7205.093741,"pitch:0;roll:0;yaw:0;vgx:0;vgy:0;vgz:0;templ:82;temph:83;tof:10;h:0;bat:81;baro:17.05;time:0;agx:12.00;agy:1.00;agz:-1002.00;
 OAĽ~",81,0,0,0,0,0,0,12.00,1.00,-1002.00,17.05,10,0
7205.195771,"pitch:0;roll:0;yaw:0;vgx:0;vgy:0;vgz:0;templ:82;temph:83;tof:10;h:0;bat:81;baro:16.98;time:0;agx:12.00;agy:2.00;agz:-1001.00;
 OAĽ~",81,0,0,0,0,0,0,12.00,2.00,-1001.00,16.98,10,0
7205.297725,"pitch:0;roll:0;yaw:0;vgx:0;vgy:0;vgz:0;templ:82;temph:84;tof:10;h:0;bat:81;baro:16.98;time:0;agx:13.00;agy:0.00;agz:-1001.00;
 OAĽ~",81,0,0,0,0,0,0,13.00,0.00,-1001.00,16.98,10,0
7205.400042,"pitch:0;roll:0;yaw:0;vgx:0;vgy:0;vgz:0;templ:82;temph:84;tof:10;h:0;bat:81;baro:16.96;time:0;agx:12.00;agy:1.00;agz:-1001.00;
 OAĽ~",81,0,0,0,0,0,0,12.00,1.00,-1001.00,16.96,10,0
7205.451122,"pitch:0;roll:0;yaw:0;vgx:0;vgy:0;vgz:0;templ:82;temph:84;tof:10;h:0;bat:81;baro:17.01;time:0;agx:13.00;agy:0.00;agz:-1000.00;
 OAĽ~",81,0,0,0,0,0,0,13.00,0.00,-1000.00,17.01,10,0
7205.552945,"pitch:0;roll:0;yaw:0;vgx:0;vgy:0;vgz:0;templ:82;temph:84;tof:10;h:0;bat:81;baro:17.01;time:0;agx:13.00;agy:2.00;agz:-1000.00;
 OAĽ~",81,0,0,0,0,0,0,13.00,2.00,-1000.00,17.01,10,0
7205.654594,"pitch:0;roll:0;yaw:0;vgx:0;vgy:0;vgz:0;templ:82;temph:84;tof:10;h:0;bat:81;baro:16.99;time:0;agx:11.00;agy:0.00;agz:-1000.00;
 OAĽ~",81,0,0,0,0,0,0,11.00,0.00,-1000.00,16.99,10,0
7205.756855,"pitch:0;roll:0;yaw:0;vgx:0;vgy:0;vgz:0;templ:82;temph:84;tof:10;h:0;bat:81;baro:16.99;time:0;agx:12.00;agy:1.00;agz:-1002.00;
 OAĽ~",81,0,0,0,0,0,0,12.00,1.00,-1002.00,16.99,10,0
7205.858749,"pitch:0;roll:0;yaw:0;vgx:0;vgy:0;vgz:0;templ:82;temph:84;tof:10;h:0;bat:81;baro:17.00;time:0;agx:12.00;agy:1.00;agz:-1000.00;
 OAĽ~",81,0,0,0,0,0,0,12.00,1.00,-1000.00,17.00,10,0
7205.960558,"pitch:0;roll:0;yaw:0;vgx:0;vgy:0;vgz:0;templ:82;temph:84;tof:10;h:0;bat:81;baro:16.97;time:0;agx:13.00;agy:0.00;agz:-1000.00;
 OAĽ~",81,0,0,0,0,0,0,13.00,0.00,-1000.00,16.97,10,0
7206.062619,"pitch:0;roll:0;yaw:0;vgx:0;vgy:0;vgz:0;templ:82;temph:84;tof:10;h:0;bat:81;baro:16.97;time:0;agx:12.00;agy:0.00;agz:-998.00;

 OAĽ~",81,0,0,0,0,0,0,12.00,0.00,-998.00,16.97,10,0
7206.164719,"pitch:0;roll:0;yaw:0;vgx:0;vgy:0;vgz:0;templ:82;temph:84;tof:10;h:0;bat:81;baro:16.95;time:0;agx:12.00;agy:1.00;agz:-999.00;

 OAĽ~",81,0,0,0,0,0,0,12.00,1.00,-999.00,16.95,10,0
7206.266910,"pitch:0;roll:0;yaw:0;vgx:0;vgy:0;vgz:0;templ:82;temph:84;tof:10;h:0;bat:81;baro:16.92;time:0;agx:12.00;agy:1.00;agz:-1000.00;
 OAĽ~",81,0,0,0,0,0,0,12.00,1.00,-1000.00,16.92,10,0
7206.368702,"pitch:0;roll:0;yaw:0;vgx:0;vgy:0;vgz:0;templ:82;temph:84;tof:10;h:0;bat:81;baro:16.98;time:0;agx:12.00;agy:0.00;agz:-1000.00;
 OAĽ~",81,0,0,0,0,0,0,12.00,0.00,-1000.00,16.98,10,0
7206.470550,"pitch:0;roll:0;yaw:0;vgx:0;vgy:0;vgz:0;templ:82;temph:84;tof:10;h:0;bat:81;baro:17.01;time:0;agx:13.00;agy:1.00;agz:-999.00;

 OAĽ~",81,0,0,0,0,0,0,13.00,1.00,-999.00,17.01,10,0
7206.572824,"pitch:0;roll:0;yaw:0;vgx:0;vgy:0;vgz:0;templ:82;temph:84;tof:10;h:0;bat:81;baro:16.98;time:0;agx:12.00;agy:1.00;agz:-1002.00;
 OAĽ~",81,0,0,0,0,0,0,12.00,1.00,-1002.00,16.98,10,0
7206.677278,"pitch:0;roll:0;yaw:0;vgx:0;vgy:0;vgz:0;templ:82;temph:84;tof:10;h:0;bat:81;baro:16.99;time:0;agx:13.00;agy:2.00;agz:-1001.00;
 OAĽ~",81,0,0,0,0,0,0,13.00,2.00,-1001.00,16.99,10,0
7206.777779,"pitch:0;roll:0;yaw:0;vgx:0;vgy:0;vgz:0;templ:82;temph:84;tof:10;h:0;bat:81;baro:16.97;time:0;agx:13.00;agy:0.00;agz:-999.00;

 OAĽ~",81,0,0,0,0,0,0,13.00,0.00,-999.00,16.97,10,0
7206.880247,"pitch:0;roll:0;yaw:0;vgx:0;vgy:0;vgz:0;templ:82;temph:84;tof:10;h:0;bat:81;baro:16.98;time:0;agx:13.00;agy:1.00;agz:-1001.00;
 OAĽ~",81,0,0,0,0,0,0,13.00,1.00,-1001.00,16.98,10,0
7206.981649,"pitch:0;roll:0;yaw:0;vgx:0;vgy:0;vgz:0;templ:82;temph:84;tof:10;h:0;bat:81;baro:16.94;time:0;agx:13.00;agy:0.00;agz:-1001.00;
 OAĽ~",81,0,0,0,0,0,0,13.00,0.00,-1001.00,16.94,10,0
7207.083840,"pitch:0;roll:0;yaw:0;vgx:0;vgy:0;vgz:0;templ:82;temph:84;tof:10;h:0;bat:81;baro:16.94;time:0;agx:10.00;agy:1.00;agz:-999.00;

 OAĽ~",81,0,0,0,0,0,0,10.00,1.00,-999.00,16.94,10,0
7207.185644,"pitch:0;roll:0;yaw:0;vgx:0;vgy:0;vgz:0;templ:82;temph:84;tof:10;h:0;bat:81;baro:16.93;time:0;agx:13.00;agy:0.00;agz:-998.00;

 OAĽ~",81,0,0,0,0,0,0,13.00,0.00,-998.00,16.93,10,0
7207.287891,"pitch:0;roll:0;yaw:0;vgx:0;vgy:0;vgz:0;templ:81;temph:84;tof:10;h:0;bat:81;baro:17.00;time:0;agx:12.00;agy:1.00;agz:-999.00;

 OAĽ~",81,0,0,0,0,0,0,12.00,1.00,-999.00,17.00,10,0
7207.389701,"pitch:0;roll:0;yaw:0;vgx:0;vgy:0;vgz:0;templ:81;temph:84;tof:10;h:0;bat:81;baro:17.03;time:0;agx:13.00;agy:0.00;agz:-997.00;

 OAĽ~",81,0,0,0,0,0,0,13.00,0.00,-997.00,17.03,10,0
7207.491643,"pitch:0;roll:0;yaw:0;vgx:0;vgy:0;vgz:0;templ:81;temph:84;tof:10;h:0;bat:81;baro:16.97;time:0;agx:13.00;agy:1.00;agz:-1000.00;
 OAĽ~",81,0,0,0,0,0,0,13.00,1.00,-1000.00,16.97,10,0
7207.593576,"pitch:0;roll:0;yaw:0;vgx:0;vgy:0;vgz:0;templ:81;temph:84;tof:10;h:0;bat:81;baro:16.92;time:0;agx:12.00;agy:1.00;agz:-1000.00;
 OAĽ~",81,0,0,0,0,0,0,12.00,1.00,-1000.00,16.92,10,0
7207.695909,"pitch:0;roll:0;yaw:0;vgx:0;vgy:0;vgz:0;templ:81;temph:84;tof:10;h:0;bat:81;baro:16.96;time:0;agx:13.00;agy:1.00;agz:-999.00;

 OAĽ~",81,0,0,0,0,0,0,13.00,1.00,-999.00,16.96,10,0
7207.797579,"pitch:0;roll:0;yaw:0;vgx:0;vgy:0;vgz:0;templ:81;temph:84;tof:10;h:0;bat:81;baro:16.93;time:0;agx:13.00;agy:0.00;agz:-998.00;

 OAĽ~",81,0,0,0,0,0,0,13.00,0.00,-998.00,16.93,10,0
7207.899976,"pitch:0;roll:0;yaw:0;vgx:0;vgy:0;vgz:0;templ:81;temph:84;tof:10;h:0;bat:81;baro:16.92;time:0;agx:11.00;agy:2.00;agz:-999.00;

 OAĽ~",81,0,0,0,0,0,0,11.00,2.00,-999.00,16.92,10,0
7208.003582,"pitch:0;roll:0;yaw:0;vgx:0;vgy:0;vgz:0;templ:81;temph:84;tof:10;h:0;bat:81;baro:16.95;time:0;agx:13.00;agy:2.00;agz:-1000.00;
 OAĽ~",81,0,0,0,0,0,0,13.00,2.00,-1000.00,16.95,10,0
7208.104391,"pitch:0;roll:0;yaw:0;vgx:0;vgy:0;vgz:0;templ:81;temph:84;tof:10;h:0;bat:81;baro:16.94;time:0;agx:13.00;agy:1.00;agz:-998.00;

 OAĽ~",81,0,0,0,0,0,0,13.00,1.00,-998.00,16.94,10,0
7208.208376,"pitch:0;roll:0;yaw:0;vgx:0;vgy:0;vgz:0;templ:81;temph:84;tof:10;h:0;bat:81;baro:16.93;time:0;agx:12.00;agy:2.00;agz:-1002.00;
 OAĽ~",81,0,0,0,0,0,0,12.00,2.00,-1002.00,16.93,10,0
7208.311436,"pitch:0;roll:0;yaw:0;vgx:0;vgy:0;vgz:0;templ:82;temph:84;tof:10;h:0;bat:81;baro:16.91;time:0;agx:12.00;agy:1.00;agz:-1000.00;
 OAĽ~",81,0,0,0,0,0,0,12.00,1.00,-1000.00,16.91,10,0
7208.412605,"pitch:0;roll:0;yaw:0;vgx:0;vgy:0;vgz:0;templ:82;temph:84;tof:10;h:0;bat:81;baro:16.97;time:0;agx:12.00;agy:0.00;agz:-1000.00;
 OAĽ~",81,0,0,0,0,0,0,12.00,0.00,-1000.00,16.97,10,0
7208.512049,"pitch:0;roll:0;yaw:0;vgx:0;vgy:0;vgz:0;templ:82;temph:84;tof:10;h:0;bat:81;baro:16.89;time:0;agx:12.00;agy:2.00;agz:-1000.00;
 OAĽ~",81,0,0,0,0,0,0,12.00,2.00,-1000.00,16.89,10,0
7208.613871,"pitch:0;roll:0;yaw:0;vgx:0;vgy:0;vgz:0;templ:82;temph:84;tof:10;h:0;bat:81;baro:16.86;time:0;agx:11.00;agy:2.00;agz:-999.00;

 OAĽ~",81,0,0,0,0,0,0,11.00,2.00,-999.00,16.86,10,0
7208.715927,"pitch:0;roll:0;yaw:0;vgx:0;vgy:0;vgz:0;templ:82;temph:84;tof:10;h:0;bat:81;baro:16.89;time:0;agx:13.00;agy:1.00;agz:-1000.00;
 OAĽ~",81,0,0,0,0,0,0,13.00,1.00,-1000.00,16.89,10,0
7208.767121,"pitch:0;roll:0;yaw:0;vgx:0;vgy:0;vgz:0;templ:82;temph:84;tof:10;h:0;bat:81;baro:16.91;time:0;agx:13.00;agy:1.00;agz:-999.00;

 OAĽ~",81,0,0,0,0,0,0,13.00,1.00,-999.00,16.91,10,0
7208.868957,"pitch:0;roll:0;yaw:0;vgx:0;vgy:0;vgz:0;templ:82;temph:84;tof:10;h:0;bat:81;baro:16.98;time:0;agx:12.00;agy:1.00;agz:-999.00;

 OAĽ~",81,0,0,0,0,0,0,12.00,1.00,-999.00,16.98,10,0
7208.971083,"pitch:0;roll:0;yaw:0;vgx:0;vgy:0;vgz:0;templ:82;temph:84;tof:10;h:0;bat:81;baro:16.92;time:0;agx:13.00;agy:0.00;agz:-998.00;

 OAĽ~",81,0,0,0,0,0,0,13.00,0.00,-998.00,16.92,10,0
7209.072796,"pitch:0;roll:0;yaw:0;vgx:0;vgy:0;vgz:0;templ:82;temph:84;tof:10;h:0;bat:81;baro:16.94;time:0;agx:12.00;agy:0.00;agz:-1002.00;
 OAĽ~",81,0,0,0,0,0,0,12.00,0.00,-1002.00,16.94,10,0
7209.175995,"pitch:0;roll:0;yaw:0;vgx:0;vgy:0;vgz:0;templ:82;temph:84;tof:10;h:0;bat:81;baro:16.94;time:0;agx:13.00;agy:1.00;agz:-999.00;

 OAĽ~",81,0,0,0,0,0,0,13.00,1.00,-999.00,16.94,10,0
7209.277842,"pitch:0;roll:0;yaw:0;vgx:0;vgy:0;vgz:0;templ:82;temph:84;tof:10;h:0;bat:81;baro:16.91;time:0;agx:12.00;agy:1.00;agz:-1001.00;
 OAĽ~",81,0,0,0,0,0,0,12.00,1.00,-1001.00,16.91,10,0
7209.380621,"pitch:0;roll:0;yaw:0;vgx:0;vgy:0;vgz:0;templ:82;temph:84;tof:10;h:0;bat:81;baro:16.93;time:0;agx:13.00;agy:1.00;agz:-1000.00;
 OAĽ~",81,0,0,0,0,0,0,13.00,1.00,-1000.00,16.93,10,0
7209.480495,"pitch:0;roll:0;yaw:0;vgx:0;vgy:0;vgz:0;templ:82;temph:84;tof:10;h:0;bat:81;baro:16.88;time:0;agx:14.00;agy:0.00;agz:-999.00;

 OAĽ~",81,0,0,0,0,0,0,14.00,0.00,-999.00,16.88,10,0
7209.582513,"pitch:0;roll:0;yaw:0;vgx:0;vgy:0;vgz:0;templ:82;temph:84;tof:10;h:0;bat:81;baro:16.94;time:0;agx:13.00;agy:1.00;agz:-999.00;

 OAĽ~",81,0,0,0,0,0,0,13.00,1.00,-999.00,16.94,10,0
7209.684585,"pitch:0;roll:0;yaw:0;vgx:0;vgy:0;vgz:0;templ:82;temph:84;tof:10;h:0;bat:81;baro:16.89;time:0;agx:14.00;agy:0.00;agz:-1001.00;
 OAĽ~",81,0,0,0,0,0,0,14.00,0.00,-1001.00,16.89,10,0
7209.786827,"pitch:0;roll:0;yaw:0;vgx:0;vgy:0;vgz:0;templ:82;temph:84;tof:10;h:0;bat:81;baro:16.88;time:0;agx:12.00;agy:0.00;agz:-1001.00;
 OAĽ~",81,0,0,0,0,0,0,12.00,0.00,-1001.00,16.88,10,0
7209.888525,"pitch:0;roll:0;yaw:0;vgx:0;vgy:0;vgz:0;templ:82;temph:84;tof:10;h:0;bat:81;baro:16.83;time:0;agx:12.00;agy:2.00;agz:-999.00;

 OAĽ~",81,0,0,0,0,0,0,12.00,2.00,-999.00,16.83,10,0
7209.990561,"pitch:0;roll:0;yaw:0;vgx:0;vgy:0;vgz:0;templ:82;temph:84;tof:10;h:0;bat:81;baro:16.89;time:0;agx:13.00;agy:2.00;agz:-999.00;

 OAĽ~",81,0,0,0,0,0,0,13.00,2.00,-999.00,16.89,10,0
7210.092884,"pitch:0;roll:0;yaw:0;vgx:0;vgy:0;vgz:0;templ:82;temph:84;tof:10;h:0;bat:81;baro:16.89;time:0;agx:12.00;agy:2.00;agz:-1000.00;
 OAĽ~",81,0,0,0,0,0,0,12.00,2.00,-1000.00,16.89,10,0
7210.194498,"pitch:0;roll:0;yaw:0;vgx:0;vgy:0;vgz:0;templ:82;temph:84;tof:10;h:0;bat:81;baro:16.88;time:0;agx:12.00;agy:0.00;agz:-1000.00;
 OAĽ~",81,0,0,0,0,0,0,12.00,0.00,-1000.00,16.88,10,0
7210.296490,"pitch:0;roll:0;yaw:0;vgx:0;vgy:0;vgz:0;templ:83;temph:85;tof:10;h:0;bat:81;baro:16.86;time:0;agx:13.00;agy:0.00;agz:-1000.00;
 OAĽ~",81,0,0,0,0,0,0,13.00,0.00,-1000.00,16.86,10,0
7210.398479,"pitch:0;roll:0;yaw:0;vgx:0;vgy:0;vgz:0;templ:83;temph:85;tof:10;h:0;bat:81;baro:16.87;time:0;agx:11.00;agy:0.00;agz:-999.00;

 OAĽ~",81,0,0,0,0,0,0,11.00,0.00,-999.00,16.87,10,0
7210.500501,"pitch:0;roll:0;yaw:0;vgx:0;vgy:0;vgz:0;templ:83;temph:85;tof:10;h:0;bat:81;baro:16.87;time:0;agx:14.00;agy:1.00;agz:-1003.00;
 OAĽ~",81,0,0,0,0,0,0,14.00,1.00,-1003.00,16.87,10,0
7210.602533,"pitch:0;roll:0;yaw:0;vgx:0;vgy:0;vgz:0;templ:83;temph:85;tof:10;h:0;bat:81;baro:16.92;time:0;agx:12.00;agy:1.00;agz:-1000.00;
 OAĽ~",81,0,0,0,0,0,0,12.00,1.00,-1000.00,16.92,10,0
7210.704563,"pitch:0;roll:0;yaw:0;vgx:0;vgy:0;vgz:0;templ:83;temph:85;tof:10;h:0;bat:81;baro:16.93;time:0;agx:12.00;agy:1.00;agz:-1001.00;
 OAĽ~",81,0,0,0,0,0,0,12.00,1.00,-1001.00,16.93,10,0
7210.808166,"pitch:0;roll:0;yaw:0;vgx:0;vgy:0;vgz:0;templ:83;temph:85;tof:10;h:0;bat:81;baro:16.85;time:0;agx:12.00;agy:2.00;agz:-1000.00;
 OAĽ~",81,0,0,0,0,0,0,12.00,2.00,-1000.00,16.85,10,0
7210.910946,"pitch:0;roll:0;yaw:0;vgx:0;vgy:0;vgz:0;templ:83;temph:85;tof:10;h:0;bat:81;baro:16.88;time:0;agx:13.00;agy:0.00;agz:-1004.00;
 OAĽ~",81,0,0,0,0,0,0,13.00,0.00,-1004.00,16.88,10,0
7211.012251,"pitch:0;roll:0;yaw:0;vgx:0;vgy:0;vgz:0;templ:83;temph:85;tof:10;h:0;bat:81;baro:16.87;time:0;agx:11.00;agy:2.00;agz:-1001.00;
 OAĽ~",81,0,0,0,0,0,0,11.00,2.00,-1001.00,16.87,10,0
7211.112492,"pitch:0;roll:0;yaw:0;vgx:0;vgy:0;vgz:0;templ:83;temph:85;tof:10;h:0;bat:81;baro:16.81;time:0;agx:13.00;agy:2.00;agz:-1000.00;
 OAĽ~",81,0,0,0,0,0,0,13.00,2.00,-1000.00,16.81,10,0
7211.214639,"pitch:0;roll:0;yaw:0;vgx:0;vgy:0;vgz:0;templ:83;temph:85;tof:10;h:0;bat:81;baro:16.87;time:0;agx:12.00;agy:0.00;agz:-1000.00;
 OAĽ~",81,0,0,0,0,0,0,12.00,0.00,-1000.00,16.87,10,0
7211.316461,"pitch:0;roll:0;yaw:0;vgx:0;vgy:0;vgz:0;templ:83;temph:85;tof:10;h:0;bat:81;baro:16.79;time:0;agx:13.00;agy:0.00;agz:-1000.00;
 OAĽ~",81,0,0,0,0,0,0,13.00,0.00,-1000.00,16.79,10,0
7211.418814,"pitch:0;roll:0;yaw:0;vgx:0;vgy:0;vgz:0;templ:83;temph:85;tof:10;h:0;bat:81;baro:16.78;time:0;agx:13.00;agy:1.00;agz:-1001.00;
 OAĽ~",81,0,0,0,0,0,0,13.00,1.00,-1001.00,16.78,10,0
7211.520819,"pitch:0;roll:0;yaw:0;vgx:0;vgy:0;vgz:0;templ:83;temph:85;tof:10;h:0;bat:81;baro:16.80;time:0;agx:13.00;agy:0.00;agz:-1001.00;
 OAĽ~",81,0,0,0,0,0,0,13.00,0.00,-1001.00,16.80,10,0
7211.622857,"pitch:0;roll:0;yaw:0;vgx:0;vgy:0;vgz:0;templ:83;temph:85;tof:10;h:0;bat:81;baro:16.77;time:0;agx:15.00;agy:3.00;agz:-1001.00;
 OAĽ~",81,0,0,0,0,0,0,15.00,3.00,-1001.00,16.77,10,0
7211.724933,"pitch:0;roll:0;yaw:0;vgx:0;vgy:0;vgz:0;templ:83;temph:85;tof:10;h:0;bat:81;baro:16.78;time:0;agx:12.00;agy:2.00;agz:-999.00;

 OAĽ~",81,0,0,0,0,0,0,12.00,2.00,-999.00,16.78,10,0
7211.826809,"pitch:0;roll:0;yaw:0;vgx:0;vgy:0;vgz:0;templ:83;temph:85;tof:10;h:0;bat:81;baro:16.82;time:0;agx:11.00;agy:1.00;agz:-999.00;

 OAĽ~",81,0,0,0,0,0,0,11.00,1.00,-999.00,16.82,10,0
7211.928472,"pitch:0;roll:0;yaw:0;vgx:0;vgy:0;vgz:0;templ:83;temph:85;tof:10;h:0;bat:81;baro:16.80;time:0;agx:12.00;agy:2.00;agz:-1001.00;
 OAĽ~",81,0,0,0,0,0,0,12.00,2.00,-1001.00,16.80,10,0
7212.030595,"pitch:0;roll:0;yaw:0;vgx:0;vgy:0;vgz:0;templ:83;temph:85;tof:10;h:0;bat:81;baro:16.81;time:0;agx:13.00;agy:0.00;agz:-1000.00;
 OAĽ~",81,0,0,0,0,0,0,13.00,0.00,-1000.00,16.81,10,0
7212.081428,"pitch:0;roll:0;yaw:0;vgx:0;vgy:0;vgz:0;templ:83;temph:85;tof:10;h:0;bat:81;baro:16.79;time:0;agx:14.00;agy:1.00;agz:-1001.00;
 OAĽ~",81,0,0,0,0,0,0,14.00,1.00,-1001.00,16.79,10,0
7212.183409,"pitch:0;roll:0;yaw:0;vgx:0;vgy:0;vgz:0;templ:83;temph:85;tof:10;h:0;bat:81;baro:16.79;time:0;agx:13.00;agy:1.00;agz:-1000.00;
 OAĽ~",81,0,0,0,0,0,0,13.00,1.00,-1000.00,16.79,10,0
7212.336822,"pitch:0;roll:0;yaw:0;vgx:0;vgy:0;vgz:0;templ:83;temph:85;tof:10;h:0;bat:81;baro:16.78;time:0;agx:12.00;agy:0.00;agz:-999.00;

 OAĽ~",81,0,0,0,0,0,0,12.00,0.00,-999.00,16.78,10,0
7212.387425,"pitch:0;roll:0;yaw:0;vgx:0;vgy:0;vgz:0;templ:83;temph:85;tof:10;h:0;bat:81;baro:16.76;time:0;agx:13.00;agy:0.00;agz:-1000.00;
 OAĽ~",81,0,0,0,0,0,0,13.00,0.00,-1000.00,16.76,10,0
7212.489200,"pitch:0;roll:0;yaw:0;vgx:0;vgy:0;vgz:0;templ:83;temph:85;tof:10;h:0;bat:81;baro:16.79;time:0;agx:13.00;agy:1.00;agz:-1002.00;
 OAĽ~",81,0,0,0,0,0,0,13.00,1.00,-1002.00,16.79,10,0
7212.591397,"pitch:0;roll:0;yaw:0;vgx:0;vgy:0;vgz:0;templ:83;temph:85;tof:10;h:0;bat:81;baro:16.74;time:0;agx:13.00;agy:2.00;agz:-1001.00;
 OAĽ~",81,0,0,0,0,0,0,13.00,2.00,-1001.00,16.74,10,0
7212.693355,"pitch:0;roll:0;yaw:0;vgx:0;vgy:0;vgz:0;templ:83;temph:85;tof:10;h:0;bat:81;baro:16.77;time:0;agx:12.00;agy:1.00;agz:-1000.00;
 OAĽ~",81,0,0,0,0,0,0,12.00,1.00,-1000.00,16.77,10,0
7212.795410,"pitch:0;roll:0;yaw:0;vgx:0;vgy:0;vgz:0;templ:83;temph:85;tof:10;h:0;bat:81;baro:16.73;time:0;agx:13.00;agy:2.00;agz:-999.00;

 OAĽ~",81,0,0,0,0,0,0,13.00,2.00,-999.00,16.73,10,0
7212.897416,"pitch:0;roll:0;yaw:0;vgx:0;vgy:0;vgz:0;templ:83;temph:85;tof:10;h:0;bat:81;baro:16.77;time:0;agx:13.00;agy:1.00;agz:-1000.00;
 OAĽ~",81,0,0,0,0,0,0,13.00,1.00,-1000.00,16.77,10,0
7212.999420,"pitch:0;roll:0;yaw:0;vgx:0;vgy:0;vgz:0;templ:83;temph:85;tof:10;h:0;bat:81;baro:16.74;time:0;agx:13.00;agy:1.00;agz:-999.00;

 OAĽ~",81,0,0,0,0,0,0,13.00,1.00,-999.00,16.74,10,0
7213.101755,"pitch:0;roll:0;yaw:0;vgx:0;vgy:0;vgz:0;templ:83;temph:85;tof:10;h:0;bat:81;baro:16.74;time:0;agx:13.00;agy:2.00;agz:-1000.00;
 OAĽ~",81,0,0,0,0,0,0,13.00,2.00,-1000.00,16.74,10,0
7213.203405,"pitch:0;roll:0;yaw:0;vgx:0;vgy:0;vgz:0;templ:83;temph:85;tof:10;h:0;bat:81;baro:16.75;time:0;agx:12.00;agy:0.00;agz:-1001.00;
 OAĽ~",81,0,0,0,0,0,0,12.00,0.00,-1001.00,16.75,10,0
7213.305711,"pitch:0;roll:0;yaw:0;vgx:0;vgy:0;vgz:0;templ:83;temph:85;tof:10;h:0;bat:81;baro:16.78;time:0;agx:12.00;agy:0.00;agz:-1001.00;
 OAĽ~",81,0,0,0,0,0,0,12.00,0.00,-1001.00,16.78,10,0
7213.410120,"pitch:0;roll:0;yaw:0;vgx:0;vgy:0;vgz:0;templ:83;temph:85;tof:10;h:0;bat:81;baro:16.75;time:0;agx:13.00;agy:1.00;agz:-998.00;

 OAĽ~",81,0,0,0,0,0,0,13.00,1.00,-998.00,16.75,10,0
7213.511058,"pitch:0;roll:0;yaw:0;vgx:0;vgy:0;vgz:0;templ:83;temph:85;tof:10;h:0;bat:80;baro:16.73;time:0;agx:11.00;agy:0.00;agz:-996.00;

 OAĽ~",80,0,0,0,0,0,0,11.00,0.00,-996.00,16.73,10,0
7213.612427,"pitch:0;roll:0;yaw:0;vgx:0;vgy:0;vgz:0;templ:83;temph:85;tof:10;h:0;bat:80;baro:16.74;time:0;agx:13.00;agy:1.00;agz:-1000.00;
 OAĽ~",80,0,0,0,0,0,0,13.00,1.00,-1000.00,16.74,10,0
7213.714564,"pitch:0;roll:0;yaw:0;vgx:0;vgy:0;vgz:0;templ:83;temph:85;tof:10;h:0;bat:80;baro:16.75;time:0;agx:12.00;agy:0.00;agz:-1002.00;
 OAĽ~",80,0,0,0,0,0,0,12.00,0.00,-1002.00,16.75,10,0
7213.816950,"pitch:0;roll:0;yaw:0;vgx:0;vgy:0;vgz:0;templ:83;temph:85;tof:10;h:0;bat:80;baro:16.71;time:0;agx:13.00;agy:1.00;agz:-1003.00;
 OAĽ~",80,0,0,0,0,0,0,13.00,1.00,-1003.00,16.71,10,0
7213.918325,"pitch:0;roll:0;yaw:0;vgx:0;vgy:0;vgz:0;templ:83;temph:85;tof:10;h:0;bat:80;baro:16.72;time:0;agx:12.00;agy:1.00;agz:-1001.00;
 OAĽ~",80,0,0,0,0,0,0,12.00,1.00,-1001.00,16.72,10,0
7214.020230,"pitch:0;roll:0;yaw:0;vgx:0;vgy:0;vgz:0;templ:83;temph:85;tof:10;h:0;bat:80;baro:16.73;time:0;agx:13.00;agy:1.00;agz:-1000.00;
 OAĽ~",80,0,0,0,0,0,0,13.00,1.00,-1000.00,16.73,10,0
7214.122377,"pitch:0;roll:0;yaw:0;vgx:0;vgy:0;vgz:0;templ:83;temph:85;tof:10;h:0;bat:80;baro:16.72;time:0;agx:14.00;agy:2.00;agz:-999.00;

 OAĽ~",80,0,0,0,0,0,0,14.00,2.00,-999.00,16.72,10,0
7214.224399,"pitch:0;roll:0;yaw:0;vgx:0;vgy:0;vgz:0;templ:83;temph:85;tof:10;h:0;bat:80;baro:16.69;time:0;agx:12.00;agy:2.00;agz:-999.00;

 OAĽ~",80,0,0,0,0,0,0,12.00,2.00,-999.00,16.69,10,0
7214.326294,"pitch:0;roll:0;yaw:0;vgx:0;vgy:0;vgz:0;templ:82;temph:86;tof:10;h:0;bat:80;baro:16.72;time:0;agx:13.00;agy:2.00;agz:-999.00;

 OAĽ~",80,0,0,0,0,0,0,13.00,2.00,-999.00,16.72,10,0
7214.428239,"pitch:0;roll:0;yaw:0;vgx:0;vgy:0;vgz:0;templ:82;temph:86;tof:10;h:0;bat:80;baro:16.70;time:0;agx:12.00;agy:2.00;agz:-1001.00;
 OAĽ~",80,0,0,0,0,0,0,12.00,2.00,-1001.00,16.70,10,0
