t_sec,raw,bat,pitch,roll,yaw,vgx,vgy,vgz,agx,agy,agz,baro,tof,h
8477.421411,"pitch:-1;roll:-1;yaw:0;vgx:0;vgy:0;vgz:0;templ:87;temph:90;tof:10;h:0;bat:58;baro:15.22;time:0;agx:-23.00;agy:21.00;agz:-999.00;
‚[",58,-1,-1,0,0,0,0,-23.00,21.00,-999.00,15.22,10,0
8477.525382,"pitch:-1;roll:-1;yaw:0;vgx:0;vgy:0;vgz:0;templ:87;temph:90;tof:10;h:0;bat:58;baro:15.19;time:0;agx:-21.00;agy:18.00;agz:-1000.00;
[",58,-1,-1,0,0,0,0,-21.00,18.00,-1000.00,15.19,10,0
8477.625287,"pitch:-1;roll:-1;yaw:0;vgx:0;vgy:0;vgz:0;templ:87;temph:90;tof:10;h:0;bat:58;baro:15.17;time:0;agx:-22.00;agy:20.00;agz:-998.00;

[",58,-1,-1,0,0,0,0,-22.00,20.00,-998.00,15.17,10,0
8477.729086,"pitch:-1;roll:-1;yaw:0;vgx:0;vgy:0;vgz:0;templ:87;temph:90;tof:10;h:0;bat:58;baro:15.20;time:0;agx:-22.00;agy:22.00;agz:-997.00;

[",58,-1,-1,0,0,0,0,-22.00,22.00,-997.00,15.20,10,0
8477.828978,"pitch:-1;roll:-1;yaw:0;vgx:0;vgy:0;vgz:0;templ:88;temph:90;tof:10;h:0;bat:58;baro:15.17;time:0;agx:-22.00;agy:19.00;agz:-999.00;

[",58,-1,-1,0,0,0,0,-22.00,19.00,-999.00,15.17,10,0
8477.930928,"pitch:-1;roll:-1;yaw:0;vgx:0;vgy:0;vgz:0;templ:88;temph:90;tof:10;h:0;bat:58;baro:15.20;time:0;agx:-20.00;agy:19.00;agz:-998.00;

[",58,-1,-1,0,0,0,0,-20.00,19.00,-998.00,15.20,10,0
8478.033019,"pitch:-1;roll:-1;yaw:0;vgx:0;vgy:0;vgz:0;templ:88;temph:90;tof:10;h:0;bat:58;baro:15.20;time:0;agx:-24.00;agy:18.00;agz:-998.00;

[",58,-1,-1,0,0,0,0,-24.00,18.00,-998.00,15.20,10,0
8478.135117,"pitch:-1;roll:-1;yaw:0;vgx:0;vgy:0;vgz:0;templ:88;temph:90;tof:10;h:0;bat:58;baro:15.13;time:0;agx:-21.00;agy:18.00;agz:-1000.00;
[",58,-1,-1,0,0,0,0,-21.00,18.00,-1000.00,15.13,10,0
8478.237323,"pitch:-1;roll:-1;yaw:0;vgx:0;vgy:0;vgz:0;templ:88;temph:90;tof:10;h:0;bat:58;baro:15.20;time:0;agx:-20.00;agy:20.00;agz:-1002.00;
[",58,-1,-1,0,0,0,0,-20.00,20.00,-1002.00,15.20,10,0
8478.339246,"pitch:-1;roll:-1;yaw:0;vgx:0;vgy:0;vgz:0;templ:88;temph:90;tof:10;h:0;bat:58;baro:15.18;time:0;agx:-23.00;agy:20.00;agz:-1000.00;
[",58,-1,-1,0,0,0,0,-23.00,20.00,-1000.00,15.18,10,0
8478.441738,"pitch:-1;roll:-1;yaw:0;vgx:0;vgy:0;vgz:0;templ:88;temph:90;tof:10;h:0;bat:58;baro:15.18;time:0;agx:-21.00;agy:19.00;agz:-999.00;

[",58,-1,-1,0,0,0,0,-21.00,19.00,-999.00,15.18,10,0
8478.545511,"pitch:-1;roll:-1;yaw:0;vgx:0;vgy:0;vgz:0;templ:88;temph:90;tof:10;h:0;bat:58;baro:15.20;time:0;agx:-21.00;agy:20.00;agz:-999.00;

[",58,-1,-1,0,0,0,0,-21.00,20.00,-999.00,15.20,10,0
8478.646027,"pitch:-1;roll:-1;yaw:0;vgx:0;vgy:0;vgz:0;templ:88;temph:90;tof:10;h:0;bat:58;baro:15.23;time:0;agx:-22.00;agy:20.00;agz:-1001.00;
[",58,-1,-1,0,0,0,0,-22.00,20.00,-1001.00,15.23,10,0
8478.747856,"pitch:-1;roll:-1;yaw:0;vgx:0;vgy:0;vgz:0;templ:88;temph:90;tof:10;h:0;bat:58;baro:15.24;time:0;agx:-23.00;agy:21.00;agz:-999.00;

[",58,-1,-1,0,0,0,0,-23.00,21.00,-999.00,15.24,10,0
8478.849777,"pitch:-1;roll:-1;yaw:0;vgx:0;vgy:0;vgz:0;templ:87;temph:89;tof:10;h:0;bat:58;baro:15.21;time:0;agx:-24.00;agy:20.00;agz:-998.00;

[",58,-1,-1,0,0,0,0,-24.00,20.00,-998.00,15.21,10,0
8478.951818,"pitch:-1;roll:-1;yaw:0;vgx:0;vgy:0;vgz:0;templ:87;temph:89;tof:10;h:0;bat:58;baro:15.20;time:0;agx:-23.00;agy:18.00;agz:-1001.00;
[",58,-1,-1,0,0,0,0,-23.00,18.00,-1001.00,15.20,10,0
8479.053792,"pitch:-1;roll:-1;yaw:0;vgx:0;vgy:0;vgz:0;templ:87;temph:89;tof:10;h:0;bat:58;baro:15.18;time:0;agx:-23.00;agy:20.00;agz:-999.00;

[",58,-1,-1,0,0,0,0,-23.00,20.00,-999.00,15.18,10,0
8479.155951,"pitch:-1;roll:-1;yaw:0;vgx:0;vgy:0;vgz:0;templ:87;temph:89;tof:10;h:0;bat:58;baro:15.18;time:0;agx:-21.00;agy:22.00;agz:-1000.00;
[",58,-1,-1,0,0,0,0,-21.00,22.00,-1000.00,15.18,10,0
8479.257787,"pitch:-1;roll:-1;yaw:0;vgx:0;vgy:0;vgz:0;templ:87;temph:89;tof:10;h:0;bat:58;baro:15.18;time:0;agx:-21.00;agy:20.00;agz:-1002.00;
[",58,-1,-1,0,0,0,0,-21.00,20.00,-1002.00,15.18,10,0
8479.359772,"pitch:-1;roll:-1;yaw:0;vgx:0;vgy:0;vgz:0;templ:87;temph:89;tof:10;h:0;bat:58;baro:15.20;time:0;agx:-22.00;agy:20.00;agz:-1001.00;
[",58,-1,-1,0,0,0,0,-22.00,20.00,-1001.00,15.20,10,0
8479.461791,"pitch:-1;roll:-1;yaw:0;vgx:0;vgy:0;vgz:0;templ:87;temph:89;tof:10;h:0;bat:58;baro:15.18;time:0;agx:-21.00;agy:21.00;agz:-999.00;

[",58,-1,-1,0,0,0,0,-21.00,21.00,-999.00,15.18,10,0
8479.563872,"pitch:-1;roll:-1;yaw:0;vgx:0;vgy:0;vgz:0;templ:87;temph:89;tof:10;h:0;bat:58;baro:15.21;time:0;agx:-22.00;agy:19.00;agz:-999.00;

[",58,-1,-1,0,0,0,0,-22.00,19.00,-999.00,15.21,10,0
8479.666138,"pitch:-1;roll:-1;yaw:0;vgx:0;vgy:0;vgz:0;templ:87;temph:89;tof:10;h:0;bat:58;baro:15.22;time:0;agx:-22.00;agy:19.00;agz:-1001.00;
[",58,-1,-1,0,0,0,0,-22.00,19.00,-1001.00,15.22,10,0
8479.767864,"pitch:-1;roll:-1;yaw:0;vgx:0;vgy:0;vgz:0;templ:87;temph:89;tof:10;h:0;bat:58;baro:15.22;time:0;agx:-22.00;agy:19.00;agz:-999.00;

[",58,-1,-1,0,0,0,0,-22.00,19.00,-999.00,15.22,10,0
8479.870157,"pitch:-1;roll:-1;yaw:0;vgx:0;vgy:0;vgz:0;templ:88;temph:90;tof:10;h:0;bat:58;baro:15.19;time:0;agx:-22.00;agy:20.00;agz:-1001.00;
[",58,-1,-1,0,0,0,0,-22.00,20.00,-1001.00,15.19,10,0
8479.971690,"pitch:-1;roll:-1;yaw:0;vgx:0;vgy:0;vgz:0;templ:88;temph:90;tof:10;h:0;bat:58;baro:15.21;time:0;agx:-21.00;agy:18.00;agz:-997.00;

[",58,-1,-1,0,0,0,0,-21.00,18.00,-997.00,15.21,10,0
8480.022723,"pitch:-1;roll:-1;yaw:0;vgx:0;vgy:0;vgz:0;templ:88;temph:90;tof:10;h:0;bat:58;baro:15.18;time:0;agx:-22.00;agy:20.00;agz:-1003.00;
[",58,-1,-1,0,0,0,0,-22.00,20.00,-1003.00,15.18,10,0
8480.125405,"pitch:-1;roll:-1;yaw:0;vgx:0;vgy:0;vgz:0;templ:88;temph:90;tof:10;h:0;bat:58;baro:15.25;time:0;agx:-22.00;agy:18.00;agz:-1000.00;
[",58,-1,-1,0,0,0,0,-22.00,18.00,-1000.00,15.25,10,0
8480.226876,"pitch:-1;roll:-1;yaw:0;vgx:0;vgy:0;vgz:0;templ:88;temph:90;tof:10;h:0;bat:58;baro:15.20;time:0;agx:-26.00;agy:14.00;agz:-990.00;

[",58,-1,-1,0,0,0,0,-26.00,14.00,-990.00,15.20,10,0
8480.328698,"pitch:-1;roll:-1;yaw:0;vgx:0;vgy:0;vgz:0;templ:88;temph:90;tof:10;h:0;bat:58;baro:15.20;time:0;agx:-31.00;agy:13.00;agz:-999.00;

[",58,-1,-1,0,0,0,0,-31.00,13.00,-999.00,15.20,10,0
8480.430986,"pitch:-1;roll:-1;yaw:0;vgx:0;vgy:0;vgz:0;templ:88;temph:90;tof:10;h:0;bat:58;baro:15.22;time:0;agx:-25.00;agy:19.00;agz:-999.00;

[",58,-1,-1,0,0,0,0,-25.00,19.00,-999.00,15.22,10,0
8480.532779,"pitch:-1;roll:-1;yaw:0;vgx:0;vgy:0;vgz:0;templ:88;temph:90;tof:10;h:0;bat:58;baro:15.21;time:0;agx:-20.00;agy:19.00;agz:-999.00;

[",58,-1,-1,0,0,0,0,-20.00,19.00,-999.00,15.21,10,0
8480.634886,"pitch:-1;roll:-1;yaw:0;vgx:0;vgy:0;vgz:0;templ:88;temph:90;tof:10;h:0;bat:58;baro:15.20;time:0;agx:-18.00;agy:20.00;agz:-1000.00;
[",58,-1,-1,0,0,0,0,-18.00,20.00,-1000.00,15.20,10,0
8480.736686,"pitch:-1;roll:-1;yaw:0;vgx:0;vgy:0;vgz:0;templ:88;temph:90;tof:10;h:0;bat:58;baro:15.19;time:0;agx:-21.00;agy:22.00;agz:-1000.00;
[",58,-1,-1,0,0,0,0,-21.00,22.00,-1000.00,15.19,10,0
8480.838775,"pitch:-1;roll:-1;yaw:0;vgx:0;vgy:0;vgz:0;templ:88;temph:90;tof:10;h:0;bat:58;baro:15.16;time:0;agx:-21.00;agy:21.00;agz:-1001.00;
[",58,-1,-1,0,0,0,0,-21.00,21.00,-1001.00,15.16,10,0
8480.940682,"pitch:-1;roll:-1;yaw:0;vgx:0;vgy:0;vgz:0;templ:88;temph:90;tof:10;h:0;bat:58;baro:15.17;time:0;agx:-20.00;agy:19.00;agz:-1001.00;
[",58,-1,-1,0,0,0,0,-20.00,19.00,-1001.00,15.17,10,0
8481.042867,"pitch:-1;roll:-1;yaw:0;vgx:0;vgy:0;vgz:0;templ:88;temph:90;tof:10;h:0;bat:58;baro:15.24;time:0;agx:-23.00;agy:17.00;agz:-1001.00;
[",58,-1,-1,0,0,0,0,-23.00,17.00,-1001.00,15.24,10,0
8481.149051,"pitch:-1;roll:-1;yaw:0;vgx:0;vgy:0;vgz:0;templ:88;temph:90;tof:10;h:0;bat:58;baro:15.23;time:0;agx:-23.00;agy:18.00;agz:-999.00;

[",58,-1,-1,0,0,0,0,-23.00,18.00,-999.00,15.23,10,0
8481.248690,"pitch:-1;roll:-1;yaw:0;vgx:0;vgy:0;vgz:0;templ:88;temph:90;tof:10;h:0;bat:58;baro:15.20;time:0;agx:-19.00;agy:20.00;agz:-1000.00;
[",58,-1,-1,0,0,0,0,-19.00,20.00,-1000.00,15.20,10,0
8481.349972,"pitch:-1;roll:-1;yaw:0;vgx:0;vgy:0;vgz:0;templ:88;temph:90;tof:10;h:0;bat:58;baro:15.22;time:0;agx:-20.00;agy:20.00;agz:-1001.00;
[",58,-1,-1,0,0,0,0,-20.00,20.00,-1001.00,15.22,10,0
8481.451285,"pitch:-1;roll:-1;yaw:0;vgx:0;vgy:0;vgz:0;templ:88;temph:90;tof:10;h:0;bat:58;baro:15.17;time:0;agx:-21.00;agy:19.00;agz:-999.00;

[",58,-1,-1,0,0,0,0,-21.00,19.00,-999.00,15.17,10,0
8481.552610,"pitch:-1;roll:-1;yaw:0;vgx:0;vgy:0;vgz:0;templ:88;temph:90;tof:10;h:0;bat:58;baro:15.19;time:0;agx:-26.00;agy:22.00;agz:-1007.00;
[",58,-1,-1,0,0,0,0,-26.00,22.00,-1007.00,15.19,10,0
8481.654683,"pitch:-1;roll:-1;yaw:0;vgx:0;vgy:0;vgz:0;templ:88;temph:90;tof:10;h:0;bat:58;baro:15.19;time:0;agx:-19.00;agy:19.00;agz:-1001.00;
[",58,-1,-1,0,0,0,0,-19.00,19.00,-1001.00,15.19,10,0
8481.756653,"pitch:-1;roll:-1;yaw:0;vgx:0;vgy:0;vgz:0;templ:88;temph:90;tof:10;h:0;bat:58;baro:15.23;time:0;agx:-17.00;agy:21.00;agz:-1002.00;
[",58,-1,-1,0,0,0,0,-17.00,21.00,-1002.00,15.23,10,0
8481.858720,"pitch:-1;roll:-1;yaw:0;vgx:0;vgy:0;vgz:0;templ:88;temph:91;tof:10;h:0;bat:58;baro:15.18;time:0;agx:-20.00;agy:22.00;agz:-1001.00;
[",58,-1,-1,0,0,0,0,-20.00,22.00,-1001.00,15.18,10,0
8481.960543,"pitch:-1;roll:-1;yaw:0;vgx:0;vgy:0;vgz:0;templ:88;temph:91;tof:10;h:0;bat:58;baro:15.23;time:0;agx:-25.00;agy:22.00;agz:-1000.00;
[",58,-1,-1,0,0,0,0,-25.00,22.00,-1000.00,15.23,10,0
8482.062928,"pitch:-1;roll:-1;yaw:0;vgx:0;vgy:0;vgz:0;templ:88;temph:91;tof:10;h:0;bat:58;baro:15.15;time:0;agx:-23.00;agy:19.00;agz:-1005.00;
[",58,-1,-1,0,0,0,0,-23.00,19.00,-1005.00,15.15,10,0
8482.164746,"pitch:-1;roll:-1;yaw:0;vgx:0;vgy:0;vgz:0;templ:88;temph:91;tof:10;h:0;bat:58;baro:15.23;time:0;agx:-21.00;agy:19.00;agz:-1004.00;
[",58,-1,-1,0,0,0,0,-21.00,19.00,-1004.00,15.23,10,0
8482.266654,"pitch:-1;roll:-1;yaw:0;vgx:0;vgy:0;vgz:0;templ:88;temph:91;tof:10;h:0;bat:58;baro:15.23;time:0;agx:-22.00;agy:20.00;agz:-999.00;

[",58,-1,-1,0,0,0,0,-22.00,20.00,-999.00,15.23,10,0
8482.369022,"pitch:-1;roll:-1;yaw:0;vgx:0;vgy:0;vgz:0;templ:88;temph:91;tof:10;h:0;bat:58;baro:15.21;time:0;agx:-23.00;agy:21.00;agz:-1002.00;
[",58,-1,-1,0,0,0,0,-23.00,21.00,-1002.00,15.21,10,0
8482.470638,"pitch:-1;roll:-1;yaw:0;vgx:0;vgy:0;vgz:0;templ:88;temph:91;tof:10;h:0;bat:58;baro:15.13;time:0;agx:-18.00;agy:21.00;agz:-1001.00;
[",58,-1,-1,0,0,0,0,-18.00,21.00,-1001.00,15.13,10,0
8482.572615,"pitch:-1;roll:-1;yaw:0;vgx:0;vgy:0;vgz:0;templ:88;temph:91;tof:10;h:0;bat:58;baro:15.17;time:0;agx:-20.00;agy:20.00;agz:-998.00;

[",58,-1,-1,0,0,0,0,-20.00,20.00,-998.00,15.17,10,0
8482.674748,"pitch:-1;roll:-1;yaw:0;vgx:0;vgy:0;vgz:0;templ:88;temph:91;tof:10;h:0;bat:58;baro:15.15;time:0;agx:-21.00;agy:21.00;agz:-1001.00;
[",58,-1,-1,0,0,0,0,-21.00,21.00,-1001.00,15.15,10,0
8482.777065,"pitch:-1;roll:-1;yaw:0;vgx:0;vgy:0;vgz:0;templ:88;temph:91;tof:10;h:0;bat:58;baro:15.16;time:0;agx:-58.00;agy:43.00;agz:-987.00;

[",58,-1,-1,0,0,0,0,-58.00,43.00,-987.00,15.16,10,0
8482.878651,"pitch:0;roll:0;yaw:0;vgx:0;vgy:0;vgz:0;templ:88;temph:91;tof:10;h:0;bat:58;baro:15.17;time:0;agx:15.00;agy:-2.00;agz:-999.00;
;

[",58,0,0,0,0,0,0,15.00,-2.00,-999.00,15.17,10,0
8482.982910,"pitch:1;roll:1;yaw:0;vgx:0;vgy:0;vgz:0;templ:88;temph:91;tof:10;h:0;bat:58;baro:15.13;time:0;agx:89.00;agy:-136.00;agz:-1034.00;

[",58,1,1,0,0,0,0,89.00,-136.00,-1034.00,15.13,10,0
8483.084332,"pitch:1;roll:1;yaw:0;vgx:0;vgy:0;vgz:0;templ:88;temph:91;tof:10;h:0;bat:58;baro:15.22;time:0;agx:-7.00;agy:32.00;agz:-1032.00;


[",58,1,1,0,0,0,0,-7.00,32.00,-1032.00,15.22,10,0
8483.185938,"pitch:0;roll:0;yaw:0;vgx:0;vgy:0;vgz:0;templ:88;temph:91;tof:10;h:0;bat:58;baro:15.22;time:0;agx:53.00;agy:-55.00;agz:-1055.00;


[",58,0,0,0,0,0,0,53.00,-55.00,-1055.00,15.22,10,0
8483.296885,"pitch:5;roll:-6;yaw:4;vgx:0;vgy:0;vgz:-1;templ:88;temph:91;tof:10;h:0;bat:58;baro:15.27;time:0;agx:123.00;agy:34.00;agz:-1178.00;
[",58,5,-6,4,0,0,-1,123.00,34.00,-1178.00,15.27,10,0
8483.337681,"pitch:9;roll:-11;yaw:17;vgx:0;vgy:-2;vgz:-2;templ:88;temph:91;tof:10;h:0;bat:58;baro:15.19;time:0;agx:297.00;agy:-58.00;agz:-990.00;
",58,9,-11,17,0,-2,-2,297.00,-58.00,-990.00,15.19,10,0
8483.439748,"pitch:14;roll:-13;yaw:35;vgx:1;vgy:-4;vgz:-1;templ:88;temph:91;tof:10;h:0;bat:58;baro:15.29;time:0;agx:186.00;agy:-71.00;agz:-1021.00;
",58,14,-13,35,1,-4,-1,186.00,-71.00,-1021.00,15.29,10,0
8483.541695,"pitch:18;roll:-10;yaw:48;vgx:3;vgy:-7;vgz:-1;templ:88;temph:91;tof:10;h:0;bat:58;baro:15.25;time:0;agx:258.00;agy:-175.00;agz:-818.00;
",58,18,-10,48,3,-7,-1,258.00,-175.00,-818.00,15.25,10,0
8483.643632,"pitch:21;roll:-5;yaw:62;vgx:4;vgy:-8;vgz:0;templ:88;temph:91;tof:10;h:0;bat:58;baro:15.24;time:0;agx:526.00;agy:132.00;agz:-846.00;
;
",58,21,-5,62,4,-8,0,526.00,132.00,-846.00,15.24,10,0
8483.747151,"pitch:23;roll:-2;yaw:80;vgx:4;vgy:-7;vgz:0;templ:88;temph:91;tof:10;h:0;bat:58;baro:15.25;time:0;agx:613.00;agy:113.00;agz:-812.00;
;
",58,23,-2,80,4,-7,0,613.00,113.00,-812.00,15.25,10,0
8483.850099,"pitch:23;roll:-2;yaw:93;vgx:3;vgy:-4;vgz:0;templ:89;temph:91;tof:10;h:0;bat:58;baro:15.29;time:0;agx:598.00;agy:90.00;agz:-817.00;

;
",58,23,-2,93,3,-4,0,598.00,90.00,-817.00,15.29,10,0
8483.951669,"pitch:22;roll:-1;yaw:107;vgx:2;vgy:-3;vgz:0;templ:89;temph:91;tof:10;h:0;bat:58;baro:15.28;time:0;agx:451.00;agy:73.00;agz:-879.00;
;
",58,22,-1,107,2,-3,0,451.00,73.00,-879.00,15.28,10,0
8484.053920,"pitch:18;roll:1;yaw:122;vgx:1;vgy:-2;vgz:0;templ:89;temph:91;tof:10;h:0;bat:58;baro:15.28;time:0;agx:309.00;agy:-30.00;agz:-986.00;
;
",58,18,1,122,1,-2,0,309.00,-30.00,-986.00,15.28,10,0
8484.154770,"pitch:16;roll:3;yaw:130;vgx:1;vgy:-2;vgz:0;templ:89;temph:91;tof:10;h:0;bat:58;baro:15.30;time:0;agx:372.00;agy:-80.00;agz:-908.00;
;
",58,16,3,130,1,-2,0,372.00,-80.00,-908.00,15.30,10,0
8484.256489,"pitch:17;roll:4;yaw:130;vgx:1;vgy:-1;vgz:0;templ:89;temph:91;tof:10;h:0;bat:58;baro:15.29;time:0;agx:377.00;agy:-54.00;agz:-899.00;
;
",58,17,4,130,1,-1,0,377.00,-54.00,-899.00,15.29,10,0
8484.358666,"pitch:15;roll:2;yaw:129;vgx:0;vgy:0;vgz:0;templ:89;temph:91;tof:10;h:0;bat:58;baro:15.27;time:0;agx:218.00;agy:-36.00;agz:-938.00;

;
",58,15,2,129,0,0,0,218.00,-36.00,-938.00,15.27,10,0
8484.460545,"pitch:3;roll:0;yaw:127;vgx:0;vgy:0;vgz:0;templ:89;temph:91;tof:10;h:0;bat:58;baro:15.31;time:0;agx:149.00;agy:80.00;agz:-1055.00;


;
",58,3,0,127,0,0,0,149.00,80.00,-1055.00,15.31,10,0
8484.562534,"pitch:-2;roll:0;yaw:126;vgx:0;vgy:0;vgz:0;templ:89;temph:91;tof:10;h:0;bat:58;baro:15.33;time:0;agx:-21.00;agy:70.00;agz:-1007.00;

;
",58,-2,0,126,0,0,0,-21.00,70.00,-1007.00,15.33,10,0
8484.665051,"pitch:-7;roll:-2;yaw:127;vgx:0;vgy:0;vgz:0;templ:89;temph:91;tof:10;h:0;bat:58;baro:15.38;time:0;agx:-30.00;agy:35.00;agz:-982.00;

;
",58,-7,-2,127,0,0,0,-30.00,35.00,-982.00,15.38,10,0
8484.766551,"pitch:-6;roll:-2;yaw:128;vgx:-1;vgy:0;vgz:0;templ:89;temph:91;tof:10;h:0;bat:58;baro:15.34;time:0;agx:-126.00;agy:39.00;agz:-949.00;

",58,-6,-2,128,-1,0,0,-126.00,39.00,-949.00,15.34,10,0
8484.868526,"pitch:-3;roll:-2;yaw:127;vgx:-1;vgy:0;vgz:0;templ:89;temph:91;tof:10;h:0;bat:58;baro:15.30;time:0;agx:14.00;agy:14.00;agz:-944.00;


",58,-3,-2,127,-1,0,0,14.00,14.00,-944.00,15.30,10,0
8484.970634,"pitch:8;roll:0;yaw:127;vgx:0;vgy:0;vgz:0;templ:89;temph:91;tof:10;h:0;bat:58;baro:15.33;time:0;agx:102.00;agy:13.00;agz:-1078.00;



",58,8,0,127,0,0,0,102.00,13.00,-1078.00,15.33,10,0
8485.072700,"pitch:15;roll:2;yaw:129;vgx:0;vgy:0;vgz:0;templ:89;temph:91;tof:10;h:0;bat:58;baro:15.31;time:0;agx:302.00;agy:-47.00;agz:-1011.00;


",58,15,2,129,0,0,0,302.00,-47.00,-1011.00,15.31,10,0
8485.174779,"pitch:18;roll:3;yaw:128;vgx:0;vgy:0;vgz:0;templ:89;temph:91;tof:10;h:0;bat:58;baro:15.31;time:0;agx:333.00;agy:-32.00;agz:-970.00;



",58,18,3,128,0,0,0,333.00,-32.00,-970.00,15.31,10,0
8485.276535,"pitch:20;roll:3;yaw:126;vgx:0;vgy:0;vgz:0;templ:89;temph:91;tof:10;h:0;bat:58;baro:15.31;time:0;agx:417.00;agy:-115.00;agz:-874.00;


",58,20,3,126,0,0,0,417.00,-115.00,-874.00,15.31,10,0
8485.378729,"pitch:23;roll:4;yaw:126;vgx:0;vgy:0;vgz:0;templ:89;temph:91;tof:10;h:0;bat:58;baro:15.31;time:0;agx:266.00;agy:-50.00;agz:-909.00;



",58,23,4,126,0,0,0,266.00,-50.00,-909.00,15.31,10,0
8485.480676,"pitch:18;roll:1;yaw:125;vgx:0;vgy:0;vgz:0;templ:89;temph:91;tof:10;h:0;bat:58;baro:15.32;time:0;agx:336.00;agy:-29.00;agz:-990.00;



",58,18,1,125,0,0,0,336.00,-29.00,-990.00,15.32,10,0
8485.584105,"pitch:10;roll:-2;yaw:123;vgx:0;vgy:0;vgz:0;templ:89;temph:91;tof:10;h:0;bat:58;baro:15.37;time:0;agx:211.00;agy:115.00;agz:-1081.00;

",58,10,-2,123,0,0,0,211.00,115.00,-1081.00,15.37,10,0
8485.685536,"pitch:2;roll:-5;yaw:122;vgx:0;vgy:0;vgz:-1;templ:89;temph:91;tof:10;h:0;bat:58;baro:15.38;time:0;agx:154.00;agy:75.00;agz:-1042.00;


",58,2,-5,122,0,0,-1,154.00,75.00,-1042.00,15.38,10,0
8485.788054,"pitch:0;roll:-6;yaw:119;vgx:0;vgy:0;vgz:-2;templ:89;temph:91;tof:10;h:0;bat:58;baro:15.39;time:0;agx:-7.00;agy:121.00;agz:-1006.00;


",58,0,-6,119,0,0,-2,-7.00,121.00,-1006.00,15.39,10,0
8485.889678,"pitch:-4;roll:-9;yaw:117;vgx:0;vgy:0;vgz:-1;templ:89;temph:91;tof:10;h:0;bat:58;baro:15.39;time:0;agx:21.00;agy:98.00;agz:-987.00;



",58,-4,-9,117,0,0,-1,21.00,98.00,-987.00,15.39,10,0
8485.992995,"pitch:-11;roll:-12;yaw:116;vgx:0;vgy:0;vgz:-1;templ:89;temph:91;tof:35;h:0;bat:58;baro:15.40;time:0;agx:-27.00;agy:153.00;agz:-987.00;
",58,-11,-12,116,0,0,-1,-27.00,153.00,-987.00,15.40,35,0
8486.094069,"pitch:-22;roll:-16;yaw:115;vgx:0;vgy:0;vgz:0;templ:89;temph:91;tof:39;h:0;bat:58;baro:15.43;time:0;agx:-273.00;agy:190.00;agz:-872.00;
",58,-22,-16,115,0,0,0,-273.00,190.00,-872.00,15.43,39,0
8486.194511,"pitch:-34;roll:-19;yaw:114;vgx:0;vgy:0;vgz:0;templ:89;temph:91;tof:41;h:0;bat:58;baro:15.51;time:0;agx:-473.00;agy:241.00;agz:-805.00;
",58,-34,-19,114,0,0,0,-473.00,241.00,-805.00,15.51,41,0
8486.296548,"pitch:-46;roll:-22;yaw:114;vgx:0;vgy:0;vgz:0;templ:89;temph:91;tof:55;h:0;bat:58;baro:15.47;time:0;agx:-683.00;agy:253.00;agz:-648.00;
",58,-46,-22,114,0,0,0,-683.00,253.00,-648.00,15.47,55,0
8486.398904,"pitch:-57;roll:-25;yaw:116;vgx:0;vgy:0;vgz:0;templ:89;temph:91;tof:71;h:0;bat:58;baro:15.43;time:0;agx:-747.00;agy:189.00;agz:-521.00;
",58,-57,-25,116,0,0,0,-747.00,189.00,-521.00,15.43,71,0
8486.500539,"pitch:-65;roll:-27;yaw:117;vgx:0;vgy:0;vgz:0;templ:89;temph:91;tof:102;h:0;bat:58;baro:15.45;time:0;agx:-859.00;agy:161.00;agz:-382.00;
",58,-65,-27,117,0,0,0,-859.00,161.00,-382.00,15.45,102,0
8486.602605,"pitch:-70;roll:-29;yaw:118;vgx:0;vgy:0;vgz:0;templ:89;temph:91;tof:103;h:0;bat:58;baro:15.48;time:0;agx:-912.00;agy:147.00;agz:-305.00;
",58,-70,-29,118,0,0,0,-912.00,147.00,-305.00,15.48,103,0
8486.704459,"pitch:-73;roll:-30;yaw:119;vgx:0;vgy:0;vgz:0;templ:89;temph:91;tof:104;h:0;bat:58;baro:15.47;time:0;agx:-951.00;agy:139.00;agz:-279.00;
",58,-73,-30,119,0,0,0,-951.00,139.00,-279.00,15.47,104,0
8486.806508,"pitch:-74;roll:-29;yaw:118;vgx:0;vgy:0;vgz:0;templ:89;temph:91;tof:104;h:0;bat:58;baro:15.42;time:0;agx:-1005.00;agy:120.00;agz:-193.00;
",58,-74,-29,118,0,0,0,-1005.00,120.00,-193.00,15.42,104,0
8486.857406,"pitch:-74;roll:-28;yaw:117;vgx:0;vgy:0;vgz:0;templ:89;temph:92;tof:104;h:0;bat:58;baro:15.41;time:0;agx:-1001.00;agy:144.00;agz:-210.00;
",58,-74,-28,117,0,0,0,-1001.00,144.00,-210.00,15.41,104,0
8486.959425,"pitch:-72;roll:-26;yaw:116;vgx:0;vgy:0;vgz:0;templ:89;temph:92;tof:104;h:0;bat:58;baro:15.51;time:0;agx:-848.00;agy:150.00;agz:-341.00;

",58,-72,-26,116,0,0,0,-848.00,150.00,-341.00,15.51,104,0
8487.061458,"pitch:-68;roll:-23;yaw:111;vgx:0;vgy:0;vgz:0;templ:89;temph:92;tof:103;h:0;bat:58;baro:15.51;time:0;agx:-898.00;agy:175.00;agz:-368.00;

",58,-68,-23,111,0,0,0,-898.00,175.00,-368.00,15.51,103,0
8487.163888,"pitch:-67;roll:-20;yaw:106;vgx:0;vgy:0;vgz:0;templ:89;temph:92;tof:101;h:0;bat:58;baro:15.48;time:0;agx:-900.00;agy:162.00;agz:-356.00;

",58,-67,-20,106,0,0,0,-900.00,162.00,-356.00,15.48,101,0
8487.265580,"pitch:-67;roll:-15;yaw:98;vgx:0;vgy:0;vgz:1;templ:89;temph:92;tof:94;h:0;bat:58;baro:15.48;time:0;agx:-892.00;agy:119.00;agz:-367.00;


",58,-67,-15,98,0,0,1,-892.00,119.00,-367.00,15.48,94,0
8487.367377,"pitch:-66;roll:-10;yaw:91;vgx:0;vgy:0;vgz:1;templ:89;temph:92;tof:86;h:0;bat:58;baro:15.39;time:0;agx:-903.00;agy:58.00;agz:-364.00;



",58,-66,-10,91,0,0,1,-903.00,58.00,-364.00,15.39,86,0
8487.469381,"pitch:-66;roll:-6;yaw:84;vgx:0;vgy:0;vgz:1;templ:89;temph:92;tof:79;h:0;bat:58;baro:15.43;time:0;agx:-979.00;agy:-23.00;agz:-331.00;



",58,-66,-6,84,0,0,1,-979.00,-23.00,-331.00,15.43,79,0
8487.571355,"pitch:-66;roll:-2;yaw:81;vgx:0;vgy:0;vgz:0;templ:89;temph:92;tof:73;h:0;bat:58;baro:15.38;time:0;agx:-1083.00;agy:-19.00;agz:-344.00;


",58,-66,-2,81,0,0,0,-1083.00,-19.00,-344.00,15.38,73,0
8487.673531,"pitch:-66;roll:-3;yaw:83;vgx:0;vgy:0;vgz:-1;templ:89;temph:92;tof:73;h:0;bat:58;baro:15.38;time:0;agx:-1075.00;agy:5.00;agz:-400.00;



",58,-66,-3,83,0,0,-1,-1075.00,5.00,-400.00,15.38,73,0
8487.775518,"pitch:-65;roll:-9;yaw:89;vgx:0;vgy:0;vgz:-2;templ:89;temph:92;tof:78;h:0;bat:58;baro:15.38;time:0;agx:-1001.00;agy:22.00;agz:-400.00;


",58,-65,-9,89,0,0,-2,-1001.00,22.00,-400.00,15.38,78,0
8487.877486,"pitch:-64;roll:-16;yaw:97;vgx:0;vgy:0;vgz:-2;templ:89;temph:92;tof:82;h:0;bat:58;baro:15.42;time:0;agx:-985.00;agy:110.00;agz:-371.00;


",58,-64,-16,97,0,0,-2,-985.00,110.00,-371.00,15.42,82,0
8487.979571,"pitch:-63;roll:-23;yaw:106;vgx:0;vgy:0;vgz:-3;templ:89;temph:92;tof:86;h:0;bat:58;baro:15.42;time:0;agx:-934.00;agy:137.00;agz:-348.00;

",58,-63,-23,106,0,0,-3,-934.00,137.00,-348.00,15.42,86,0
8488.083483,"pitch:-61;roll:-30;yaw:115;vgx:0;vgy:0;vgz:-3;templ:89;temph:92;tof:89;h:0;bat:58;baro:15.47;time:0;agx:-838.00;agy:171.00;agz:-360.00;

",58,-61,-30,115,0,0,-3,-838.00,171.00,-360.00,15.47,89,0
8488.184118,"pitch:-58;roll:-34;yaw:122;vgx:0;vgy:0;vgz:-2;templ:89;temph:92;tof:92;h:0;bat:58;baro:15.47;time:0;agx:-765.00;agy:239.00;agz:-419.00;

",58,-58,-34,122,0,0,-2,-765.00,239.00,-419.00,15.47,92,0
8488.285428,"pitch:-56;roll:-36;yaw:126;vgx:0;vgy:0;vgz:-1;templ:89;temph:92;tof:96;h:0;bat:58;baro:15.54;time:0;agx:-747.00;agy:328.00;agz:-452.00;

",58,-56,-36,126,0,0,-1,-747.00,328.00,-452.00,15.54,96,0
8488.387381,"pitch:-54;roll:-35;yaw:127;vgx:0;vgy:0;vgz:0;templ:89;temph:92;tof:99;h:0;bat:58;baro:15.49;time:0;agx:-652.00;agy:312.00;agz:-512.00;


",58,-54,-35,127,0,0,0,-652.00,312.00,-512.00,15.49,99,0
8488.489400,"pitch:-48;roll:-30;yaw:125;vgx:0;vgy:0;vgz:0;templ:89;temph:92;tof:98;h:0;bat:58;baro:15.54;time:0;agx:-523.00;agy:275.00;agz:-586.00;


",58,-48,-30,125,0,0,0,-523.00,275.00,-586.00,15.54,98,0
8488.591389,"pitch:-35;roll:-20;yaw:119;vgx:0;vgy:0;vgz:1;templ:89;temph:92;tof:62;h:0;bat:58;baro:15.47;time:0;agx:-658.00;agy:345.00;agz:-717.00;


",58,-35,-20,119,0,0,1,-658.00,345.00,-717.00,15.47,62,0
8488.693406,"pitch:-25;roll:-17;yaw:116;vgx:0;vgy:0;vgz:1;templ:89;temph:92;tof:47;h:0;bat:58;baro:15.51;time:0;agx:-431.00;agy:247.00;agz:-864.00;


",58,-25,-17,116,0,0,1,-431.00,247.00,-864.00,15.51,47,0
8488.795456,"pitch:-19;roll:-14;yaw:115;vgx:0;vgy:0;vgz:1;templ:89;temph:92;tof:45;h:0;bat:58;baro:15.48;time:0;agx:-439.00;agy:263.00;agz:-922.00;


",58,-19,-14,115,0,0,1,-439.00,263.00,-922.00,15.48,45,0
8488.897444,"pitch:-17;roll:-13;yaw:114;vgx:0;vgy:0;vgz:0;templ:89;temph:92;tof:43;h:0;bat:58;baro:15.39;time:0;agx:-243.00;agy:221.00;agz:-968.00;


",58,-17,-13,114,0,0,0,-243.00,221.00,-968.00,15.39,43,0
8488.999390,"pitch:-13;roll:-11;yaw:113;vgx:0;vgy:0;vgz:0;templ:89;temph:92;tof:38;h:0;bat:58;baro:15.40;time:0;agx:-198.00;agy:200.00;agz:-975.00;


",58,-13,-11,113,0,0,0,-198.00,200.00,-975.00,15.40,38,0
8489.101323,"pitch:-8;roll:-9;yaw:111;vgx:0;vgy:0;vgz:0;templ:89;temph:92;tof:34;h:0;bat:58;baro:15.39;time:0;agx:-142.00;agy:177.00;agz:-1009.00;



",58,-8,-9,111,0,0,0,-142.00,177.00,-1009.00,15.39,34,0
8489.203426,"pitch:-5;roll:-7;yaw:109;vgx:0;vgy:0;vgz:0;templ:89;temph:92;tof:33;h:0;bat:58;baro:15.42;time:0;agx:-82.00;agy:159.00;agz:-1018.00;




",58,-5,-7,109,0,0,0,-82.00,159.00,-1018.00,15.42,33,0
8489.305354,"pitch:-4;roll:-7;yaw:107;vgx:-1;vgy:2;vgz:0;templ:89;temph:92;tof:32;h:0;bat:58;baro:15.44;time:0;agx:-13.00;agy:120.00;agz:-1005.00;



",58,-4,-7,107,-1,2,0,-13.00,120.00,-1005.00,15.44,32,0
8489.407281,"pitch:-2;roll:-6;yaw:104;vgx:-1;vgy:3;vgz:0;templ:89;temph:92;tof:30;h:0;bat:58;baro:15.36;time:0;agx:-19.00;agy:112.00;agz:-995.00;




",58,-2,-6,104,-1,3,0,-19.00,112.00,-995.00,15.36,30,0
8489.509310,"pitch:-1;roll:-6;yaw:99;vgx:0;vgy:3;vgz:0;templ:89;temph:92;tof:30;h:0;bat:58;baro:15.39;time:0;agx:-27.00;agy:111.00;agz:-976.00;





",58,-1,-6,99,0,3,0,-27.00,111.00,-976.00,15.39,30,0
8489.611403,"pitch:0;roll:-6;yaw:95;vgx:0;vgy:3;vgz:0;templ:89;temph:92;tof:10;h:0;bat:58;baro:15.42;time:0;agx:9.00;agy:98.00;agz:-953.00;
0;





",58,0,-6,95,0,3,0,9.00,98.00,-953.00,15.42,10,0
8489.713303,"pitch:0;roll:-6;yaw:91;vgx:0;vgy:3;vgz:0;templ:89;temph:92;tof:10;h:0;bat:58;baro:15.44;time:0;agx:21.00;agy:91.00;agz:-1036.00;






",58,0,-6,91,0,3,0,21.00,91.00,-1036.00,15.44,10,0
8489.816754,"pitch:0;roll:-5;yaw:87;vgx:0;vgy:3;vgz:0;templ:89;temph:92;tof:31;h:0;bat:58;baro:15.41;time:0;agx:-19.00;agy:45.00;agz:-994.00;






",58,0,-5,87,0,3,0,-19.00,45.00,-994.00,15.41,31,0
8489.917310,"pitch:0;roll:-5;yaw:84;vgx:0;vgy:2;vgz:1;templ:90;temph:92;tof:31;h:0;bat:58;baro:15.40;time:0;agx:-56.00;agy:11.00;agz:-983.00;






",58,0,-5,84,0,2,1,-56.00,11.00,-983.00,15.40,31,0
8490.019213,"pitch:-1;roll:-4;yaw:80;vgx:0;vgy:2;vgz:0;templ:90;temph:92;tof:30;h:0;bat:58;baro:15.45;time:0;agx:-55.00;agy:65.00;agz:-1053.00;





",58,-1,-4,80,0,2,0,-55.00,65.00,-1053.00,15.45,30,0
8490.121210,"pitch:0;roll:-4;yaw:77;vgx:0;vgy:0;vgz:0;templ:90;temph:92;tof:34;h:0;bat:58;baro:15.43;time:0;agx:-239.00;agy:51.00;agz:-1030.00;





",58,0,-4,77,0,0,0,-239.00,51.00,-1030.00,15.43,34,0
8490.223221,"pitch:0;roll:-4;yaw:78;vgx:0;vgy:-2;vgz:0;templ:90;temph:92;tof:34;h:0;bat:58;baro:15.44;time:0;agx:-387.00;agy:144.00;agz:-975.00;





",58,0,-4,78,0,-2,0,-387.00,144.00,-975.00,15.44,34,0
8490.325645,"pitch:0;roll:-5;yaw:83;vgx:-1;vgy:-5;vgz:0;templ:90;temph:92;tof:34;h:0;bat:58;baro:15.40;time:0;agx:-194.00;agy:35.00;agz:-966.00;





",58,0,-5,83,-1,-5,0,-194.00,35.00,-966.00,15.40,34,0
8490.376352,"pitch:-2;roll:-5;yaw:89;vgx:0;vgy:-6;vgz:0;templ:90;temph:92;tof:10;h:0;bat:58;baro:15.38;time:0;agx:-121.00;agy:-21.00;agz:-963.00;




",58,-2,-5,89,0,-6,0,-121.00,-21.00,-963.00,15.38,10,0
8490.478372,"pitch:-3;roll:-6;yaw:96;vgx:0;vgy:-7;vgz:0;templ:90;temph:92;tof:31;h:0;bat:58;baro:15.38;time:0;agx:-117.00;agy:20.00;agz:-1028.00;




",58,-3,-6,96,0,-7,0,-117.00,20.00,-1028.00,15.38,31,0
8490.581262,"pitch:-4;roll:-7;yaw:102;vgx:1;vgy:-7;vgz:0;templ:90;temph:92;tof:10;h:0;bat:58;baro:15.40;time:0;agx:-83.00;agy:47.00;agz:-1029.00;




",58,-4,-7,102,1,-7,0,-83.00,47.00,-1029.00,15.40,10,0
8490.682331,"pitch:-4;roll:-8;yaw:108;vgx:0;vgy:0;vgz:0;templ:90;temph:92;tof:10;h:0;bat:58;baro:15.39;time:0;agx:-116.00;agy:68.00;agz:-984.00;





",58,-4,-8,108,0,0,0,-116.00,68.00,-984.00,15.39,10,0
8490.786601,"pitch:-4;roll:-9;yaw:115;vgx:0;vgy:0;vgz:0;templ:90;temph:92;tof:30;h:0;bat:58;baro:15.36;time:0;agx:-88.00;agy:78.00;agz:-988.00;






",58,-4,-9,115,0,0,0,-88.00,78.00,-988.00,15.36,30,0
8490.886272,"pitch:-5;roll:-10;yaw:121;vgx:0;vgy:0;vgz:0;templ:90;temph:92;tof:31;h:0;bat:58;baro:15.39;time:0;agx:-112.00;agy:121.00;agz:-984.00;



",58,-5,-10,121,0,0,0,-112.00,121.00,-984.00,15.39,31,0
8490.988317,"pitch:-5;roll:-11;yaw:129;vgx:0;vgy:0;vgz:0;templ:90;temph:92;tof:32;h:0;bat:58;baro:15.39;time:0;agx:-115.00;agy:122.00;agz:-1016.00;


",58,-5,-11,129,0,0,0,-115.00,122.00,-1016.00,15.39,32,0
8491.090213,"pitch:-6;roll:-11;yaw:138;vgx:0;vgy:0;vgz:0;templ:90;temph:92;tof:30;h:0;bat:58;baro:15.41;time:0;agx:-105.00;agy:83.00;agz:-1024.00;



",58,-6,-11,138,0,0,0,-105.00,83.00,-1024.00,15.41,30,0
8491.192366,"pitch:-5;roll:-11;yaw:147;vgx:0;vgy:0;vgz:0;templ:90;temph:92;tof:34;h:0;bat:58;baro:15.38;time:0;agx:-103.00;agy:127.00;agz:-1009.00;


",58,-5,-11,147,0,0,0,-103.00,127.00,-1009.00,15.38,34,0
8491.294330,"pitch:-5;roll:-12;yaw:155;vgx:0;vgy:0;vgz:0;templ:90;temph:92;tof:33;h:0;bat:58;baro:15.40;time:0;agx:-76.00;agy:112.00;agz:-989.00;



",58,-5,-12,155,0,0,0,-76.00,112.00,-989.00,15.40,33,0
8491.396216,"pitch:-4;roll:-12;yaw:163;vgx:0;vgy:0;vgz:0;templ:90;temph:92;tof:10;h:0;bat:58;baro:15.38;time:0;agx:-200.00;agy:153.00;agz:-941.00;



",58,-4,-12,163,0,0,0,-200.00,153.00,-941.00,15.38,10,0
8491.498560,"pitch:-4;roll:-12;yaw:173;vgx:0;vgy:0;vgz:0;templ:90;temph:92;tof:32;h:0;bat:58;baro:15.37;time:0;agx:-89.00;agy:81.00;agz:-986.00;




",58,-4,-12,173,0,0,0,-89.00,81.00,-986.00,15.37,32,0
8491.600466,"pitch:-5;roll:-10;yaw:-178;vgx:0;vgy:0;vgz:0;templ:90;temph:92;tof:114;h:0;bat:58;baro:15.39;time:0;agx:-54.00;agy:110.00;agz:-1026.00;

",58,-5,-10,-178,0,0,0,-54.00,110.00,-1026.00,15.39,114,0
8491.702934,"pitch:-6;roll:-9;yaw:-171;vgx:0;vgy:0;vgz:0;templ:90;temph:92;tof:114;h:0;bat:58;baro:15.39;time:0;agx:-54.00;agy:106.00;agz:-1035.00;


",58,-6,-9,-171,0,0,0,-54.00,106.00,-1035.00,15.39,114,0
8491.806047,"pitch:-8;roll:-8;yaw:-166;vgx:0;vgy:0;vgz:0;templ:90;temph:92;tof:104;h:0;bat:58;baro:15.39;time:0;agx:13.00;agy:81.00;agz:-1008.00;



",58,-8,-8,-166,0,0,0,13.00,81.00,-1008.00,15.39,104,0
8491.907721,"pitch:-9;roll:-8;yaw:-161;vgx:0;vgy:0;vgz:0;templ:90;temph:92;tof:55;h:0;bat:58;baro:15.39;time:0;agx:118.00;agy:115.00;agz:-1026.00;



",58,-9,-8,-161,0,0,0,118.00,115.00,-1026.00,15.39,55,0
8492.012420,"pitch:-9;roll:-7;yaw:-159;vgx:0;vgy:0;vgz:0;templ:90;temph:92;tof:51;h:0;bat:58;baro:15.40;time:0;agx:223.00;agy:126.00;agz:-1059.00;



",58,-9,-7,-159,0,0,0,223.00,126.00,-1059.00,15.40,51,0
8492.115235,"pitch:-8;roll:-7;yaw:-160;vgx:0;vgy:0;vgz:0;templ:90;temph:92;tof:70;h:0;bat:58;baro:15.37;time:0;agx:162.00;agy:84.00;agz:-1079.00;




",58,-8,-7,-160,0,0,0,162.00,84.00,-1079.00,15.37,70,0
8492.217723,"pitch:-8;roll:-7;yaw:-164;vgx:0;vgy:0;vgz:0;templ:90;temph:92;tof:112;h:0;bat:58;baro:15.41;time:0;agx:136.00;agy:24.00;agz:-1052.00;



",58,-8,-7,-164,0,0,0,136.00,24.00,-1052.00,15.41,112,0
8492.319749,"pitch:-6;roll:-8;yaw:-171;vgx:0;vgy:0;vgz:-1;templ:90;temph:92;tof:113;h:0;bat:58;baro:15.41;time:0;agx:4.00;agy:11.00;agz:-1041.00;




",58,-6,-8,-171,0,0,-1,4.00,11.00,-1041.00,15.41,113,0
8492.424089,"pitch:-7;roll:-9;yaw:179;vgx:-10;vgy:0;vgz:-1;templ:90;temph:92;tof:30;h:0;bat:58;baro:15.39;time:0;agx:-56.00;agy:25.00;agz:-1041.00;


",58,-7,-9,179,-10,0,-1,-56.00,25.00,-1041.00,15.39,30,0
8492.524275,"pitch:-6;roll:-10;yaw:169;vgx:-10;vgy:2;vgz:-1;templ:90;temph:92;tof:10;h:0;bat:58;baro:15.42;time:0;agx:-159.00;agy:27.00;agz:-998.00;

",58,-6,-10,169,-10,2,-1,-159.00,27.00,-998.00,15.42,10,0
8492.621534,"pitch:-4;roll:-11;yaw:160;vgx:-8;vgy:3;vgz:-1;templ:90;temph:92;tof:34;h:0;bat:58;baro:15.42;time:0;agx:-159.00;agy:19.00;agz:-1018.00;

",58,-4,-11,160,-8,3,-1,-159.00,19.00,-1018.00,15.42,34,0
8492.723054,"pitch:-3;roll:-11;yaw:150;vgx:0;vgy:0;vgz:-1;templ:90;temph:92;tof:34;h:0;bat:58;baro:15.44;time:0;agx:-167.00;agy:15.00;agz:-979.00;


",58,-3,-11,150,0,0,-1,-167.00,15.00,-979.00,15.44,34,0
8492.836123,"pitch:-1;roll:-12;yaw:140;vgx:0;vgy:0;vgz:-1;templ:90;temph:92;tof:31;h:0;bat:58;baro:15.41;time:0;agx:-199.00;agy:35.00;agz:-983.00;


",58,-1,-12,140,0,0,-1,-199.00,35.00,-983.00,15.41,31,0
8492.927146,"pitch:-3;roll:-13;yaw:128;vgx:0;vgy:0;vgz:0;templ:90;temph:93;tof:34;h:0;bat:58;baro:15.46;time:0;agx:-137.00;agy:-35.00;agz:-912.00;


",58,-3,-13,128,0,0,0,-137.00,-35.00,-912.00,15.46,34,0
8493.029159,"pitch:-3;roll:-12;yaw:114;vgx:0;vgy:0;vgz:1;templ:90;temph:93;tof:31;h:0;bat:58;baro:15.43;time:0;agx:-309.00;agy:-28.00;agz:-819.00;


",58,-3,-12,114,0,0,1,-309.00,-28.00,-819.00,15.43,31,0
8493.131160,"pitch:-4;roll:-11;yaw:102;vgx:0;vgy:0;vgz:2;templ:90;temph:93;tof:10;h:0;bat:58;baro:15.37;time:0;agx:-400.00;agy:53.00;agz:-805.00;



",58,-4,-11,102,0,0,2,-400.00,53.00,-805.00,15.37,10,0
8493.233118,"pitch:-5;roll:-7;yaw:95;vgx:0;vgy:0;vgz:4;templ:90;temph:93;tof:10;h:0;bat:58;baro:15.34;time:0;agx:-384.00;agy:178.00;agz:-899.00;




",58,-5,-7,95,0,0,4,-384.00,178.00,-899.00,15.34,10,0
8493.335052,"pitch:-6;roll:-3;yaw:93;vgx:0;vgy:0;vgz:5;templ:90;temph:93;tof:10;h:0;bat:58;baro:15.24;time:0;agx:-185.00;agy:28.00;agz:-890.00;





",58,-6,-3,93,0,0,5,-185.00,28.00,-890.00,15.24,10,0
8493.437205,"pitch:-2;roll:0;yaw:92;vgx:0;vgy:0;vgz:4;templ:90;temph:93;tof:10;h:0;bat:58;baro:15.23;time:0;agx:104.00;agy:85.00;agz:-1192.00;






",58,-2,0,92,0,0,4,104.00,85.00,-1192.00,15.23,10,0
8493.539256,"pitch:7;roll:3;yaw:92;vgx:0;vgy:0;vgz:1;templ:90;temph:93;tof:10;h:-10;bat:58;baro:15.20;time:0;agx:61.00;agy:50.00;agz:-1190.00;






",58,7,3,92,0,0,1,61.00,50.00,-1190.00,15.20,10,-10
8493.641183,"pitch:18;roll:4;yaw:90;vgx:0;vgy:0;vgz:0;templ:90;temph:93;tof:10;h:-10;bat:58;baro:15.19;time:0;agx:252.00;agy:36.00;agz:-1031.00;




",58,18,4,90,0,0,0,252.00,36.00,-1031.00,15.19,10,-10
8493.692085,"pitch:31;roll:5;yaw:89;vgx:0;vgy:0;vgz:0;templ:90;temph:93;tof:10;h:-10;bat:58;baro:15.15;time:0;agx:478.00;agy:-131.00;agz:-947.00;



",58,31,5,89,0,0,0,478.00,-131.00,-947.00,15.15,10,-10
8493.794237,"pitch:40;roll:6;yaw:84;vgx:0;vgy:0;vgz:0;templ:90;temph:93;tof:10;h:-10;bat:58;baro:15.14;time:0;agx:644.00;agy:-143.00;agz:-833.00;



",58,40,6,84,0,0,0,644.00,-143.00,-833.00,15.14,10,-10
8493.896081,"pitch:49;roll:6;yaw:79;vgx:0;vgy:0;vgz:0;templ:90;temph:93;tof:10;h:0;bat:58;baro:15.16;time:0;agx:678.00;agy:-143.00;agz:-639.00;




",58,49,6,79,0,0,0,678.00,-143.00,-639.00,15.16,10,0
8493.998133,"pitch:57;roll:7;yaw:75;vgx:0;vgy:0;vgz:0;templ:90;temph:93;tof:10;h:0;bat:58;baro:15.16;time:0;agx:755.00;agy:-98.00;agz:-629.00;





",58,57,7,75,0,0,0,755.00,-98.00,-629.00,15.16,10,0
8494.100185,"pitch:62;roll:11;yaw:78;vgx:0;vgy:0;vgz:0;templ:90;temph:93;tof:10;h:0;bat:58;baro:15.17;time:0;agx:886.00;agy:-116.00;agz:-573.00;




",58,62,11,78,0,0,0,886.00,-116.00,-573.00,15.17,10,0
8494.202235,"pitch:64;roll:13;yaw:78;vgx:0;vgy:0;vgz:0;templ:90;temph:93;tof:10;h:0;bat:58;baro:15.19;time:0;agx:903.00;agy:-79.00;agz:-502.00;





",58,64,13,78,0,0,0,903.00,-79.00,-502.00,15.19,10,0
8494.304170,"pitch:67;roll:9;yaw:73;vgx:0;vgy:0;vgz:0;templ:90;temph:93;tof:10;h:0;bat:58;baro:15.15;time:0;agx:950.00;agy:-87.00;agz:-446.00;






",58,67,9,73,0,0,0,950.00,-87.00,-446.00,15.15,10,0
8494.406199,"pitch:69;roll:2;yaw:66;vgx:0;vgy:0;vgz:0;templ:90;temph:93;tof:10;h:0;bat:58;baro:15.15;time:0;agx:901.00;agy:-93.00;agz:-422.00;






",58,69,2,66,0,0,0,901.00,-93.00,-422.00,15.15,10,0
8494.508065,"pitch:71;roll:0;yaw:65;vgx:0;vgy:0;vgz:0;templ:90;temph:93;tof:10;h:0;bat:58;baro:15.14;time:0;agx:897.00;agy:-20.00;agz:-347.00;






",58,71,0,65,0,0,0,897.00,-20.00,-347.00,15.14,10,0
8494.610018,"pitch:69;roll:-2;yaw:63;vgx:0;vgy:0;vgz:0;templ:90;temph:93;tof:10;h:0;bat:58;baro:15.12;time:0;agx:1011.00;agy:23.00;agz:-342.00;





",58,69,-2,63,0,0,0,1011.00,23.00,-342.00,15.12,10,0
8494.718118,"pitch:67;roll:-7;yaw:58;vgx:0;vgy:0;vgz:0;templ:90;temph:93;tof:10;h:0;bat:58;baro:15.14;time:0;agx:936.00;agy:34.00;agz:-376.00;






",58,67,-7,58,0,0,0,936.00,34.00,-376.00,15.14,10,0
8494.815022,"pitch:73;roll:0;yaw:66;vgx:0;vgy:0;vgz:0;templ:90;temph:93;tof:10;h:0;bat:58;baro:15.19;time:0;agx:964.00;agy:31.00;agz:-279.00;







",58,73,0,66,0,0,0,964.00,31.00,-279.00,15.19,10,0
8494.917113,"pitch:84;roll:-10;yaw:57;vgx:0;vgy:0;vgz:0;templ:90;temph:92;tof:10;h:0;bat:58;baro:15.13;time:0;agx:940.00;agy:-10.00;agz:-356.00;




",58,84,-10,57,0,0,0,940.00,-10.00,-356.00,15.13,10,0
8495.019029,"pitch:83;roll:-130;yaw:-69;vgx:0;vgy:0;vgz:1;templ:90;temph:92;tof:10;h:0;bat:58;baro:15.13;time:0;agx:952.00;agy:13.00;agz:-228.00;



",58,83,-130,-69,0,0,1,952.00,13.00,-228.00,15.13,10,0
8495.121122,"pitch:81;roll:-142;yaw:-86;vgx:0;vgy:0;vgz:1;templ:90;temph:92;tof:10;h:0;bat:58;baro:15.09;time:0;agx:857.00;agy:36.00;agz:-116.00;



",58,81,-142,-86,0,0,1,857.00,36.00,-116.00,15.09,10,0
8495.222902,"pitch:82;roll:-149;yaw:-97;vgx:0;vgy:0;vgz:1;templ:90;temph:92;tof:10;h:0;bat:58;baro:15.09;time:0;agx:962.00;agy:47.00;agz:37.00;




",58,82,-149,-97,0,0,1,962.00,47.00,37.00,15.09,10,0
8495.325056,"pitch:81;roll:-89;yaw:-46;vgx:0;vgy:0;vgz:0;templ:90;temph:92;tof:10;h:0;bat:58;baro:15.12;time:0;agx:1038.00;agy:67.00;agz:140.00;




",58,81,-89,-46,0,0,0,1038.00,67.00,140.00,15.12,10,0
8495.426976,"pitch:81;roll:-64;yaw:-26;vgx:0;vgy:0;vgz:0;templ:90;temph:92;tof:10;h:0;bat:58;baro:15.13;time:0;agx:1012.00;agy:147.00;agz:-9.00;




",58,81,-64,-26,0,0,0,1012.00,147.00,-9.00,15.13,10,0
8495.529117,"pitch:80;roll:-50;yaw:-13;vgx:0;vgy:0;vgz:0;templ:90;temph:92;tof:10;h:0;bat:58;baro:15.08;time:0;agx:1021.00;agy:161.00;agz:27.00;




",58,80,-50,-13,0,0,0,1021.00,161.00,27.00,15.08,10,0
8495.630964,"pitch:80;roll:-46;yaw:-9;vgx:0;vgy:0;vgz:0;templ:90;temph:92;tof:10;h:0;bat:58;baro:15.08;time:0;agx:1012.00;agy:123.00;agz:-57.00;




",58,80,-46,-9,0,0,0,1012.00,123.00,-57.00,15.08,10,0
8495.733000,"pitch:80;roll:-44;yaw:-8;vgx:0;vgy:0;vgz:0;templ:90;temph:92;tof:10;h:0;bat:58;baro:15.11;time:0;agx:989.00;agy:102.00;agz:-131.00;




",58,80,-44,-8,0,0,0,989.00,102.00,-131.00,15.11,10,0
8495.835083,"pitch:80;roll:-46;yaw:-10;vgx:0;vgy:0;vgz:0;templ:90;temph:92;tof:10;h:0;bat:58;baro:15.04;time:0;agx:988.00;agy:112.00;agz:-118.00;



",58,80,-46,-10,0,0,0,988.00,112.00,-118.00,15.04,10,0
8495.937173,"pitch:80;roll:-47;yaw:-10;vgx:0;vgy:0;vgz:0;templ:90;temph:92;tof:10;h:0;bat:58;baro:15.07;time:0;agx:988.00;agy:113.00;agz:-121.00;



",58,80,-47,-10,0,0,0,988.00,113.00,-121.00,15.07,10,0
8496.039078,"pitch:80;roll:-43;yaw:-7;vgx:0;vgy:0;vgz:0;templ:90;temph:92;tof:10;h:0;bat:58;baro:15.09;time:0;agx:938.00;agy:147.00;agz:-120.00;




",58,80,-43,-7,0,0,0,938.00,147.00,-120.00,15.09,10,0
8496.141101,"pitch:86;roll:-10;yaw:17;vgx:0;vgy:0;vgz:0;templ:90;temph:92;tof:10;h:0;bat:58;baro:15.11;time:0;agx:1003.00;agy:215.00;agz:-82.00;




",58,86,-10,17,0,0,0,1003.00,215.00,-82.00,15.11,10,0
8496.243070,"pitch:83;roll:-6;yaw:19;vgx:0;vgy:0;vgz:0;templ:90;temph:92;tof:10;h:0;bat:58;baro:15.07;time:0;agx:1044.00;agy:-19.00;agz:2.00;
;




",58,83,-6,19,0,0,0,1044.00,-19.00,2.00,15.07,10,0
8496.345040,"pitch:81;roll:-8;yaw:15;vgx:0;vgy:0;vgz:0;templ:90;temph:92;tof:10;h:0;bat:58;baro:15.16;time:0;agx:1015.00;agy:21.00;agz:-144.00;





",58,81,-8,15,0,0,0,1015.00,21.00,-144.00,15.16,10,0
8496.448478,"pitch:77;roll:-14;yaw:5;vgx:0;vgy:0;vgz:0;templ:90;temph:92;tof:10;h:0;bat:58;baro:15.09;time:0;agx:1002.00;agy:25.00;agz:-205.00;





",58,77,-14,5,0,0,0,1002.00,25.00,-205.00,15.09,10,0
8496.549247,"pitch:76;roll:-17;yaw:1;vgx:0;vgy:0;vgz:0;templ:90;temph:92;tof:10;h:0;bat:58;baro:15.13;time:0;agx:982.00;agy:55.00;agz:-286.00;






",58,76,-17,1,0,0,0,982.00,55.00,-286.00,15.13,10,0
8496.651125,"pitch:74;roll:-14;yaw:3;vgx:0;vgy:0;vgz:0;templ:90;temph:92;tof:10;h:0;bat:58;baro:15.12;time:0;agx:966.00;agy:48.00;agz:-264.00;






",58,74,-14,3,0,0,0,966.00,48.00,-264.00,15.12,10,0
8496.752948,"pitch:72;roll:-14;yaw:3;vgx:0;vgy:0;vgz:0;templ:90;temph:92;tof:10;h:0;bat:58;baro:15.11;time:0;agx:972.00;agy:57.00;agz:-302.00;






",58,72,-14,3,0,0,0,972.00,57.00,-302.00,15.11,10,0
8496.854990,"pitch:71;roll:-13;yaw:2;vgx:0;vgy:0;vgz:0;templ:90;temph:92;tof:10;h:0;bat:58;baro:15.14;time:0;agx:978.00;agy:44.00;agz:-311.00;






",58,71,-13,2,0,0,0,978.00,44.00,-311.00,15.14,10,0
8496.956992,"pitch:75;roll:-15;yaw:0;vgx:0;vgy:0;vgz:0;templ:91;temph:93;tof:10;h:0;bat:58;baro:15.14;time:0;agx:999.00;agy:50.00;agz:-240.00;






",58,75,-15,0,0,0,0,999.00,50.00,-240.00,15.14,10,0
8497.059106,"pitch:81;roll:-28;yaw:-12;vgx:0;vgy:0;vgz:0;templ:91;temph:93;tof:10;h:0;bat:58;baro:15.11;time:0;agx:1002.00;agy:65.00;agz:-124.00;



",58,81,-28,-12,0,0,0,1002.00,65.00,-124.00,15.11,10,0
8497.160851,"pitch:84;roll:-32;yaw:-15;vgx:0;vgy:0;vgz:0;templ:91;temph:93;tof:10;h:0;bat:58;baro:15.11;time:0;agx:1007.00;agy:34.00;agz:-73.00;




",58,84,-32,-15,0,0,0,1007.00,34.00,-73.00,15.11,10,0
8497.262951,"pitch:88;roll:-144;yaw:-129;vgx:0;vgy:0;vgz:0;templ:91;temph:93;tof:10;h:0;bat:58;baro:15.14;time:0;agx:998.00;agy:9.00;agz:47.00;





",58,88,-144,-129,0,0,0,998.00,9.00,47.00,15.14,10,0
8497.316327,"pitch:84;roll:-179;yaw:-163;vgx:0;vgy:0;vgz:0;templ:91;temph:93;tof:10;h:0;bat:58;baro:15.12;time:0;agx:968.00;agy:-38.00;agz:54.00;



",58,84,-179,-163,0,0,0,968.00,-38.00,54.00,15.12,10,0
8497.416929,"pitch:82;roll:176;yaw:-166;vgx:0;vgy:0;vgz:0;templ:91;temph:93;tof:10;h:0;bat:58;baro:15.17;time:0;agx:983.00;agy:-13.00;agz:100.00;



",58,82,176,-166,0,0,0,983.00,-13.00,100.00,15.17,10,0
8497.518844,"pitch:79;roll:175;yaw:-168;vgx:0;vgy:0;vgz:0;templ:91;temph:93;tof:10;h:0;bat:58;baro:15.19;time:0;agx:985.00;agy:-30.00;agz:198.00;



",58,79,175,-168,0,0,0,985.00,-30.00,198.00,15.19,10,0
8497.620921,"pitch:75;roll:171;yaw:-171;vgx:0;vgy:0;vgz:0;templ:91;temph:93;tof:10;h:0;bat:58;baro:15.19;time:0;agx:971.00;agy:-50.00;agz:223.00;



",58,75,171,-171,0,0,0,971.00,-50.00,223.00,15.19,10,0
8497.722802,"pitch:75;roll:171;yaw:-171;vgx:0;vgy:0;vgz:0;templ:91;temph:93;tof:10;h:0;bat:58;baro:15.17;time:0;agx:988.00;agy:-57.00;agz:242.00;



",58,75,171,-171,0,0,0,988.00,-57.00,242.00,15.17,10,0
8497.824881,"pitch:74;roll:171;yaw:-172;vgx:0;vgy:0;vgz:0;templ:91;temph:93;tof:10;h:0;bat:58;baro:15.17;time:0;agx:985.00;agy:-55.00;agz:275.00;



",58,74,171,-172,0,0,0,985.00,-55.00,275.00,15.17,10,0
8497.926843,"pitch:72;roll:170;yaw:-172;vgx:0;vgy:0;vgz:0;templ:90;temph:93;tof:10;h:0;bat:58;baro:15.16;time:0;agx:957.00;agy:-72.00;agz:269.00;



",58,72,170,-172,0,0,0,957.00,-72.00,269.00,15.16,10,0
8498.028922,"pitch:70;roll:169;yaw:-173;vgx:0;vgy:0;vgz:0;templ:90;temph:93;tof:10;h:0;bat:58;baro:15.18;time:0;agx:941.00;agy:-64.00;agz:297.00;



",58,70,169,-173,0,0,0,941.00,-64.00,297.00,15.18,10,0
8498.130805,"pitch:70;roll:170;yaw:-173;vgx:0;vgy:0;vgz:0;templ:90;temph:93;tof:10;h:0;bat:58;baro:15.16;time:0;agx:961.00;agy:-68.00;agz:314.00;



",58,70,170,-173,0,0,0,961.00,-68.00,314.00,15.16,10,0
8498.232887,"pitch:70;roll:169;yaw:-173;vgx:0;vgy:0;vgz:0;templ:90;temph:93;tof:10;h:0;bat:58;baro:15.12;time:0;agx:946.00;agy:-67.00;agz:296.00;



",58,70,169,-173,0,0,0,946.00,-67.00,296.00,15.12,10,0
8498.335042,"pitch:69;roll:168;yaw:-173;vgx:0;vgy:0;vgz:0;templ:90;temph:93;tof:10;h:0;bat:58;baro:15.17;time:0;agx:936.00;agy:-69.00;agz:294.00;



",58,69,168,-173,0,0,0,936.00,-69.00,294.00,15.17,10,0
8498.437062,"pitch:67;roll:167;yaw:-174;vgx:0;vgy:0;vgz:0;templ:90;temph:93;tof:10;h:0;bat:58;baro:15.15;time:0;agx:939.00;agy:-100.00;agz:362.00;


",58,67,167,-174,0,0,0,939.00,-100.00,362.00,15.15,10,0
8498.540570,"pitch:63;roll:166;yaw:-175;vgx:0;vgy:0;vgz:0;templ:90;temph:93;tof:10;h:0;bat:58;baro:15.14;time:0;agx:924.00;agy:-130.00;agz:453.00;


",58,63,166,-175,0,0,0,924.00,-130.00,453.00,15.14,10,0
8498.640922,"pitch:55;roll:166;yaw:-174;vgx:0;vgy:0;vgz:0;templ:90;temph:93;tof:10;h:0;bat:58;baro:15.16;time:0;agx:809.00;agy:-221.00;agz:494.00;


",58,55,166,-174,0,0,0,809.00,-221.00,494.00,15.16,10,0
8498.742889,"pitch:46;roll:169;yaw:-174;vgx:0;vgy:0;vgz:0;templ:90;temph:93;tof:10;h:0;bat:58;baro:15.18;time:0;agx:832.00;agy:-174.00;agz:615.00;


",58,46,169,-174,0,0,0,832.00,-174.00,615.00,15.18,10,0
8498.844878,"pitch:40;roll:172;yaw:-176;vgx:0;vgy:0;vgz:0;templ:90;temph:93;tof:10;h:0;bat:58;baro:15.23;time:0;agx:620.00;agy:-84.00;agz:788.00;



",58,40,172,-176,0,0,0,620.00,-84.00,788.00,15.23,10,0
8498.949669,"pitch:34;roll:174;yaw:-176;vgx:0;vgy:0;vgz:0;templ:90;temph:93;tof:10;h:0;bat:58;baro:15.17;time:0;agx:569.00;agy:-90.00;agz:868.00;



",58,34,174,-176,0,0,0,569.00,-90.00,868.00,15.17,10,0
8499.052708,"pitch:32;roll:174;yaw:-176;vgx:0;vgy:0;vgz:0;templ:90;temph:93;tof:10;h:0;bat:58;baro:15.19;time:0;agx:560.00;agy:-105.00;agz:835.00;


",58,32,174,-176,0,0,0,560.00,-105.00,835.00,15.19,10,0
8499.151854,"pitch:30;roll:174;yaw:-176;vgx:0;vgy:0;vgz:0;templ:90;temph:93;tof:10;h:0;bat:58;baro:15.26;time:0;agx:502.00;agy:-97.00;agz:839.00;



",58,30,174,-176,0,0,0,502.00,-97.00,839.00,15.26,10,0
8499.253924,"pitch:28;roll:174;yaw:-176;vgx:0;vgy:0;vgz:0;templ:90;temph:93;tof:10;h:0;bat:58;baro:15.17;time:0;agx:504.00;agy:-110.00;agz:878.00;


",58,28,174,-176,0,0,0,504.00,-110.00,878.00,15.17,10,0
8499.355741,"pitch:28;roll:174;yaw:-176;vgx:0;vgy:0;vgz:0;templ:90;temph:93;tof:10;h:0;bat:58;baro:15.20;time:0;agx:497.00;agy:-103.00;agz:874.00;


",58,28,174,-176,0,0,0,497.00,-103.00,874.00,15.20,10,0
8499.457773,"pitch:27;roll:173;yaw:-176;vgx:0;vgy:0;vgz:0;templ:90;temph:93;tof:10;h:0;bat:58;baro:15.16;time:0;agx:465.00;agy:-112.00;agz:867.00;


",58,27,173,-176,0,0,0,465.00,-112.00,867.00,15.16,10,0
8499.559826,"pitch:27;roll:173;yaw:-176;vgx:0;vgy:0;vgz:0;templ:90;temph:93;tof:10;h:0;bat:58;baro:15.16;time:0;agx:471.00;agy:-116.00;agz:877.00;


",58,27,173,-176,0,0,0,471.00,-116.00,877.00,15.16,10,0
8499.661708,"pitch:27;roll:173;yaw:-176;vgx:0;vgy:0;vgz:0;templ:90;temph:93;tof:10;h:0;bat:58;baro:15.20;time:0;agx:476.00;agy:-123.00;agz:867.00;


",58,27,173,-176,0,0,0,476.00,-123.00,867.00,15.20,10,0
8499.763730,"pitch:26;roll:173;yaw:-176;vgx:0;vgy:0;vgz:0;templ:90;temph:93;tof:10;h:0;bat:58;baro:15.21;time:0;agx:469.00;agy:-117.00;agz:898.00;


",58,26,173,-176,0,0,0,469.00,-117.00,898.00,15.21,10,0
8499.865818,"pitch:25;roll:174;yaw:-176;vgx:0;vgy:0;vgz:0;templ:90;temph:93;tof:10;h:0;bat:58;baro:15.18;time:0;agx:474.00;agy:-94.00;agz:901.00;



",58,25,174,-176,0,0,0,474.00,-94.00,901.00,15.18,10,0
8499.967944,"pitch:21;roll:177;yaw:-176;vgx:0;vgy:0;vgz:0;templ:90;temph:94;tof:10;h:0;bat:58;baro:15.26;time:0;agx:388.00;agy:-51.00;agz:918.00;



",58,21,177,-176,0,0,0,388.00,-51.00,918.00,15.26,10,0
8500.070150,"pitch:17;roll:-179;yaw:-177;vgx:0;vgy:0;vgz:0;templ:90;temph:94;tof:10;h:0;bat:58;baro:15.20;time:0;agx:311.00;agy:9.00;agz:954.00;




",58,17,-179,-177,0,0,0,311.00,9.00,954.00,15.20,10,0
8500.171825,"pitch:15;roll:-178;yaw:-177;vgx:0;vgy:0;vgz:0;templ:90;temph:94;tof:10;h:0;bat:58;baro:15.25;time:0;agx:280.00;agy:15.00;agz:976.00;



",58,15,-178,-177,0,0,0,280.00,15.00,976.00,15.25,10,0
8500.273930,"pitch:15;roll:-178;yaw:-177;vgx:0;vgy:0;vgz:0;templ:90;temph:94;tof:10;h:0;bat:58;baro:15.20;time:0;agx:286.00;agy:2.00;agz:987.00;




",58,15,-178,-177,0,0,0,286.00,2.00,987.00,15.20,10,0
8500.375862,"pitch:19;roll:-177;yaw:-176;vgx:0;vgy:0;vgz:0;templ:90;temph:94;tof:10;h:0;bat:58;baro:15.16;time:0;agx:416.00;agy:6.00;agz:968.00;




",58,19,-177,-176,0,0,0,416.00,6.00,968.00,15.16,10,0
8500.477948,"pitch:26;roll:-177;yaw:-173;vgx:0;vgy:0;vgz:0;templ:90;temph:94;tof:10;h:0;bat:58;baro:15.21;time:0;agx:489.00;agy:37.00;agz:912.00;



",58,26,-177,-173,0,0,0,489.00,37.00,912.00,15.21,10,0
8500.579880,"pitch:39;roll:-174;yaw:-170;vgx:0;vgy:0;vgz:0;templ:90;temph:94;tof:10;h:0;bat:58;baro:15.24;time:0;agx:751.00;agy:29.00;agz:889.00;



",58,39,-174,-170,0,0,0,751.00,29.00,889.00,15.24,10,0
8500.630670,"pitch:58;roll:-172;yaw:-169;vgx:0;vgy:0;vgz:-1;templ:90;temph:94;tof:10;h:0;bat:58;baro:15.21;time:0;agx:920.00;agy:17.00;agz:491.00;


",58,58,-172,-169,0,0,-1,920.00,17.00,491.00,15.21,10,0
8500.732800,"pitch:74;roll:-173;yaw:-168;vgx:0;vgy:0;vgz:-1;templ:90;temph:94;tof:10;h:0;bat:58;baro:15.26;time:0;agx:906.00;agy:24.00;agz:152.00;


",58,74,-173,-168,0,0,-1,906.00,24.00,152.00,15.26,10,0
8500.834793,"pitch:84;roll:-158;yaw:-155;vgx:0;vgy:0;vgz:0;templ:90;temph:94;tof:10;h:0;bat:58;baro:15.18;time:0;agx:989.00;agy:24.00;agz:67.00;



",58,84,-158,-155,0,0,0,989.00,24.00,67.00,15.18,10,0
8500.936789,"pitch:87;roll:-78;yaw:-75;vgx:0;vgy:0;vgz:0;templ:90;temph:93;tof:10;h:0;bat:58;baro:15.17;time:0;agx:997.00;agy:8.00;agz:-50.00;




",58,87,-78,-75,0,0,0,997.00,8.00,-50.00,15.17,10,0
8501.038817,"pitch:83;roll:-14;yaw:-12;vgx:0;vgy:0;vgz:0;templ:90;temph:93;tof:10;h:0;bat:58;baro:15.13;time:0;agx:1011.00;agy:18.00;agz:-123.00;



",58,83,-14,-12,0,0,0,1011.00,18.00,-123.00,15.13,10,0
8501.140340,"pitch:79;roll:-7;yaw:-6;vgx:0;vgy:0;vgz:0;templ:90;temph:93;tof:10;h:0;bat:58;baro:15.20;time:0;agx:986.00;agy:12.00;agz:-188.00;
;



",58,79,-7,-6,0,0,0,986.00,12.00,-188.00,15.20,10,0
8501.243954,"pitch:78;roll:-6;yaw:-5;vgx:0;vgy:0;vgz:0;templ:90;temph:93;tof:10;h:0;bat:58;baro:15.19;time:0;agx:991.00;agy:15.00;agz:-214.00;
;



",58,78,-6,-5,0,0,0,991.00,15.00,-214.00,15.19,10,0
8501.344780,"pitch:79;roll:-6;yaw:-6;vgx:0;vgy:0;vgz:0;templ:90;temph:93;tof:10;h:0;bat:58;baro:15.19;time:0;agx:962.00;agy:44.00;agz:-196.00;
;



",58,79,-6,-6,0,0,0,962.00,44.00,-196.00,15.19,10,0
8501.446803,"pitch:81;roll:-19;yaw:-22;vgx:0;vgy:0;vgz:0;templ:90;temph:93;tof:10;h:0;bat:58;baro:15.19;time:0;agx:932.00;agy:78.00;agz:-228.00;




",58,81,-19,-22,0,0,0,932.00,78.00,-228.00,15.19,10,0
8501.550252,"pitch:75;roll:-20;yaw:-24;vgx:0;vgy:0;vgz:0;templ:90;temph:93;tof:10;h:0;bat:58;baro:15.20;time:0;agx:995.00;agy:58.00;agz:-235.00;




",58,75,-20,-24,0,0,0,995.00,58.00,-235.00,15.20,10,0
8501.652710,"pitch:72;roll:-6;yaw:-15;vgx:0;vgy:0;vgz:0;templ:90;temph:93;tof:10;h:0;bat:58;baro:15.20;time:0;agx:945.00;agy:83.00;agz:-179.00;





",58,72,-6,-15,0,0,0,945.00,83.00,-179.00,15.20,10,0
8501.752718,"pitch:77;roll:-4;yaw:-19;vgx:0;vgy:0;vgz:0;templ:90;temph:93;tof:10;h:0;bat:58;baro:15.21;time:0;agx:994.00;agy:3.00;agz:-336.00;






",58,77,-4,-19,0,0,0,994.00,3.00,-336.00,15.21,10,0
8501.854663,"pitch:75;roll:4;yaw:-19;vgx:0;vgy:0;vgz:0;templ:90;temph:93;tof:10;h:0;bat:58;baro:15.27;time:0;agx:872.00;agy:-111.00;agz:-273.00;




",58,75,4,-19,0,0,0,872.00,-111.00,-273.00,15.27,10,0
8501.956715,"pitch:81;roll:66;yaw:37;vgx:0;vgy:0;vgz:0;templ:90;temph:93;tof:10;h:0;bat:58;baro:15.16;time:0;agx:1220.00;agy:-162.00;agz:-12.00;




",58,81,66,37,0,0,0,1220.00,-162.00,-12.00,15.16,10,0
8502.058770,"pitch:73;roll:157;yaw:139;vgx:0;vgy:0;vgz:0;templ:90;temph:93;tof:10;h:0;bat:58;baro:15.18;time:0;agx:645.00;agy:50.00;agz:418.00;





",58,73,157,139,0,0,0,645.00,50.00,418.00,15.18,10,0
8502.160635,"pitch:49;roll:166;yaw:175;vgx:0;vgy:0;vgz:1;templ:90;temph:93;tof:187;h:0;bat:58;baro:15.18;time:0;agx:804.00;agy:-225.00;agz:706.00;


",58,49,166,175,0,0,1,804.00,-225.00,706.00,15.18,187,0
8502.262631,"pitch:14;roll:162;yaw:-172;vgx:0;vgy:0;vgz:2;templ:90;temph:93;tof:199;h:0;bat:58;baro:15.21;time:0;agx:265.00;agy:-307.00;agz:717.00;


",58,14,162,-172,0,0,2,265.00,-307.00,717.00,15.21,199,0
8502.365069,"pitch:-3;roll:153;yaw:-173;vgx:0;vgy:0;vgz:2;templ:90;temph:93;tof:206;h:0;bat:58;baro:15.13;time:0;agx:-400.00;agy:-459.00;agz:881.00;

",58,-3,153,-173,0,0,2,-400.00,-459.00,881.00,15.13,206,0
8502.466841,"pitch:-4;roll:157;yaw:-166;vgx:0;vgy:0;vgz:2;templ:90;temph:93;tof:43;h:0;bat:58;baro:15.16;time:0;agx:147.00;agy:-336.00;agz:959.00;


",58,-4,157,-166,0,0,2,147.00,-336.00,959.00,15.16,43,0
8502.568523,"pitch:-6;roll:159;yaw:-166;vgx:0;vgy:0;vgz:2;templ:90;temph:93;tof:6553;h:0;bat:58;baro:15.12;time:0;agx:-61.00;agy:-566.00;agz:761.00;

",58,-6,159,-166,0,0,2,-61.00,-566.00,761.00,15.12,6553,0
8502.670806,"pitch:-7;roll:163;yaw:-159;vgx:0;vgy:0;vgz:1;templ:90;temph:93;tof:6553;h:0;bat:58;baro:15.12;time:0;agx:291.00;agy:-278.00;agz:1294.00;
",58,-7,163,-159,0,0,1,291.00,-278.00,1294.00,15.12,6553,0
8502.772658,"pitch:-7;roll:163;yaw:-159;vgx:0;vgy:0;vgz:0;templ:90;temph:93;tof:173;h:0;bat:58;baro:15.13;time:0;agx:-3938.00;agy:582.00;agz:387.00;

",58,-7,163,-159,0,0,0,-3938.00,582.00,387.00,15.13,173,0
8502.875876,"pitch:9;roll:175;yaw:-150;vgx:0;vgy:0;vgz:0;templ:90;temph:93;tof:171;h:0;bat:58;baro:15.15;time:0;agx:1.00;agy:-53.00;agz:1115.00;
0;

",58,9,175,-150,0,0,0,1.00,-53.00,1115.00,15.15,171,0
8502.977534,"pitch:-2;roll:163;yaw:-154;vgx:0;vgy:0;vgz:0;templ:91;temph:93;tof:164;h:0;bat:58;baro:15.10;time:0;agx:-25.00;agy:-321.00;agz:914.00;


",58,-2,163,-154,0,0,0,-25.00,-321.00,914.00,15.10,164,0
8503.080813,"pitch:2;roll:166;yaw:-151;vgx:0;vgy:0;vgz:0;templ:91;temph:93;tof:158;h:0;bat:58;baro:15.17;time:0;agx:253.00;agy:-250.00;agz:1096.00;


",58,2,166,-151,0,0,0,253.00,-250.00,1096.00,15.17,158,0
8503.181048,"pitch:4;roll:167;yaw:-151;vgx:0;vgy:0;vgz:0;templ:91;temph:93;tof:152;h:0;bat:58;baro:15.14;time:0;agx:229.00;agy:-192.00;agz:913.00;



",58,4,167,-151,0,0,0,229.00,-192.00,913.00,15.14,152,0
8503.284945,"pitch:10;roll:170;yaw:-152;vgx:0;vgy:0;vgz:0;templ:91;temph:93;tof:128;h:0;bat:58;baro:15.12;time:0;agx:202.00;agy:-146.00;agz:1048.00;

",58,10,170,-152,0,0,0,202.00,-146.00,1048.00,15.12,128,0
8503.386758,"pitch:10;roll:169;yaw:-153;vgx:0;vgy:0;vgz:-1;templ:91;temph:93;tof:6553;h:0;bat:58;baro:15.16;time:0;agx:240.00;agy:-108.00;agz:984.00;
",58,10,169,-153,0,0,-1,240.00,-108.00,984.00,15.16,6553,0
8503.486629,"pitch:24;roll:-179;yaw:-152;vgx:0;vgy:0;vgz:-2;templ:91;temph:93;tof:10;h:0;bat:58;baro:15.17;time:0;agx:641.00;agy:233.00;agz:723.00;

",58,24,-179,-152,0,0,-2,641.00,233.00,723.00,15.17,10,0
8503.588665,"pitch:47;roll:-152;yaw:-147;vgx:0;vgy:0;vgz:-2;templ:91;temph:93;tof:10;h:0;bat:58;baro:15.17;time:0;agx:870.00;agy:357.00;agz:593.00;

",58,47,-152,-147,0,0,-2,870.00,357.00,593.00,15.17,10,0
8503.639667,"pitch:58;roll:-135;yaw:-138;vgx:0;vgy:0;vgz:-3;templ:91;temph:93;tof:10;h:0;bat:58;baro:15.20;time:0;agx:776.00;agy:216.00;agz:316.00;

",58,58,-135,-138,0,0,-3,776.00,216.00,316.00,15.20,10,0
8503.741804,"pitch:60;roll:-127;yaw:-129;vgx:0;vgy:0;vgz:-1;templ:91;temph:93;tof:10;h:0;bat:58;baro:15.25;time:0;agx:783.00;agy:277.00;agz:348.00;

",58,60,-127,-129,0,0,-1,783.00,277.00,348.00,15.25,10,0
8503.843806,"pitch:59;roll:-113;yaw:-117;vgx:0;vgy:0;vgz:0;templ:91;temph:93;tof:10;h:0;bat:58;baro:15.22;time:0;agx:794.00;agy:485.00;agz:217.00;


",58,59,-113,-117,0,0,0,794.00,485.00,217.00,15.22,10,0
8503.945881,"pitch:55;roll:-105;yaw:-113;vgx:0;vgy:0;vgz:0;templ:91;temph:93;tof:6553;h:0;bat:58;baro:15.22;time:0;agx:735.00;agy:546.00;agz:178.00;

",58,55,-105,-113,0,0,0,735.00,546.00,178.00,15.22,6553,0
8504.098677,"pitch:50;roll:-92;yaw:-105;vgx:0;vgy:0;vgz:0;templ:91;temph:93;tof:6553;h:0;bat:58;baro:15.26;time:0;agx:931.00;agy:481.00;agz:69.00;


",58,50,-92,-105,0,0,0,931.00,481.00,69.00,15.26,6553,0
8504.200589,"pitch:51;roll:-93;yaw:-106;vgx:0;vgy:0;vgz:0;templ:91;temph:93;tof:6553;h:0;bat:58;baro:15.25;time:0;agx:1239.00;agy:709.00;agz:215.00;

",58,51,-93,-106,0,0,0,1239.00,709.00,215.00,15.25,6553,0
8504.251999,"pitch:53;roll:-89;yaw:-103;vgx:0;vgy:0;vgz:-2;templ:91;temph:93;tof:6553;h:0;bat:58;baro:15.21;time:0;agx:1667.00;agy:876.00;agz:110.00;
",58,53,-89,-103,0,0,-2,1667.00,876.00,110.00,15.21,6553,0
8504.354129,"pitch:53;roll:-93;yaw:-105;vgx:0;vgy:0;vgz:0;templ:91;temph:93;tof:10;h:0;bat:58;baro:15.23;time:0;agx:1041.00;agy:760.00;agz:91.00;
0;
",58,53,-93,-105,0,0,0,1041.00,760.00,91.00,15.23,10,0
8504.458036,"pitch:53;roll:-92;yaw:-105;vgx:0;vgy:0;vgz:0;templ:91;temph:93;tof:6553;h:0;bat:58;baro:15.25;time:0;agx:1304.00;agy:659.00;agz:355.00;

",58,53,-92,-105,0,0,0,1304.00,659.00,355.00,15.25,6553,0
8504.560385,"pitch:56;roll:-92;yaw:-106;vgx:0;vgy:0;vgz:-1;templ:91;temph:93;tof:6553;h:0;bat:58;baro:15.26;time:0;agx:784.00;agy:1491.00;agz:537.00;
",58,56,-92,-106,0,0,-1,784.00,1491.00,537.00,15.26,6553,0
8504.659569,"pitch:57;roll:-97;yaw:-111;vgx:0;vgy:0;vgz:0;templ:91;temph:93;tof:10;h:0;bat:58;baro:15.24;time:0;agx:760.00;agy:541.00;agz:-73.00;
0;
",58,57,-97,-111,0,0,0,760.00,541.00,-73.00,15.24,10,0
8504.761652,"pitch:56;roll:-89;yaw:-102;vgx:0;vgy:0;vgz:0;templ:91;temph:93;tof:6553;h:0;bat:58;baro:15.22;time:0;agx:1306.00;agy:443.00;agz:368.00;

",58,56,-89,-102,0,0,0,1306.00,443.00,368.00,15.22,6553,0
8504.863640,"pitch:57;roll:-85;yaw:-100;vgx:0;vgy:0;vgz:-2;templ:91;temph:93;tof:6553;h:0;bat:58;baro:15.22;time:0;agx:1653.00;agy:1063.00;agz:34.00;
",58,57,-85,-100,0,0,-2,1653.00,1063.00,34.00,15.22,6553,0
8504.965807,"pitch:48;roll:-80;yaw:-102;vgx:0;vgy:0;vgz:1;templ:91;temph:94;tof:10;h:0;bat:58;baro:15.22;time:0;agx:1246.00;agy:570.00;agz:-245.00;

",58,48,-80,-102,0,0,1,1246.00,570.00,-245.00,15.22,10,0
8505.067782,"pitch:53;roll:-77;yaw:-94;vgx:0;vgy:0;vgz:-1;templ:91;temph:94;tof:6553;h:0;bat:58;baro:15.22;time:0;agx:1124.00;agy:437.00;agz:161.00;

",58,53,-77,-94,0,0,-1,1124.00,437.00,161.00,15.22,6553,0
8505.169667,"pitch:51;roll:-52;yaw:-74;vgx:0;vgy:0;vgz:-2;templ:91;temph:94;tof:10;h:0;bat:58;baro:15.23;time:0;agx:2631.00;agy:1147.00;agz:121.00;


",58,51,-52,-74,0,0,-2,2631.00,1147.00,121.00,15.23,10,0
8505.272074,"pitch:47;roll:-33;yaw:-59;vgx:0;vgy:0;vgz:-3;templ:91;temph:94;tof:32;h:0;bat:58;baro:15.26;time:0;agx:1416.00;agy:482.00;agz:-393.00;


",58,47,-33,-59,0,0,-3,1416.00,482.00,-393.00,15.26,32,0
8505.373726,"pitch:43;roll:-28;yaw:-55;vgx:0;vgy:0;vgz:-2;templ:91;temph:94;tof:35;h:0;bat:58;baro:15.28;time:0;agx:970.00;agy:593.00;agz:-364.00;



",58,43,-28,-55,0,0,-2,970.00,593.00,-364.00,15.28,35,0
8505.475823,"pitch:40;roll:-25;yaw:-50;vgx:0;vgy:0;vgz:-1;templ:91;temph:94;tof:35;h:0;bat:58;baro:15.31;time:0;agx:885.00;agy:409.00;agz:-429.00;



",58,40,-25,-50,0,0,-1,885.00,409.00,-429.00,15.31,35,0
8505.579805,"pitch:33;roll:-21;yaw:-44;vgx:0;vgy:0;vgz:-1;templ:91;temph:94;tof:31;h:0;bat:58;baro:15.29;time:0;agx:332.00;agy:359.00;agz:-459.00;



",58,33,-21,-44,0,0,-1,332.00,359.00,-459.00,15.29,31,0
8505.681539,"pitch:30;roll:-19;yaw:-43;vgx:0;vgy:0;vgz:-1;templ:91;temph:94;tof:34;h:0;bat:58;baro:15.29;time:0;agx:626.00;agy:293.00;agz:-561.00;



",58,30,-19,-43,0,0,-1,626.00,293.00,-561.00,15.29,34,0
8505.786135,"pitch:26;roll:-15;yaw:-41;vgx:0;vgy:0;vgz:-1;templ:91;temph:94;tof:34;h:0;bat:58;baro:15.30;time:0;agx:542.00;agy:351.00;agz:-802.00;



",58,26,-15,-41,0,0,-1,542.00,351.00,-802.00,15.30,34,0
8505.884661,"pitch:19;roll:-10;yaw:-33;vgx:0;vgy:0;vgz:-2;templ:91;temph:94;tof:34;h:0;bat:58;baro:15.30;time:0;agx:580.00;agy:293.00;agz:-868.00;



",58,19,-10,-33,0,0,-2,580.00,293.00,-868.00,15.30,34,0
8505.987869,"pitch:18;roll:-15;yaw:-31;vgx:0;vgy:0;vgz:-2;templ:91;temph:94;tof:34;h:0;bat:58;baro:15.34;time:0;agx:261.00;agy:273.00;agz:-1114.00;


",58,18,-15,-31,0,0,-2,261.00,273.00,-1114.00,15.34,34,0
8506.087536,"pitch:16;roll:-22;yaw:-40;vgx:0;vgy:0;vgz:-2;templ:91;temph:94;tof:37;h:0;bat:58;baro:15.30;time:0;agx:319.00;agy:410.00;agz:-796.00;



",58,16,-22,-40,0,0,-2,319.00,410.00,-796.00,15.30,37,0
8506.189538,"pitch:13;roll:-21;yaw:-47;vgx:0;vgy:0;vgz:0;templ:91;temph:94;tof:38;h:0;bat:58;baro:15.32;time:0;agx:108.00;agy:399.00;agz:-691.00;




",58,13,-21,-47,0,0,0,108.00,399.00,-691.00,15.32,38,0
8506.291510,"pitch:10;roll:-17;yaw:-51;vgx:0;vgy:0;vgz:0;templ:91;temph:94;tof:37;h:0;bat:58;baro:15.36;time:0;agx:153.00;agy:382.00;agz:-818.00;




",58,10,-17,-51,0,0,0,153.00,382.00,-818.00,15.36,37,0
8506.393548,"pitch:13;roll:-18;yaw:-56;vgx:0;vgy:0;vgz:0;templ:91;temph:94;tof:10;h:0;bat:58;baro:15.36;time:0;agx:160.00;agy:119.00;agz:-840.00;




",58,13,-18,-56,0,0,0,160.00,119.00,-840.00,15.36,10,0
8506.495573,"pitch:14;roll:-17;yaw:-53;vgx:0;vgy:0;vgz:0;templ:91;temph:94;tof:10;h:0;bat:58;baro:15.33;time:0;agx:349.00;agy:325.00;agz:-783.00;




",58,14,-17,-53,0,0,0,349.00,325.00,-783.00,15.33,10,0
8506.597491,"pitch:21;roll:-20;yaw:-53;vgx:0;vgy:0;vgz:0;templ:91;temph:94;tof:10;h:0;bat:58;baro:15.34;time:0;agx:296.00;agy:295.00;agz:-947.00;




",58,21,-20,-53,0,0,0,296.00,295.00,-947.00,15.34,10,0
8506.699608,"pitch:29;roll:-23;yaw:-48;vgx:0;vgy:0;vgz:0;templ:91;temph:94;tof:10;h:0;bat:58;baro:15.34;time:0;agx:377.00;agy:328.00;agz:-929.00;




",58,29,-23,-48,0,0,0,377.00,328.00,-929.00,15.34,10,0
8506.801536,"pitch:31;roll:-25;yaw:-44;vgx:0;vgy:0;vgz:0;templ:91;temph:94;tof:10;h:0;bat:58;baro:15.34;time:0;agx:519.00;agy:342.00;agz:-800.00;




",58,31,-25,-44,0,0,0,519.00,342.00,-800.00,15.34,10,0
