t_sec,raw,bat,pitch,roll,yaw,vgx,vgy,vgz,agx,agy,agz,baro,tof,h
7589.686798,"pitch:0;roll:0;yaw:0;vgx:0;vgy:0;vgz:0;templ:79;temph:81;tof:10;h:0;bat:77;baro:15.95;time:0;agx:5.00;agy:1.00;agz:-1000.00;
",77,0,0,0,0,0,0,5.00,1.00,-1000.00,15.95,10,0
7589.788734,"pitch:0;roll:0;yaw:0;vgx:0;vgy:0;vgz:0;templ:79;temph:81;tof:10;h:0;bat:77;baro:16.02;time:0;agx:6.00;agy:2.00;agz:-1001.00;
",77,0,0,0,0,0,0,6.00,2.00,-1001.00,16.02,10,0
7589.890317,"pitch:0;roll:0;yaw:0;vgx:0;vgy:0;vgz:0;templ:79;temph:81;tof:10;h:0;bat:77;baro:15.99;time:0;agx:6.00;agy:4.00;agz:-999.00;

",77,0,0,0,0,0,0,6.00,4.00,-999.00,15.99,10,0
7589.941296,"pitch:0;roll:0;yaw:0;vgx:0;vgy:0;vgz:0;templ:79;temph:81;tof:10;h:0;bat:77;baro:15.98;time:0;agx:5.00;agy:3.00;agz:-1003.00;
",77,0,0,0,0,0,0,5.00,3.00,-1003.00,15.98,10,0
7590.043655,"pitch:0;roll:0;yaw:0;vgx:0;vgy:0;vgz:0;templ:79;temph:82;tof:10;h:0;bat:77;baro:15.96;time:0;agx:8.00;agy:3.00;agz:-1001.00;
",77,0,0,0,0,0,0,8.00,3.00,-1001.00,15.96,10,0
7590.145237,"pitch:0;roll:0;yaw:0;vgx:0;vgy:0;vgz:0;templ:79;temph:82;tof:10;h:0;bat:77;baro:15.96;time:0;agx:6.00;agy:2.00;agz:-998.00;

",77,0,0,0,0,0,0,6.00,2.00,-998.00,15.96,10,0
7590.247339,"pitch:0;roll:0;yaw:0;vgx:0;vgy:0;vgz:0;templ:79;temph:82;tof:10;h:0;bat:77;baro:15.95;time:0;agx:5.00;agy:2.00;agz:-1003.00;
",77,0,0,0,0,0,0,5.00,2.00,-1003.00,15.95,10,0
7590.349460,"pitch:0;roll:0;yaw:0;vgx:0;vgy:0;vgz:0;templ:79;temph:82;tof:10;h:0;bat:77;baro:15.95;time:0;agx:5.00;agy:2.00;agz:-999.00;

",77,0,0,0,0,0,0,5.00,2.00,-999.00,15.95,10,0
7590.451384,"pitch:0;roll:0;yaw:0;vgx:0;vgy:0;vgz:0;templ:79;temph:82;tof:10;h:0;bat:77;baro:15.97;time:0;agx:6.00;agy:1.00;agz:-1002.00;
",77,0,0,0,0,0,0,6.00,1.00,-1002.00,15.97,10,0
7590.553789,"pitch:0;roll:0;yaw:0;vgx:0;vgy:0;vgz:0;templ:79;temph:82;tof:10;h:0;bat:77;baro:15.96;time:0;agx:5.00;agy:4.00;agz:-997.00;

",77,0,0,0,0,0,0,5.00,4.00,-997.00,15.96,10,0
7590.655144,"pitch:0;roll:0;yaw:0;vgx:0;vgy:0;vgz:0;templ:79;temph:82;tof:10;h:0;bat:77;baro:15.97;time:0;agx:8.00;agy:2.00;agz:-999.00;

",77,0,0,0,0,0,0,8.00,2.00,-999.00,15.97,10,0
7590.757049,"pitch:0;roll:0;yaw:0;vgx:0;vgy:0;vgz:0;templ:79;temph:82;tof:10;h:0;bat:77;baro:15.98;time:0;agx:4.00;agy:5.00;agz:-1001.00;
",77,0,0,0,0,0,0,4.00,5.00,-1001.00,15.98,10,0
7590.859925,"pitch:0;roll:0;yaw:0;vgx:0;vgy:0;vgz:0;templ:79;temph:82;tof:10;h:0;bat:77;baro:16.02;time:0;agx:5.00;agy:4.00;agz:-1001.00;
",77,0,0,0,0,0,0,5.00,4.00,-1001.00,16.02,10,0
7590.961329,"pitch:0;roll:0;yaw:0;vgx:0;vgy:0;vgz:0;templ:79;temph:82;tof:10;h:0;bat:77;baro:15.94;time:0;agx:4.00;agy:3.00;agz:-998.00;

",77,0,0,0,0,0,0,4.00,3.00,-998.00,15.94,10,0
7591.063076,"pitch:0;roll:0;yaw:0;vgx:0;vgy:0;vgz:0;templ:79;temph:82;tof:10;h:0;bat:77;baro:15.97;time:0;agx:4.00;agy:3.00;agz:-1000.00;
",77,0,0,0,0,0,0,4.00,3.00,-1000.00,15.97,10,0
7591.165042,"pitch:0;roll:0;yaw:0;vgx:0;vgy:0;vgz:0;templ:79;temph:82;tof:10;h:0;bat:77;baro:15.99;time:0;agx:6.00;agy:2.00;agz:-1000.00;
",77,0,0,0,0,0,0,6.00,2.00,-1000.00,15.99,10,0
7591.267085,"pitch:0;roll:0;yaw:0;vgx:0;vgy:0;vgz:0;templ:79;temph:82;tof:10;h:0;bat:77;baro:15.96;time:0;agx:8.00;agy:3.00;agz:-999.00;

",77,0,0,0,0,0,0,8.00,3.00,-999.00,15.96,10,0
7591.369275,"pitch:0;roll:0;yaw:0;vgx:0;vgy:0;vgz:0;templ:79;temph:82;tof:10;h:0;bat:77;baro:15.91;time:0;agx:6.00;agy:3.00;agz:-999.00;

",77,0,0,0,0,0,0,6.00,3.00,-999.00,15.91,10,0
7591.471034,"pitch:0;roll:0;yaw:0;vgx:0;vgy:0;vgz:0;templ:79;temph:82;tof:10;h:0;bat:77;baro:15.94;time:0;agx:5.00;agy:4.00;agz:-1000.00;
",77,0,0,0,0,0,0,5.00,4.00,-1000.00,15.94,10,0
7591.574141,"pitch:0;roll:0;yaw:0;vgx:0;vgy:0;vgz:0;templ:79;temph:82;tof:10;h:0;bat:77;baro:15.96;time:0;agx:7.00;agy:3.00;agz:-1000.00;
",77,0,0,0,0,0,0,7.00,3.00,-1000.00,15.96,10,0
7591.675233,"pitch:0;roll:0;yaw:0;vgx:0;vgy:0;vgz:0;templ:79;temph:82;tof:10;h:0;bat:77;baro:15.98;time:0;agx:6.00;agy:2.00;agz:-999.00;

",77,0,0,0,0,0,0,6.00,2.00,-999.00,15.98,10,0
7591.777206,"pitch:0;roll:0;yaw:0;vgx:0;vgy:0;vgz:0;templ:79;temph:82;tof:10;h:0;bat:77;baro:15.91;time:0;agx:6.00;agy:3.00;agz:-1001.00;
",77,0,0,0,0,0,0,6.00,3.00,-1001.00,15.91,10,0
7591.879720,"pitch:0;roll:0;yaw:0;vgx:0;vgy:0;vgz:0;templ:79;temph:82;tof:10;h:0;bat:77;baro:15.96;time:0;agx:5.00;agy:1.00;agz:-997.00;

",77,0,0,0,0,0,0,5.00,1.00,-997.00,15.96,10,0
7591.983185,"pitch:0;roll:0;yaw:0;vgx:0;vgy:0;vgz:0;templ:79;temph:82;tof:10;h:0;bat:77;baro:15.96;time:0;agx:7.00;agy:3.00;agz:-998.00;

",77,0,0,0,0,0,0,7.00,3.00,-998.00,15.96,10,0
7592.084525,"pitch:0;roll:0;yaw:0;vgx:0;vgy:0;vgz:0;templ:79;temph:83;tof:10;h:0;bat:77;baro:15.91;time:0;agx:5.00;agy:3.00;agz:-1000.00;
",77,0,0,0,0,0,0,5.00,3.00,-1000.00,15.91,10,0
7592.185168,"pitch:0;roll:0;yaw:0;vgx:0;vgy:0;vgz:0;templ:79;temph:83;tof:10;h:0;bat:77;baro:16.00;time:0;agx:6.00;agy:2.00;agz:-996.00;

",77,0,0,0,0,0,0,6.00,2.00,-996.00,16.00,10,0
7592.287142,"pitch:0;roll:0;yaw:0;vgx:0;vgy:0;vgz:0;templ:79;temph:83;tof:10;h:0;bat:77;baro:15.91;time:0;agx:6.00;agy:2.00;agz:-999.00;

",77,0,0,0,0,0,0,6.00,2.00,-999.00,15.91,10,0
7592.389400,"pitch:0;roll:0;yaw:0;vgx:0;vgy:0;vgz:0;templ:79;temph:83;tof:10;h:0;bat:77;baro:15.94;time:0;agx:6.00;agy:2.00;agz:-1001.00;
",77,0,0,0,0,0,0,6.00,2.00,-1001.00,15.94,10,0
7592.440186,"pitch:0;roll:0;yaw:0;vgx:0;vgy:0;vgz:0;templ:79;temph:83;tof:10;h:0;bat:77;baro:15.95;time:0;agx:5.00;agy:4.00;agz:-1001.00;
",77,0,0,0,0,0,0,5.00,4.00,-1001.00,15.95,10,0
7592.542866,"pitch:0;roll:0;yaw:0;vgx:0;vgy:0;vgz:0;templ:79;temph:83;tof:10;h:0;bat:77;baro:15.93;time:0;agx:7.00;agy:3.00;agz:-1000.00;
",77,0,0,0,0,0,0,7.00,3.00,-1000.00,15.93,10,0
7592.644307,"pitch:0;roll:0;yaw:0;vgx:0;vgy:0;vgz:0;templ:79;temph:83;tof:10;h:0;bat:77;baro:15.88;time:0;agx:6.00;agy:1.00;agz:-1000.00;
",77,0,0,0,0,0,0,6.00,1.00,-1000.00,15.88,10,0
7592.749256,"pitch:0;roll:0;yaw:0;vgx:0;vgy:0;vgz:0;templ:79;temph:83;tof:10;h:0;bat:77;baro:15.93;time:0;agx:5.00;agy:2.00;agz:-1002.00;
",77,0,0,0,0,0,0,5.00,2.00,-1002.00,15.93,10,0
7592.850398,"pitch:0;roll:0;yaw:0;vgx:0;vgy:0;vgz:0;templ:79;temph:83;tof:10;h:0;bat:77;baro:15.95;time:0;agx:5.00;agy:3.00;agz:-1000.00;
",77,0,0,0,0,0,0,5.00,3.00,-1000.00,15.95,10,0
7592.951622,"pitch:0;roll:0;yaw:0;vgx:0;vgy:0;vgz:0;templ:79;temph:83;tof:10;h:0;bat:77;baro:15.96;time:0;agx:5.00;agy:3.00;agz:-999.00;

",77,0,0,0,0,0,0,5.00,3.00,-999.00,15.96,10,0
7593.053128,"pitch:0;roll:0;yaw:0;vgx:0;vgy:0;vgz:0;templ:79;temph:82;tof:10;h:0;bat:77;baro:15.97;time:0;agx:4.00;agy:2.00;agz:-1001.00;
",77,0,0,0,0,0,0,4.00,2.00,-1001.00,15.97,10,0
7593.155186,"pitch:0;roll:0;yaw:0;vgx:0;vgy:0;vgz:0;templ:79;temph:82;tof:10;h:0;bat:77;baro:15.93;time:0;agx:6.00;agy:2.00;agz:-1001.00;
",77,0,0,0,0,0,0,6.00,2.00,-1001.00,15.93,10,0
7593.257220,"pitch:0;roll:0;yaw:0;vgx:0;vgy:0;vgz:0;templ:79;temph:82;tof:10;h:0;bat:77;baro:15.86;time:0;agx:5.00;agy:2.00;agz:-1001.00;
",77,0,0,0,0,0,0,5.00,2.00,-1001.00,15.86,10,0
7593.359095,"pitch:0;roll:0;yaw:0;vgx:0;vgy:0;vgz:0;templ:79;temph:82;tof:10;h:0;bat:77;baro:15.91;time:0;agx:5.00;agy:3.00;agz:-1001.00;
",77,0,0,0,0,0,0,5.00,3.00,-1001.00,15.91,10,0
7593.464179,"pitch:0;roll:0;yaw:0;vgx:0;vgy:0;vgz:0;templ:79;temph:82;tof:10;h:0;bat:77;baro:15.90;time:0;agx:6.00;agy:2.00;agz:-1001.00;
",77,0,0,0,0,0,0,6.00,2.00,-1001.00,15.90,10,0
7593.563388,"pitch:0;roll:0;yaw:0;vgx:0;vgy:0;vgz:0;templ:79;temph:82;tof:10;h:0;bat:77;baro:15.91;time:0;agx:7.00;agy:1.00;agz:-998.00;

",77,0,0,0,0,0,0,7.00,1.00,-998.00,15.91,10,0
7593.665183,"pitch:0;roll:0;yaw:0;vgx:0;vgy:0;vgz:0;templ:79;temph:82;tof:10;h:0;bat:77;baro:15.95;time:0;agx:5.00;agy:3.00;agz:-1001.00;
",77,0,0,0,0,0,0,5.00,3.00,-1001.00,15.95,10,0
7593.767091,"pitch:0;roll:0;yaw:0;vgx:0;vgy:0;vgz:0;templ:79;temph:82;tof:10;h:0;bat:77;baro:15.98;time:0;agx:4.00;agy:3.00;agz:-1001.00;
",77,0,0,0,0,0,0,4.00,3.00,-1001.00,15.98,10,0
7593.869113,"pitch:0;roll:0;yaw:0;vgx:0;vgy:0;vgz:0;templ:79;temph:82;tof:10;h:0;bat:77;baro:15.94;time:0;agx:4.00;agy:4.00;agz:-999.00;

",77,0,0,0,0,0,0,4.00,4.00,-999.00,15.94,10,0
7593.971119,"pitch:0;roll:0;yaw:0;vgx:0;vgy:0;vgz:0;templ:79;temph:82;tof:10;h:0;bat:77;baro:15.92;time:0;agx:6.00;agy:2.00;agz:-1000.00;
",77,0,0,0,0,0,0,6.00,2.00,-1000.00,15.92,10,0
7594.073144,"pitch:0;roll:0;yaw:0;vgx:0;vgy:0;vgz:0;templ:80;temph:82;tof:10;h:0;bat:77;baro:15.92;time:0;agx:5.00;agy:1.00;agz:-1003.00;
",77,0,0,0,0,0,0,5.00,1.00,-1003.00,15.92,10,0
7594.175223,"pitch:0;roll:0;yaw:0;vgx:0;vgy:0;vgz:0;templ:80;temph:82;tof:10;h:0;bat:77;baro:15.91;time:0;agx:6.00;agy:1.00;agz:-999.00;

",77,0,0,0,0,0,0,6.00,1.00,-999.00,15.91,10,0
7594.277097,"pitch:0;roll:0;yaw:0;vgx:0;vgy:0;vgz:0;templ:80;temph:82;tof:10;h:0;bat:77;baro:15.90;time:0;agx:5.00;agy:2.00;agz:-1001.00;
",77,0,0,0,0,0,0,5.00,2.00,-1001.00,15.90,10,0
7594.382157,"pitch:0;roll:0;yaw:0;vgx:0;vgy:0;vgz:0;templ:80;temph:82;tof:10;h:0;bat:77;baro:15.92;time:0;agx:5.00;agy:2.00;agz:-1001.00;
",77,0,0,0,0,0,0,5.00,2.00,-1001.00,15.92,10,0
7594.482693,"pitch:0;roll:0;yaw:0;vgx:0;vgy:0;vgz:0;templ:80;temph:82;tof:10;h:0;bat:77;baro:15.94;time:0;agx:5.00;agy:2.00;agz:-1001.00;
",77,0,0,0,0,0,0,5.00,2.00,-1001.00,15.94,10,0
7594.584278,"pitch:0;roll:0;yaw:0;vgx:0;vgy:0;vgz:0;templ:80;temph:82;tof:10;h:0;bat:77;baro:15.95;time:0;agx:6.00;agy:2.00;agz:-1000.00;
",77,0,0,0,0,0,0,6.00,2.00,-1000.00,15.95,10,0
7594.686965,"pitch:0;roll:0;yaw:0;vgx:0;vgy:0;vgz:0;templ:80;temph:82;tof:10;h:0;bat:77;baro:15.98;time:0;agx:6.00;agy:3.00;agz:-998.00;

",77,0,0,0,0,0,0,6.00,3.00,-998.00,15.98,10,0
7594.794211,"pitch:0;roll:0;yaw:0;vgx:0;vgy:0;vgz:0;templ:80;temph:82;tof:10;h:0;bat:77;baro:15.92;time:0;agx:5.00;agy:3.00;agz:-998.00;

",77,0,0,0,0,0,0,5.00,3.00,-998.00,15.92,10,0
7594.891113,"pitch:0;roll:0;yaw:0;vgx:0;vgy:0;vgz:0;templ:80;temph:82;tof:10;h:0;bat:77;baro:15.93;time:0;agx:5.00;agy:1.00;agz:-998.00;

",77,0,0,0,0,0,0,5.00,1.00,-998.00,15.93,10,0
7594.993068,"pitch:0;roll:0;yaw:0;vgx:0;vgy:0;vgz:0;templ:80;temph:82;tof:10;h:0;bat:77;baro:15.94;time:0;agx:5.00;agy:2.00;agz:-1000.00;
",77,0,0,0,0,0,0,5.00,2.00,-1000.00,15.94,10,0
7595.095189,"pitch:0;roll:0;yaw:0;vgx:0;vgy:0;vgz:0;templ:80;temph:82;tof:10;h:0;bat:77;baro:15.98;time:0;agx:6.00;agy:2.00;agz:-999.00;

",77,0,0,0,0,0,0,6.00,2.00,-999.00,15.98,10,0
7595.197159,"pitch:0;roll:0;yaw:0;vgx:0;vgy:0;vgz:0;templ:80;temph:82;tof:10;h:0;bat:77;baro:15.95;time:0;agx:6.00;agy:2.00;agz:-999.00;

",77,0,0,0,0,0,0,6.00,2.00,-999.00,15.95,10,0
7595.299423,"pitch:0;roll:0;yaw:0;vgx:0;vgy:0;vgz:0;templ:80;temph:82;tof:10;h:0;bat:76;baro:15.90;time:0;agx:5.00;agy:2.00;agz:-1000.00;
",76,0,0,0,0,0,0,5.00,2.00,-1000.00,15.90,10,0
7595.401097,"pitch:0;roll:0;yaw:0;vgx:0;vgy:0;vgz:0;templ:80;temph:82;tof:10;h:0;bat:76;baro:15.91;time:0;agx:5.00;agy:1.00;agz:-998.00;

",76,0,0,0,0,0,0,5.00,1.00,-998.00,15.91,10,0
7595.503092,"pitch:0;roll:0;yaw:0;vgx:0;vgy:0;vgz:0;templ:80;temph:82;tof:10;h:0;bat:76;baro:15.94;time:0;agx:6.00;agy:3.00;agz:-1003.00;
",76,0,0,0,0,0,0,6.00,3.00,-1003.00,15.94,10,0
7595.605384,"pitch:0;roll:0;yaw:0;vgx:0;vgy:0;vgz:0;templ:80;temph:82;tof:10;h:0;bat:76;baro:15.97;time:0;agx:6.00;agy:3.00;agz:-1001.00;
",76,0,0,0,0,0,0,6.00,3.00,-1001.00,15.97,10,0
7595.707131,"pitch:0;roll:0;yaw:0;vgx:0;vgy:0;vgz:0;templ:80;temph:82;tof:10;h:0;bat:76;baro:15.96;time:0;agx:4.00;agy:3.00;agz:-996.00;

",76,0,0,0,0,0,0,4.00,3.00,-996.00,15.96,10,0
7595.758022,"pitch:0;roll:0;yaw:0;vgx:0;vgy:0;vgz:0;templ:80;temph:82;tof:10;h:0;bat:76;baro:15.93;time:0;agx:5.00;agy:2.00;agz:-1000.00;
",76,0,0,0,0,0,0,5.00,2.00,-1000.00,15.93,10,0
7595.859979,"pitch:0;roll:0;yaw:0;vgx:0;vgy:0;vgz:0;templ:80;temph:82;tof:10;h:0;bat:76;baro:15.95;time:0;agx:4.00;agy:2.00;agz:-1000.00;
",76,0,0,0,0,0,0,4.00,2.00,-1000.00,15.95,10,0
7595.961945,"pitch:0;roll:0;yaw:0;vgx:0;vgy:0;vgz:0;templ:80;temph:82;tof:10;h:0;bat:76;baro:15.93;time:0;agx:4.00;agy:3.00;agz:-999.00;

",76,0,0,0,0,0,0,4.00,3.00,-999.00,15.93,10,0
7596.065540,"pitch:0;roll:0;yaw:0;vgx:0;vgy:0;vgz:0;templ:81;temph:82;tof:10;h:0;bat:76;baro:15.94;time:0;agx:6.00;agy:1.00;agz:-999.00;

",76,0,0,0,0,0,0,6.00,1.00,-999.00,15.94,10,0
7596.165966,"pitch:0;roll:0;yaw:0;vgx:0;vgy:0;vgz:0;templ:81;temph:82;tof:10;h:0;bat:76;baro:15.95;time:0;agx:5.00;agy:2.00;agz:-998.00;

",76,0,0,0,0,0,0,5.00,2.00,-998.00,15.95,10,0
7596.269181,"pitch:0;roll:0;yaw:0;vgx:0;vgy:0;vgz:0;templ:81;temph:82;tof:10;h:0;bat:76;baro:15.93;time:0;agx:7.00;agy:1.00;agz:-998.00;

",76,0,0,0,0,0,0,7.00,1.00,-998.00,15.93,10,0
7596.369970,"pitch:0;roll:0;yaw:0;vgx:0;vgy:0;vgz:0;templ:81;temph:82;tof:10;h:0;bat:76;baro:15.93;time:0;agx:5.00;agy:1.00;agz:-999.00;

",76,0,0,0,0,0,0,5.00,1.00,-999.00,15.93,10,0
7596.473055,"pitch:0;roll:0;yaw:0;vgx:0;vgy:0;vgz:0;templ:81;temph:82;tof:10;h:0;bat:76;baro:15.94;time:0;agx:5.00;agy:3.00;agz:-1000.00;
",76,0,0,0,0,0,0,5.00,3.00,-1000.00,15.94,10,0
7596.574305,"pitch:0;roll:0;yaw:0;vgx:0;vgy:0;vgz:0;templ:81;temph:82;tof:10;h:0;bat:76;baro:15.92;time:0;agx:5.00;agy:1.00;agz:-1000.00;
",76,0,0,0,0,0,0,5.00,1.00,-1000.00,15.92,10,0
7596.675980,"pitch:0;roll:0;yaw:0;vgx:0;vgy:0;vgz:0;templ:81;temph:82;tof:10;h:0;bat:76;baro:15.97;time:0;agx:5.00;agy:2.00;agz:-999.00;

",76,0,0,0,0,0,0,5.00,2.00,-999.00,15.97,10,0
7596.777919,"pitch:0;roll:0;yaw:0;vgx:0;vgy:0;vgz:0;templ:81;temph:82;tof:10;h:0;bat:76;baro:15.95;time:0;agx:3.00;agy:2.00;agz:-1001.00;
",76,0,0,0,0,0,0,3.00,2.00,-1001.00,15.95,10,0
7596.883401,"pitch:0;roll:0;yaw:0;vgx:0;vgy:0;vgz:0;templ:81;temph:82;tof:10;h:0;bat:76;baro:15.93;time:0;agx:6.00;agy:3.00;agz:-999.00;

",76,0,0,0,0,0,0,6.00,3.00,-999.00,15.93,10,0
7596.985288,"pitch:0;roll:0;yaw:0;vgx:0;vgy:0;vgz:0;templ:81;temph:82;tof:10;h:0;bat:76;baro:15.91;time:0;agx:5.00;agy:3.00;agz:-1000.00;
",76,0,0,0,0,0,0,5.00,3.00,-1000.00,15.91,10,0
7597.084937,"pitch:0;roll:0;yaw:0;vgx:0;vgy:0;vgz:0;templ:80;temph:83;tof:10;h:0;bat:76;baro:15.94;time:0;agx:5.00;agy:3.00;agz:-1001.00;
",76,0,0,0,0,0,0,5.00,3.00,-1001.00,15.94,10,0
7597.186912,"pitch:0;roll:0;yaw:0;vgx:0;vgy:0;vgz:0;templ:80;temph:83;tof:10;h:0;bat:76;baro:15.95;time:0;agx:6.00;agy:2.00;agz:-999.00;

",76,0,0,0,0,0,0,6.00,2.00,-999.00,15.95,10,0
7597.288956,"pitch:0;roll:0;yaw:0;vgx:0;vgy:0;vgz:0;templ:80;temph:83;tof:10;h:0;bat:76;baro:15.96;time:0;agx:7.00;agy:2.00;agz:-999.00;

",76,0,0,0,0,0,0,7.00,2.00,-999.00,15.96,10,0
7597.390905,"pitch:0;roll:0;yaw:0;vgx:0;vgy:0;vgz:0;templ:80;temph:83;tof:10;h:0;bat:76;baro:15.96;time:0;agx:6.00;agy:2.00;agz:-1000.00;
",76,0,0,0,0,0,0,6.00,2.00,-1000.00,15.96,10,0
7597.492866,"pitch:0;roll:0;yaw:0;vgx:0;vgy:0;vgz:0;templ:80;temph:83;tof:10;h:0;bat:76;baro:15.95;time:0;agx:7.00;agy:2.00;agz:-1001.00;
",76,0,0,0,0,0,0,7.00,2.00,-1001.00,15.95,10,0
7597.594966,"pitch:0;roll:0;yaw:0;vgx:0;vgy:0;vgz:0;templ:80;temph:83;tof:10;h:0;bat:76;baro:15.92;time:0;agx:4.00;agy:1.00;agz:-1002.00;
",76,0,0,0,0,0,0,4.00,1.00,-1002.00,15.92,10,0
7597.697859,"pitch:0;roll:0;yaw:0;vgx:0;vgy:0;vgz:0;templ:80;temph:83;tof:10;h:0;bat:76;baro:15.94;time:0;agx:6.00;agy:2.00;agz:-999.00;

",76,0,0,0,0,0,0,6.00,2.00,-999.00,15.94,10,0
7597.799266,"pitch:0;roll:0;yaw:0;vgx:0;vgy:0;vgz:0;templ:80;temph:83;tof:10;h:0;bat:76;baro:15.95;time:0;agx:4.00;agy:2.00;agz:-1001.00;
",76,0,0,0,0,0,0,4.00,2.00,-1001.00,15.95,10,0
7597.900746,"pitch:0;roll:0;yaw:0;vgx:0;vgy:0;vgz:0;templ:80;temph:83;tof:10;h:0;bat:76;baro:15.91;time:0;agx:6.00;agy:2.00;agz:-998.00;

",76,0,0,0,0,0,0,6.00,2.00,-998.00,15.91,10,0
7598.002829,"pitch:0;roll:0;yaw:0;vgx:0;vgy:0;vgz:0;templ:80;temph:83;tof:10;h:0;bat:76;baro:15.91;time:0;agx:9.00;agy:-5.00;agz:-998.00;
",76,0,0,0,0,0,0,9.00,-5.00,-998.00,15.91,10,0
7598.104907,"pitch:0;roll:0;yaw:0;vgx:0;vgy:0;vgz:0;templ:81;temph:83;tof:10;h:0;bat:76;baro:15.91;time:0;agx:27.00;agy:5.00;agz:-993.00;
",76,0,0,0,0,0,0,27.00,5.00,-993.00,15.91,10,0
7598.206879,"pitch:0;roll:0;yaw:0;vgx:0;vgy:0;vgz:0;templ:81;temph:83;tof:10;h:0;bat:76;baro:15.91;time:0;agx:-7.00;agy:19.00;agz:-988.00;
",76,0,0,0,0,0,0,-7.00,19.00,-988.00,15.91,10,0
7598.308840,"pitch:0;roll:0;yaw:0;vgx:0;vgy:0;vgz:0;templ:81;temph:83;tof:10;h:0;bat:76;baro:15.91;time:0;agx:43.00;agy:-38.00;agz:-975.00;
",76,0,0,0,0,0,0,43.00,-38.00,-975.00,15.91,10,0
7598.410856,"pitch:0;roll:0;yaw:0;vgx:0;vgy:0;vgz:0;templ:81;temph:83;tof:10;h:0;bat:76;baro:15.91;time:0;agx:4.00;agy:3.00;agz:-1128.00;

",76,0,0,0,0,0,0,4.00,3.00,-1128.00,15.91,10,0
7598.513099,"pitch:0;roll:0;yaw:0;vgx:0;vgy:0;vgz:-1;templ:81;temph:83;tof:10;h:0;bat:76;baro:15.91;time:0;agx:-14.00;agy:20.00;agz:-1285.00;
",76,0,0,0,0,0,-1,-14.00,20.00,-1285.00,15.91,10,0
7598.614813,"pitch:0;roll:0;yaw:0;vgx:0;vgy:0;vgz:-5;templ:81;temph:83;tof:10;h:0;bat:76;baro:15.91;time:0;agx:14.00;agy:5.00;agz:-1317.00;

",76,0,0,0,0,0,-5,14.00,5.00,-1317.00,15.91,10,0
7598.717050,"pitch:0;roll:0;yaw:0;vgx:0;vgy:0;vgz:-7;templ:81;temph:83;tof:20;h:0;bat:76;baro:16.18;time:0;agx:-3.00;agy:7.00;agz:-1150.00;

",76,0,0,0,0,0,-7,-3.00,7.00,-1150.00,16.18,20,0
7598.767822,"pitch:0;roll:0;yaw:0;vgx:0;vgy:0;vgz:-8;templ:81;temph:83;tof:29;h:10;bat:76;baro:16.29;time:0;agx:-17.00;agy:12.00;agz:-1041.00;
",76,0,0,0,0,0,-8,-17.00,12.00,-1041.00,16.29,29,10
7598.869831,"pitch:0;roll:0;yaw:0;vgx:0;vgy:0;vgz:-8;templ:81;temph:83;tof:38;h:20;bat:76;baro:16.37;time:1;agx:-16.00;agy:28.00;agz:-976.00;

",76,0,0,0,0,0,-8,-16.00,28.00,-976.00,16.37,38,20
7598.971858,"pitch:0;roll:0;yaw:0;vgx:0;vgy:0;vgz:-7;templ:81;temph:83;tof:47;h:30;bat:76;baro:16.48;time:1;agx:-16.00;agy:15.00;agz:-946.00;

",76,0,0,0,0,0,-7,-16.00,15.00,-946.00,16.48,47,30
7599.126913,"pitch:0;roll:0;yaw:0;vgx:0;vgy:0;vgz:-7;templ:81;temph:83;tof:55;h:30;bat:76;baro:16.54;time:1;agx:8.00;agy:2.00;agz:-870.00;
;

",76,0,0,0,0,0,-7,8.00,2.00,-870.00,16.54,55,30
7599.228212,"pitch:0;roll:0;yaw:0;vgx:0;vgy:0;vgz:-5;templ:81;temph:83;tof:58;h:40;bat:76;baro:16.61;time:1;agx:14.00;agy:-25.00;agz:-855.00;

",76,0,0,0,0,0,-5,14.00,-25.00,-855.00,16.61,58,40
7599.328801,"pitch:0;roll:0;yaw:0;vgx:0;vgy:0;vgz:-4;templ:81;temph:83;tof:65;h:40;bat:76;baro:16.68;time:1;agx:-23.00;agy:13.00;agz:-868.00;

",76,0,0,0,0,0,-4,-23.00,13.00,-868.00,16.68,65,40
7599.379941,"pitch:0;roll:0;yaw:0;vgx:0;vgy:0;vgz:-3;templ:81;temph:83;tof:68;h:50;bat:76;baro:16.74;time:1;agx:4.00;agy:5.00;agz:-909.00;
;

",76,0,0,0,0,0,-3,4.00,5.00,-909.00,16.74,68,50
7599.484186,"pitch:0;roll:0;yaw:0;vgx:0;vgy:0;vgz:-2;templ:81;temph:83;tof:70;h:50;bat:76;baro:16.73;time:1;agx:10.00;agy:-7.00;agz:-907.00;


",76,0,0,0,0,0,-2,10.00,-7.00,-907.00,16.73,70,50
7599.585863,"pitch:0;roll:0;yaw:0;vgx:0;vgy:0;vgz:-1;templ:81;temph:83;tof:73;h:50;bat:76;baro:16.78;time:1;agx:-15.00;agy:-13.00;agz:-938.00;
",76,0,0,0,0,0,-1,-15.00,-13.00,-938.00,16.78,73,50
7599.690208,"pitch:0;roll:0;yaw:0;vgx:0;vgy:0;vgz:0;templ:81;temph:83;tof:75;h:50;bat:76;baro:16.77;time:1;agx:-17.00;agy:-11.00;agz:-939.00;

",76,0,0,0,0,0,0,-17.00,-11.00,-939.00,16.77,75,50
7599.788785,"pitch:0;roll:0;yaw:0;vgx:0;vgy:0;vgz:0;templ:81;temph:83;tof:76;h:50;bat:76;baro:16.80;time:1;agx:9.00;agy:-3.00;agz:-970.00;
;

",76,0,0,0,0,0,0,9.00,-3.00,-970.00,16.80,76,50
7599.889868,"pitch:0;roll:0;yaw:0;vgx:0;vgy:0;vgz:0;templ:81;temph:83;tof:77;h:50;bat:76;baro:16.82;time:2;agx:-35.00;agy:10.00;agz:-984.00;


",76,0,0,0,0,0,0,-35.00,10.00,-984.00,16.82,77,50
7599.992381,"pitch:0;roll:0;yaw:0;vgx:0;vgy:0;vgz:0;templ:81;temph:83;tof:79;h:60;bat:76;baro:16.82;time:2;agx:-12.00;agy:0.00;agz:-1000.00;


",76,0,0,0,0,0,0,-12.00,0.00,-1000.00,16.82,79,60
7600.095420,"pitch:0;roll:0;yaw:0;vgx:0;vgy:0;vgz:0;templ:82;temph:84;tof:80;h:60;bat:76;baro:16.83;time:2;agx:-14.00;agy:21.00;agz:-1010.00;

",76,0,0,0,0,0,0,-14.00,21.00,-1010.00,16.83,80,60
7600.198352,"pitch:0;roll:0;yaw:0;vgx:0;vgy:0;vgz:0;templ:82;temph:84;tof:82;h:60;bat:76;baro:16.87;time:2;agx:-11.00;agy:2.00;agz:-998.00;


",76,0,0,0,0,0,0,-11.00,2.00,-998.00,16.87,82,60
7600.300672,"pitch:0;roll:0;yaw:0;vgx:0;vgy:0;vgz:0;templ:82;temph:84;tof:82;h:60;bat:75;baro:16.88;time:2;agx:66.00;agy:-67.00;agz:-957.00;


",75,0,0,0,0,0,0,66.00,-67.00,-957.00,16.88,82,60
7600.399826,"pitch:0;roll:0;yaw:0;vgx:0;vgy:0;vgz:0;templ:82;temph:84;tof:82;h:60;bat:75;baro:16.86;time:2;agx:-20.00;agy:29.00;agz:-994.00;


",75,0,0,0,0,0,0,-20.00,29.00,-994.00,16.86,82,60
7600.501805,"pitch:0;roll:0;yaw:0;vgx:0;vgy:0;vgz:0;templ:82;temph:84;tof:83;h:60;bat:75;baro:16.86;time:2;agx:-8.00;agy:30.00;agz:-1033.00;


",75,0,0,0,0,0,0,-8.00,30.00,-1033.00,16.86,83,60
