t_sec,raw,bat,pitch,roll,yaw,vgx,vgy,vgz,agx,agy,agz,baro,tof,h
8408.483047,"pitch:0;roll:-1;yaw:0;vgx:0;vgy:0;vgz:0;templ:91;temph:94;tof:10;h:0;bat:60;baro:15.39;time:0;agx:1.00;agy:21.00;agz:-1001.00;
Oßű╠w",60,0,-1,0,0,0,0,1.00,21.00,-1001.00,15.39,10,0
8408.584528,"pitch:0;roll:-1;yaw:0;vgx:0;vgy:0;vgz:0;templ:91;temph:94;tof:10;h:0;bat:60;baro:15.40;time:0;agx:-3.00;agy:18.00;agz:-997.00;
Oßű╠w",60,0,-1,0,0,0,0,-3.00,18.00,-997.00,15.40,10,0
8408.686494,"pitch:0;roll:-1;yaw:0;vgx:0;vgy:0;vgz:0;templ:91;temph:94;tof:10;h:0;bat:60;baro:15.38;time:0;agx:-1.00;agy:22.00;agz:-1002.00;
ßű╠w",60,0,-1,0,0,0,0,-1.00,22.00,-1002.00,15.38,10,0
8408.788355,"pitch:0;roll:-1;yaw:0;vgx:0;vgy:0;vgz:0;templ:91;temph:94;tof:10;h:0;bat:60;baro:15.34;time:0;agx:1.00;agy:22.00;agz:-1000.00;

ßű╠w",60,0,-1,0,0,0,0,1.00,22.00,-1000.00,15.34,10,0
8408.891388,"pitch:0;roll:-1;yaw:0;vgx:0;vgy:0;vgz:0;templ:91;temph:94;tof:10;h:0;bat:60;baro:15.30;time:0;agx:1.00;agy:20.00;agz:-998.00;


ßű╠w",60,0,-1,0,0,0,0,1.00,20.00,-998.00,15.30,10,0
8408.993157,"pitch:0;roll:-1;yaw:0;vgx:0;vgy:0;vgz:0;templ:91;temph:94;tof:10;h:0;bat:60;baro:15.35;time:0;agx:1.00;agy:20.00;agz:-1003.00;

ßű╠w",60,0,-1,0,0,0,0,1.00,20.00,-1003.00,15.35,10,0
8409.095336,"pitch:0;roll:-1;yaw:0;vgx:0;vgy:0;vgz:0;templ:91;temph:94;tof:10;h:0;bat:60;baro:15.38;time:0;agx:-1.00;agy:20.00;agz:-998.00;

ßű╠w",60,0,-1,0,0,0,0,-1.00,20.00,-998.00,15.38,10,0
8409.197395,"pitch:0;roll:-1;yaw:0;vgx:0;vgy:0;vgz:0;templ:91;temph:94;tof:10;h:0;bat:60;baro:15.40;time:0;agx:0.00;agy:21.00;agz:-1001.00;

ßű╠w",60,0,-1,0,0,0,0,0.00,21.00,-1001.00,15.40,10,0
8409.299384,"pitch:0;roll:-1;yaw:0;vgx:0;vgy:0;vgz:0;templ:92;temph:93;tof:10;h:0;bat:60;baro:15.36;time:0;agx:-1.00;agy:20.00;agz:-1000.00;
ßű╠w",60,0,-1,0,0,0,0,-1.00,20.00,-1000.00,15.36,10,0
8409.401587,"pitch:0;roll:-1;yaw:0;vgx:0;vgy:0;vgz:0;templ:92;temph:93;tof:10;h:0;bat:60;baro:15.36;time:0;agx:1.00;agy:18.00;agz:-1001.00;

ßű╠w",60,0,-1,0,0,0,0,1.00,18.00,-1001.00,15.36,10,0
8409.503384,"pitch:0;roll:-1;yaw:0;vgx:0;vgy:0;vgz:0;templ:92;temph:93;tof:10;h:0;bat:60;baro:15.44;time:0;agx:1.00;agy:21.00;agz:-999.00;


ßű╠w",60,0,-1,0,0,0,0,1.00,21.00,-999.00,15.44,10,0
8409.605332,"pitch:0;roll:-1;yaw:0;vgx:0;vgy:0;vgz:0;templ:92;temph:93;tof:10;h:0;bat:60;baro:15.39;time:0;agx:-2.00;agy:21.00;agz:-999.00;

ßű╠w",60,0,-1,0,0,0,0,-2.00,21.00,-999.00,15.39,10,0
8409.707404,"pitch:0;roll:-1;yaw:0;vgx:0;vgy:0;vgz:0;templ:92;temph:93;tof:10;h:0;bat:60;baro:15.42;time:0;agx:0.00;agy:20.00;agz:-1000.00;

ßű╠w",60,0,-1,0,0,0,0,0.00,20.00,-1000.00,15.42,10,0
8409.809331,"pitch:0;roll:-1;yaw:0;vgx:0;vgy:0;vgz:0;templ:92;temph:93;tof:10;h:0;bat:60;baro:15.35;time:0;agx:0.00;agy:20.00;agz:-1002.00;

ßű╠w",60,0,-1,0,0,0,0,0.00,20.00,-1002.00,15.35,10,0
8409.911121,"pitch:0;roll:-1;yaw:0;vgx:0;vgy:0;vgz:0;templ:92;temph:93;tof:10;h:0;bat:60;baro:15.41;time:0;agx:0.00;agy:21.00;agz:-1000.00;

ßű╠w",60,0,-1,0,0,0,0,0.00,21.00,-1000.00,15.41,10,0
8410.013179,"pitch:0;roll:-1;yaw:0;vgx:0;vgy:0;vgz:0;templ:92;temph:93;tof:10;h:0;bat:60;baro:15.35;time:0;agx:0.00;agy:21.00;agz:-1000.00;

ßű╠w",60,0,-1,0,0,0,0,0.00,21.00,-1000.00,15.35,10,0
8410.115354,"pitch:0;roll:-1;yaw:0;vgx:0;vgy:0;vgz:0;templ:92;temph:93;tof:10;h:0;bat:60;baro:15.42;time:0;agx:-1.00;agy:19.00;agz:-998.00;

ßű╠w",60,0,-1,0,0,0,0,-1.00,19.00,-998.00,15.42,10,0
8410.217222,"pitch:0;roll:-1;yaw:0;vgx:0;vgy:0;vgz:0;templ:92;temph:93;tof:10;h:0;bat:60;baro:15.40;time:0;agx:0.00;agy:23.00;agz:-1000.00;

ßű╠w",60,0,-1,0,0,0,0,0.00,23.00,-1000.00,15.40,10,0
8410.319289,"pitch:0;roll:-1;yaw:0;vgx:0;vgy:0;vgz:0;templ:92;temph:95;tof:10;h:0;bat:60;baro:15.36;time:0;agx:0.00;agy:22.00;agz:-1002.00;

ßű╠w",60,0,-1,0,0,0,0,0.00,22.00,-1002.00,15.36,10,0
8410.421223,"pitch:0;roll:-1;yaw:0;vgx:0;vgy:0;vgz:0;templ:92;temph:95;tof:10;h:0;bat:60;baro:15.42;time:0;agx:0.00;agy:22.00;agz:-997.00;


ßű╠w",60,0,-1,0,0,0,0,0.00,22.00,-997.00,15.42,10,0
8410.523231,"pitch:0;roll:-1;yaw:0;vgx:0;vgy:0;vgz:0;templ:92;temph:95;tof:10;h:0;bat:60;baro:15.39;time:0;agx:0.00;agy:21.00;agz:-1001.00;

ßű╠w",60,0,-1,0,0,0,0,0.00,21.00,-1001.00,15.39,10,0
8410.574757,"pitch:0;roll:-1;yaw:0;vgx:0;vgy:0;vgz:0;templ:92;temph:95;tof:10;h:0;bat:59;baro:15.38;time:0;agx:1.00;agy:20.00;agz:-1001.00;

ßű╠w",59,0,-1,0,0,0,0,1.00,20.00,-1001.00,15.38,10,0
8410.676199,"pitch:0;roll:-1;yaw:0;vgx:0;vgy:0;vgz:0;templ:92;temph:95;tof:10;h:0;bat:59;baro:15.38;time:0;agx:1.00;agy:19.00;agz:-1001.00;

ßű╠w",59,0,-1,0,0,0,0,1.00,19.00,-1001.00,15.38,10,0
8410.778074,"pitch:0;roll:-1;yaw:0;vgx:0;vgy:0;vgz:0;templ:92;temph:95;tof:10;h:0;bat:59;baro:15.34;time:0;agx:0.00;agy:20.00;agz:-1001.00;

ßű╠w",59,0,-1,0,0,0,0,0.00,20.00,-1001.00,15.34,10,0
8410.880408,"pitch:0;roll:-1;yaw:0;vgx:0;vgy:0;vgz:0;templ:92;temph:95;tof:10;h:0;bat:59;baro:15.39;time:0;agx:0.00;agy:22.00;agz:-1001.00;

ßű╠w",59,0,-1,0,0,0,0,0.00,22.00,-1001.00,15.39,10,0
8410.982237,"pitch:0;roll:-1;yaw:0;vgx:0;vgy:0;vgz:0;templ:92;temph:95;tof:10;h:0;bat:59;baro:15.38;time:0;agx:1.00;agy:21.00;agz:-1000.00;

ßű╠w",59,0,-1,0,0,0,0,1.00,21.00,-1000.00,15.38,10,0
8411.084208,"pitch:0;roll:-1;yaw:0;vgx:0;vgy:0;vgz:0;templ:92;temph:95;tof:10;h:0;bat:59;baro:15.43;time:0;agx:0.00;agy:20.00;agz:-1002.00;

ßű╠w",59,0,-1,0,0,0,0,0.00,20.00,-1002.00,15.43,10,0
8411.186227,"pitch:0;roll:-1;yaw:0;vgx:0;vgy:0;vgz:0;templ:92;temph:95;tof:10;h:0;bat:59;baro:15.40;time:0;agx:-1.00;agy:19.00;agz:-998.00;

ßű╠w",59,0,-1,0,0,0,0,-1.00,19.00,-998.00,15.40,10,0
8411.288056,"pitch:0;roll:-1;yaw:0;vgx:0;vgy:0;vgz:0;templ:92;temph:93;tof:10;h:0;bat:59;baro:15.39;time:0;agx:0.00;agy:22.00;agz:-1000.00;

ßű╠w",59,0,-1,0,0,0,0,0.00,22.00,-1000.00,15.39,10,0
8411.390174,"pitch:0;roll:-1;yaw:0;vgx:0;vgy:0;vgz:0;templ:92;temph:93;tof:10;h:0;bat:59;baro:15.40;time:0;agx:1.00;agy:21.00;agz:-1000.00;

ßű╠w",59,0,-1,0,0,0,0,1.00,21.00,-1000.00,15.40,10,0
8411.492177,"pitch:0;roll:-1;yaw:0;vgx:0;vgy:0;vgz:0;templ:92;temph:93;tof:10;h:0;bat:59;baro:15.38;time:0;agx:0.00;agy:20.00;agz:-998.00;


ßű╠w",59,0,-1,0,0,0,0,0.00,20.00,-998.00,15.38,10,0
8411.594217,"pitch:0;roll:-1;yaw:0;vgx:0;vgy:0;vgz:0;templ:92;temph:93;tof:10;h:0;bat:59;baro:15.38;time:0;agx:0.00;agy:21.00;agz:-1000.00;

ßű╠w",59,0,-1,0,0,0,0,0.00,21.00,-1000.00,15.38,10,0
8411.696540,"pitch:0;roll:-1;yaw:0;vgx:0;vgy:0;vgz:0;templ:92;temph:93;tof:10;h:0;bat:59;baro:15.38;time:0;agx:1.00;agy:20.00;agz:-1000.00;

ßű╠w",59,0,-1,0,0,0,0,1.00,20.00,-1000.00,15.38,10,0
8411.800780,"pitch:0;roll:-1;yaw:0;vgx:0;vgy:0;vgz:0;templ:92;temph:93;tof:10;h:0;bat:59;baro:15.38;time:0;agx:0.00;agy:21.00;agz:-1000.00;

ßű╠w",59,0,-1,0,0,0,0,0.00,21.00,-1000.00,15.38,10,0
8411.901731,"pitch:0;roll:-1;yaw:0;vgx:0;vgy:0;vgz:0;templ:92;temph:93;tof:10;h:0;bat:59;baro:15.40;time:0;agx:2.00;agy:21.00;agz:-998.00;


ßű╠w",59,0,-1,0,0,0,0,2.00,21.00,-998.00,15.40,10,0
8412.002212,"pitch:0;roll:-1;yaw:0;vgx:0;vgy:0;vgz:0;templ:92;temph:93;tof:10;h:0;bat:59;baro:15.33;time:0;agx:0.00;agy:21.00;agz:-1000.00;

ßű╠w",59,0,-1,0,0,0,0,0.00,21.00,-1000.00,15.33,10,0
8412.104090,"pitch:0;roll:-1;yaw:0;vgx:0;vgy:0;vgz:0;templ:92;temph:93;tof:10;h:0;bat:59;baro:15.40;time:0;agx:0.00;agy:21.00;agz:-999.00;


ßű╠w",59,0,-1,0,0,0,0,0.00,21.00,-999.00,15.40,10,0
8412.206064,"pitch:0;roll:-1;yaw:0;vgx:0;vgy:0;vgz:0;templ:92;temph:93;tof:10;h:0;bat:59;baro:15.39;time:0;agx:0.00;agy:22.00;agz:-999.00;


ßű╠w",59,0,-1,0,0,0,0,0.00,22.00,-999.00,15.39,10,0
8412.308039,"pitch:0;roll:-1;yaw:0;vgx:0;vgy:0;vgz:0;templ:91;temph:93;tof:10;h:0;bat:59;baro:15.40;time:0;agx:-1.00;agy:20.00;agz:-999.00;

ßű╠w",59,0,-1,0,0,0,0,-1.00,20.00,-999.00,15.40,10,0
8412.410086,"pitch:0;roll:-1;yaw:0;vgx:0;vgy:0;vgz:0;templ:91;temph:93;tof:10;h:0;bat:59;baro:15.38;time:0;agx:0.00;agy:20.00;agz:-1000.00;

ßű╠w",59,0,-1,0,0,0,0,0.00,20.00,-1000.00,15.38,10,0
8412.512119,"pitch:0;roll:-1;yaw:0;vgx:0;vgy:0;vgz:0;templ:91;temph:93;tof:10;h:0;bat:59;baro:15.42;time:0;agx:0.00;agy:20.00;agz:-998.00;


ßű╠w",59,0,-1,0,0,0,0,0.00,20.00,-998.00,15.42,10,0
8412.614062,"pitch:0;roll:-1;yaw:0;vgx:0;vgy:0;vgz:0;templ:91;temph:93;tof:10;h:0;bat:59;baro:15.39;time:0;agx:-1.00;agy:21.00;agz:-1000.00;
ßű╠w",59,0,-1,0,0,0,0,-1.00,21.00,-1000.00,15.39,10,0
8412.716060,"pitch:0;roll:-1;yaw:0;vgx:0;vgy:0;vgz:0;templ:91;temph:93;tof:10;h:0;bat:59;baro:15.39;time:0;agx:-2.00;agy:20.00;agz:-999.00;

ßű╠w",59,0,-1,0,0,0,0,-2.00,20.00,-999.00,15.39,10,0
8412.817984,"pitch:0;roll:-1;yaw:0;vgx:0;vgy:0;vgz:0;templ:91;temph:93;tof:10;h:0;bat:59;baro:15.35;time:0;agx:-1.00;agy:25.00;agz:-1000.00;
ßű╠w",59,0,-1,0,0,0,0,-1.00,25.00,-1000.00,15.35,10,0
8412.920091,"pitch:0;roll:-1;yaw:0;vgx:0;vgy:0;vgz:0;templ:91;temph:93;tof:10;h:0;bat:59;baro:15.40;time:0;agx:-1.00;agy:21.00;agz:-1003.00;
ßű╠w",59,0,-1,0,0,0,0,-1.00,21.00,-1003.00,15.40,10,0
8413.022245,"pitch:0;roll:-1;yaw:0;vgx:0;vgy:0;vgz:0;templ:91;temph:93;tof:10;h:0;bat:59;baro:15.44;time:0;agx:0.00;agy:17.00;agz:-1000.00;

ßű╠w",59,0,-1,0,0,0,0,0.00,17.00,-1000.00,15.44,10,0
8413.124130,"pitch:1;roll:-2;yaw:0;vgx:0;vgy:0;vgz:0;templ:91;temph:93;tof:10;h:0;bat:59;baro:15.40;time:0;agx:16.00;agy:57.00;agz:-1008.00;
ßű╠w",59,1,-2,0,0,0,0,16.00,57.00,-1008.00,15.40,10,0
8413.226146,"pitch:3;roll:-4;yaw:0;vgx:0;vgy:0;vgz:0;templ:91;temph:93;tof:10;h:0;bat:59;baro:15.42;time:0;agx:87.00;agy:95.00;agz:-1025.00;
ßű╠w",59,3,-4,0,0,0,0,87.00,95.00,-1025.00,15.42,10,0
8413.328016,"pitch:0;roll:-1;yaw:0;vgx:0;vgy:0;vgz:0;templ:91;temph:94;tof:10;h:0;bat:59;baro:15.34;time:0;agx:117.00;agy:143.00;agz:-981.00;
ű╠w",59,0,-1,0,0,0,0,117.00,143.00,-981.00,15.34,10,0
8413.430122,"pitch:1;roll:-2;yaw:0;vgx:0;vgy:0;vgz:0;templ:91;temph:94;tof:10;h:0;bat:59;baro:15.38;time:0;agx:49.00;agy:66.00;agz:-1002.00;

ű╠w",59,1,-2,0,0,0,0,49.00,66.00,-1002.00,15.38,10,0
8413.532019,"pitch:5;roll:-5;yaw:0;vgx:0;vgy:0;vgz:0;templ:91;temph:94;tof:10;h:0;bat:59;baro:15.36;time:0;agx:101.00;agy:126.00;agz:-1040.00;
╠w",59,5,-5,0,0,0,0,101.00,126.00,-1040.00,15.36,10,0
8413.634168,"pitch:9;roll:-7;yaw:-1;vgx:0;vgy:0;vgz:0;templ:91;temph:94;tof:10;h:0;bat:59;baro:15.38;time:0;agx:32.00;agy:106.00;agz:-1185.00;
╠w",59,9,-7,-1,0,0,0,32.00,106.00,-1185.00,15.38,10,0
8413.736989,"pitch:14;roll:-1;yaw:-5;vgx:0;vgy:0;vgz:-1;templ:91;temph:94;tof:10;h:0;bat:59;baro:15.39;time:0;agx:324.00;agy:-11.00;agz:-954.00;
",59,14,-1,-5,0,0,-1,324.00,-11.00,-954.00,15.39,10,0
8413.837995,"pitch:16;roll:0;yaw:-7;vgx:0;vgy:0;vgz:-1;templ:91;temph:94;tof:10;h:0;bat:59;baro:15.43;time:0;agx:283.00;agy:23.00;agz:-966.00;

",59,16,0,-7,0,0,-1,283.00,23.00,-966.00,15.43,10,0
8413.889153,"pitch:19;roll:0;yaw:-8;vgx:0;vgy:0;vgz:-1;templ:91;temph:94;tof:10;h:0;bat:59;baro:15.43;time:0;agx:286.00;agy:-25.00;agz:-917.00;

",59,19,0,-8,0,0,-1,286.00,-25.00,-917.00,15.43,10,0
8413.990874,"pitch:19;roll:0;yaw:-7;vgx:0;vgy:-1;vgz:0;templ:91;temph:94;tof:10;h:0;bat:59;baro:15.43;time:0;agx:298.00;agy:-50.00;agz:-870.00;

",59,19,0,-7,0,-1,0,298.00,-50.00,-870.00,15.43,10,0
8414.093040,"pitch:18;roll:0;yaw:-3;vgx:0;vgy:-2;vgz:0;templ:91;temph:94;tof:10;h:0;bat:59;baro:15.44;time:0;agx:256.00;agy:-166.00;agz:-954.00;
",59,18,0,-3,0,-2,0,256.00,-166.00,-954.00,15.44,10,0
8414.194985,"pitch:16;roll:2;yaw:0;vgx:-1;vgy:-3;vgz:0;templ:91;temph:94;tof:10;h:0;bat:59;baro:15.42;time:0;agx:293.00;agy:-278.00;agz:-914.00;
",59,16,2,0,-1,-3,0,293.00,-278.00,-914.00,15.42,10,0
8414.297877,"pitch:15;roll:7;yaw:8;vgx:-1;vgy:-5;vgz:0;templ:92;temph:95;tof:10;h:0;bat:59;baro:15.44;time:0;agx:220.00;agy:-226.00;agz:-896.00;
",59,15,7,8,-1,-5,0,220.00,-226.00,-896.00,15.44,10,0
8414.398937,"pitch:15;roll:12;yaw:16;vgx:-1;vgy:-6;vgz:0;templ:92;temph:95;tof:10;h:0;bat:59;baro:15.42;time:0;agx:365.00;agy:-94.00;agz:-1002.00;
łŞ¤]",59,15,12,16,-1,-6,0,365.00,-94.00,-1002.00,15.42,10,0
8414.501111,"pitch:14;roll:13;yaw:22;vgx:-1;vgy:-4;vgz:0;templ:92;temph:95;tof:10;h:0;bat:59;baro:15.46;time:0;agx:391.00;agy:-49.00;agz:-996.00;

łŞ¤]",59,14,13,22,-1,-4,0,391.00,-49.00,-996.00,15.46,10,0
8414.603059,"pitch:13;roll:14;yaw:22;vgx:0;vgy:-2;vgz:0;templ:92;temph:95;tof:10;h:0;bat:59;baro:15.42;time:0;agx:259.00;agy:-61.00;agz:-1299.00;

łŞ¤]",59,13,14,22,0,-2,0,259.00,-61.00,-1299.00,15.42,10,0
8414.706875,"pitch:18;roll:12;yaw:21;vgx:-1;vgy:-1;vgz:0;templ:92;temph:95;tof:10;h:0;bat:59;baro:15.43;time:0;agx:83.00;agy:-178.00;agz:-886.00;

łŞ¤]",59,18,12,21,-1,-1,0,83.00,-178.00,-886.00,15.43,10,0
8414.808980,"pitch:23;roll:13;yaw:23;vgx:-2;vgy:-1;vgz:0;templ:92;temph:95;tof:10;h:0;bat:59;baro:15.46;time:0;agx:433.00;agy:-206.00;agz:-910.00;
łŞ¤]",59,23,13,23,-2,-1,0,433.00,-206.00,-910.00,15.46,10,0
8414.908901,"pitch:28;roll:12;yaw:24;vgx:-2;vgy:-1;vgz:0;templ:92;temph:95;tof:10;h:0;bat:59;baro:15.50;time:0;agx:619.00;agy:-171.00;agz:-807.00;
łŞ¤]",59,28,12,24,-2,-1,0,619.00,-171.00,-807.00,15.50,10,0
8415.011279,"pitch:33;roll:11;yaw:23;vgx:-1;vgy:0;vgz:0;templ:92;temph:95;tof:10;h:0;bat:59;baro:15.45;time:0;agx:614.00;agy:-109.00;agz:-750.00;

łŞ¤]",59,33,11,23,-1,0,0,614.00,-109.00,-750.00,15.45,10,0
8415.113027,"pitch:35;roll:11;yaw:23;vgx:0;vgy:0;vgz:0;templ:92;temph:95;tof:10;h:0;bat:59;baro:15.48;time:0;agx:612.00;agy:-112.00;agz:-808.00;


łŞ¤]",59,35,11,23,0,0,0,612.00,-112.00,-808.00,15.48,10,0
8415.214951,"pitch:36;roll:11;yaw:23;vgx:0;vgy:0;vgz:0;templ:92;temph:95;tof:10;h:0;bat:59;baro:15.44;time:0;agx:571.00;agy:-136.00;agz:-816.00;


łŞ¤]",59,36,11,23,0,0,0,571.00,-136.00,-816.00,15.44,10,0
8415.316930,"pitch:37;roll:11;yaw:23;vgx:0;vgy:0;vgz:0;templ:92;temph:95;tof:10;h:0;bat:59;baro:15.48;time:0;agx:584.00;agy:-127.00;agz:-765.00;


łŞ¤]",59,37,11,23,0,0,0,584.00,-127.00,-765.00,15.48,10,0
8415.418915,"pitch:41;roll:12;yaw:24;vgx:0;vgy:0;vgz:0;templ:92;temph:95;tof:10;h:0;bat:59;baro:15.46;time:0;agx:633.00;agy:-163.00;agz:-726.00;


łŞ¤]",59,41,12,24,0,0,0,633.00,-163.00,-726.00,15.46,10,0
8415.520953,"pitch:43;roll:13;yaw:25;vgx:0;vgy:0;vgz:0;templ:92;temph:95;tof:10;h:0;bat:59;baro:15.45;time:0;agx:675.00;agy:-171.00;agz:-722.00;


łŞ¤]",59,43,13,25,0,0,0,675.00,-171.00,-722.00,15.45,10,0
8415.623071,"pitch:43;roll:14;yaw:26;vgx:0;vgy:0;vgz:0;templ:92;temph:95;tof:10;h:0;bat:59;baro:15.44;time:0;agx:710.00;agy:-185.00;agz:-712.00;


łŞ¤]",59,43,14,26,0,0,0,710.00,-185.00,-712.00,15.44,10,0
8415.724903,"pitch:43;roll:14;yaw:26;vgx:0;vgy:0;vgz:0;templ:92;temph:95;tof:10;h:0;bat:59;baro:15.45;time:0;agx:691.00;agy:-173.00;agz:-715.00;


łŞ¤]",59,43,14,26,0,0,0,691.00,-173.00,-715.00,15.45,10,0
8415.826982,"pitch:42;roll:13;yaw:25;vgx:0;vgy:0;vgz:0;templ:92;temph:95;tof:10;h:0;bat:59;baro:15.44;time:0;agx:697.00;agy:-187.00;agz:-723.00;


łŞ¤]",59,42,13,25,0,0,0,697.00,-187.00,-723.00,15.44,10,0
8415.929077,"pitch:43;roll:13;yaw:25;vgx:0;vgy:0;vgz:0;templ:92;temph:95;tof:10;h:0;bat:59;baro:15.49;time:0;agx:697.00;agy:-163.00;agz:-713.00;


łŞ¤]",59,43,13,25,0,0,0,697.00,-163.00,-713.00,15.49,10,0
8416.030918,"pitch:43;roll:13;yaw:25;vgx:0;vgy:0;vgz:0;templ:92;temph:95;tof:10;h:0;bat:59;baro:15.47;time:0;agx:684.00;agy:-183.00;agz:-660.00;


łŞ¤]",59,43,13,25,0,0,0,684.00,-183.00,-660.00,15.47,10,0
8416.134231,"pitch:42;roll:13;yaw:24;vgx:0;vgy:0;vgz:0;templ:92;temph:95;tof:10;h:0;bat:59;baro:15.47;time:0;agx:654.00;agy:-151.00;agz:-771.00;


łŞ¤]",59,42,13,24,0,0,0,654.00,-151.00,-771.00,15.47,10,0
8416.235807,"pitch:41;roll:12;yaw:24;vgx:0;vgy:0;vgz:0;templ:92;temph:95;tof:10;h:0;bat:59;baro:15.48;time:0;agx:632.00;agy:-156.00;agz:-746.00;


łŞ¤]",59,41,12,24,0,0,0,632.00,-156.00,-746.00,15.48,10,0
8416.337238,"pitch:42;roll:12;yaw:24;vgx:0;vgy:0;vgz:0;templ:93;temph:94;tof:10;h:0;bat:59;baro:15.44;time:0;agx:701.00;agy:-142.00;agz:-616.00;


łŞ¤]",59,42,12,24,0,0,0,701.00,-142.00,-616.00,15.44,10,0
8416.438861,"pitch:43;roll:15;yaw:28;vgx:0;vgy:0;vgz:0;templ:93;temph:94;tof:10;h:0;bat:59;baro:15.52;time:0;agx:678.00;agy:-159.00;agz:-712.00;


łŞ¤]",59,43,15,28,0,0,0,678.00,-159.00,-712.00,15.52,10,0
8416.540876,"pitch:44;roll:18;yaw:32;vgx:0;vgy:0;vgz:0;templ:93;temph:94;tof:10;h:0;bat:59;baro:15.45;time:0;agx:669.00;agy:-201.00;agz:-672.00;


łŞ¤]",59,44,18,32,0,0,0,669.00,-201.00,-672.00,15.45,10,0
8416.643044,"pitch:45;roll:20;yaw:35;vgx:0;vgy:0;vgz:0;templ:93;temph:94;tof:10;h:0;bat:59;baro:15.45;time:0;agx:688.00;agy:-231.00;agz:-647.00;


łŞ¤]",59,45,20,35,0,0,0,688.00,-231.00,-647.00,15.45,10,0
8416.744918,"pitch:44;roll:21;yaw:36;vgx:0;vgy:0;vgz:0;templ:93;temph:94;tof:10;h:0;bat:59;baro:15.47;time:0;agx:693.00;agy:-259.00;agz:-652.00;


łŞ¤]",59,44,21,36,0,0,0,693.00,-259.00,-652.00,15.47,10,0
8416.846811,"pitch:46;roll:22;yaw:38;vgx:0;vgy:0;vgz:0;templ:93;temph:94;tof:10;h:0;bat:59;baro:15.43;time:0;agx:728.00;agy:-245.00;agz:-640.00;


łŞ¤]",59,46,22,38,0,0,0,728.00,-245.00,-640.00,15.43,10,0
8416.948881,"pitch:48;roll:24;yaw:38;vgx:0;vgy:0;vgz:0;templ:93;temph:94;tof:10;h:0;bat:59;baro:15.44;time:0;agx:719.00;agy:-278.00;agz:-667.00;


łŞ¤]",59,48,24,38,0,0,0,719.00,-278.00,-667.00,15.44,10,0
8417.000056,"pitch:48;roll:23;yaw:38;vgx:0;vgy:0;vgz:0;templ:93;temph:94;tof:10;h:0;bat:59;baro:15.44;time:0;agx:718.00;agy:-296.00;agz:-621.00;


łŞ¤]",59,48,23,38,0,0,0,718.00,-296.00,-621.00,15.44,10,0
8417.102038,"pitch:45;roll:22;yaw:38;vgx:0;vgy:0;vgz:0;templ:93;temph:94;tof:10;h:0;bat:59;baro:15.46;time:0;agx:833.00;agy:-352.00;agz:-625.00;


łŞ¤]",59,45,22,38,0,0,0,833.00,-352.00,-625.00,15.46,10,0
8417.203825,"pitch:43;roll:20;yaw:34;vgx:0;vgy:0;vgz:-1;templ:93;temph:94;tof:10;h:0;bat:59;baro:15.46;time:0;agx:596.00;agy:-210.00;agz:-671.00;

łŞ¤]",59,43,20,34,0,0,-1,596.00,-210.00,-671.00,15.46,10,0
8417.357116,"pitch:46;roll:21;yaw:33;vgx:0;vgy:0;vgz:-1;templ:93;temph:95;tof:10;h:0;bat:59;baro:15.48;time:0;agx:688.00;agy:-229.00;agz:-646.00;

łŞ¤]",59,46,21,33,0,0,-1,688.00,-229.00,-646.00,15.48,10,0
8417.407799,"pitch:41;roll:19;yaw:29;vgx:0;vgy:0;vgz:0;templ:93;temph:95;tof:10;h:0;bat:59;baro:15.48;time:0;agx:730.00;agy:-322.00;agz:-741.00;


łŞ¤]",59,41,19,29,0,0,0,730.00,-322.00,-741.00,15.48,10,0
8417.509890,"pitch:36;roll:17;yaw:29;vgx:0;vgy:0;vgz:0;templ:93;temph:95;tof:10;h:0;bat:59;baro:15.44;time:0;agx:749.00;agy:-191.00;agz:-532.00;


łŞ¤]",59,36,17,29,0,0,0,749.00,-191.00,-532.00,15.44,10,0
8417.612077,"pitch:32;roll:17;yaw:30;vgx:0;vgy:0;vgz:0;templ:93;temph:95;tof:10;h:0;bat:58;baro:15.40;time:0;agx:716.00;agy:-247.00;agz:-702.00;


łŞ¤]",58,32,17,30,0,0,0,716.00,-247.00,-702.00,15.40,10,0
8417.713764,"pitch:32;roll:20;yaw:33;vgx:0;vgy:0;vgz:0;templ:93;temph:95;tof:10;h:0;bat:58;baro:15.41;time:0;agx:596.00;agy:-260.00;agz:-670.00;


łŞ¤]",58,32,20,33,0,0,0,596.00,-260.00,-670.00,15.41,10,0
8417.815850,"pitch:36;roll:16;yaw:28;vgx:0;vgy:0;vgz:0;templ:93;temph:95;tof:10;h:0;bat:58;baro:15.42;time:0;agx:491.00;agy:-121.00;agz:-949.00;


łŞ¤]",58,36,16,28,0,0,0,491.00,-121.00,-949.00,15.42,10,0
8417.917901,"pitch:37;roll:18;yaw:32;vgx:0;vgy:0;vgz:0;templ:93;temph:95;tof:33;h:0;bat:58;baro:15.40;time:0;agx:530.00;agy:-308.00;agz:-821.00;


łŞ¤]",58,37,18,32,0,0,0,530.00,-308.00,-821.00,15.40,33,0
8418.019767,"pitch:36;roll:18;yaw:32;vgx:0;vgy:0;vgz:0;templ:93;temph:95;tof:33;h:0;bat:58;baro:15.46;time:0;agx:608.00;agy:-243.00;agz:-834.00;


łŞ¤]",58,36,18,32,0,0,0,608.00,-243.00,-834.00,15.46,33,0
8418.122110,"pitch:37;roll:22;yaw:36;vgx:0;vgy:0;vgz:0;templ:93;temph:95;tof:33;h:0;bat:58;baro:15.44;time:0;agx:605.00;agy:-249.00;agz:-788.00;


łŞ¤]",58,37,22,36,0,0,0,605.00,-249.00,-788.00,15.44,33,0
8418.223847,"pitch:37;roll:28;yaw:40;vgx:0;vgy:0;vgz:0;templ:93;temph:95;tof:31;h:0;bat:58;baro:15.49;time:0;agx:603.00;agy:-287.00;agz:-785.00;


łŞ¤]",58,37,28,40,0,0,0,603.00,-287.00,-785.00,15.49,31,0
8418.325839,"pitch:40;roll:31;yaw:40;vgx:0;vgy:0;vgz:0;templ:93;temph:95;tof:10;h:0;bat:58;baro:15.42;time:0;agx:656.00;agy:-415.00;agz:-675.00;


łŞ¤]",58,40,31,40,0,0,0,656.00,-415.00,-675.00,15.42,10,0
8418.427697,"pitch:42;roll:32;yaw:40;vgx:0;vgy:0;vgz:0;templ:93;temph:95;tof:10;h:0;bat:58;baro:15.43;time:0;agx:651.00;agy:-371.00;agz:-708.00;


łŞ¤]",58,42,32,40,0,0,0,651.00,-371.00,-708.00,15.43,10,0
8418.529916,"pitch:44;roll:34;yaw:42;vgx:0;vgy:0;vgz:0;templ:93;temph:95;tof:10;h:0;bat:58;baro:15.44;time:0;agx:722.00;agy:-424.00;agz:-551.00;


łŞ¤]",58,44,34,42,0,0,0,722.00,-424.00,-551.00,15.44,10,0
8418.633555,"pitch:45;roll:33;yaw:42;vgx:0;vgy:0;vgz:0;templ:93;temph:95;tof:10;h:0;bat:58;baro:15.48;time:0;agx:682.00;agy:-348.00;agz:-594.00;


łŞ¤]",58,45,33,42,0,0,0,682.00,-348.00,-594.00,15.48,10,0
8418.735634,"pitch:46;roll:34;yaw:42;vgx:0;vgy:0;vgz:0;templ:93;temph:95;tof:10;h:0;bat:58;baro:15.45;time:0;agx:717.00;agy:-371.00;agz:-601.00;


łŞ¤]",58,46,34,42,0,0,0,717.00,-371.00,-601.00,15.45,10,0
8418.836067,"pitch:46;roll:34;yaw:42;vgx:0;vgy:0;vgz:0;templ:93;temph:95;tof:10;h:0;bat:58;baro:15.48;time:0;agx:728.00;agy:-411.00;agz:-591.00;


łŞ¤]",58,46,34,42,0,0,0,728.00,-411.00,-591.00,15.48,10,0
8418.938056,"pitch:47;roll:33;yaw:40;vgx:0;vgy:0;vgz:0;templ:93;temph:95;tof:10;h:0;bat:58;baro:15.40;time:0;agx:748.00;agy:-385.00;agz:-628.00;


łŞ¤]",58,47,33,40,0,0,0,748.00,-385.00,-628.00,15.40,10,0
8419.039759,"pitch:48;roll:31;yaw:37;vgx:0;vgy:0;vgz:0;templ:93;temph:95;tof:10;h:0;bat:58;baro:15.49;time:0;agx:746.00;agy:-353.00;agz:-549.00;


łŞ¤]",58,48,31,37,0,0,0,746.00,-353.00,-549.00,15.49,10,0
8419.141842,"pitch:47;roll:25;yaw:32;vgx:0;vgy:0;vgz:0;templ:93;temph:95;tof:10;h:0;bat:58;baro:15.47;time:0;agx:650.00;agy:-283.00;agz:-518.00;


łŞ¤]",58,47,25,32,0,0,0,650.00,-283.00,-518.00,15.47,10,0
8419.243654,"pitch:47;roll:26;yaw:31;vgx:0;vgy:0;vgz:0;templ:93;temph:95;tof:10;h:0;bat:58;baro:15.35;time:0;agx:619.00;agy:-247.00;agz:-595.00;


łŞ¤]",58,47,26,31,0,0,0,619.00,-247.00,-595.00,15.35,10,0
8419.345920,"pitch:46;roll:25;yaw:31;vgx:0;vgy:0;vgz:0;templ:92;temph:95;tof:10;h:0;bat:58;baro:15.39;time:0;agx:670.00;agy:-236.00;agz:-692.00;


łŞ¤]",58,46,25,31,0,0,0,670.00,-236.00,-692.00,15.39,10,0
8419.447643,"pitch:47;roll:22;yaw:30;vgx:0;vgy:0;vgz:0;templ:92;temph:95;tof:10;h:0;bat:58;baro:15.43;time:0;agx:465.00;agy:-252.00;agz:-448.00;


łŞ¤]",58,47,22,30,0,0,0,465.00,-252.00,-448.00,15.43,10,0
8419.549754,"pitch:54;roll:15;yaw:30;vgx:0;vgy:0;vgz:0;templ:92;temph:95;tof:10;h:0;bat:58;baro:15.44;time:0;agx:1011.00;agy:-211.00;agz:-897.00;

łŞ¤]",58,54,15,30,0,0,0,1011.00,-211.00,-897.00,15.44,10,0
8419.651770,"pitch:47;roll:16;yaw:24;vgx:0;vgy:0;vgz:0;templ:92;temph:95;tof:10;h:0;bat:58;baro:15.47;time:0;agx:774.00;agy:-96.00;agz:-231.00;


łŞ¤]",58,47,16,24,0,0,0,774.00,-96.00,-231.00,15.47,10,0
8419.753690,"pitch:46;roll:23;yaw:30;vgx:0;vgy:0;vgz:0;templ:92;temph:95;tof:10;h:0;bat:58;baro:15.47;time:0;agx:745.00;agy:-198.00;agz:-718.00;


łŞ¤]",58,46,23,30,0,0,0,745.00,-198.00,-718.00,15.47,10,0
8419.856077,"pitch:48;roll:30;yaw:36;vgx:0;vgy:0;vgz:0;templ:92;temph:95;tof:10;h:0;bat:58;baro:15.43;time:0;agx:765.00;agy:-271.00;agz:-652.00;


łŞ¤]",58,48,30,36,0,0,0,765.00,-271.00,-652.00,15.43,10,0
8419.957752,"pitch:49;roll:32;yaw:38;vgx:0;vgy:0;vgz:0;templ:92;temph:95;tof:10;h:0;bat:58;baro:15.49;time:0;agx:724.00;agy:-346.00;agz:-536.00;


łŞ¤]",58,49,32,38,0,0,0,724.00,-346.00,-536.00,15.49,10,0
8420.059706,"pitch:49;roll:33;yaw:39;vgx:0;vgy:0;vgz:0;templ:92;temph:95;tof:10;h:0;bat:58;baro:15.46;time:0;agx:713.00;agy:-331.00;agz:-545.00;


łŞ¤]",58,49,33,39,0,0,0,713.00,-331.00,-545.00,15.46,10,0
8420.161820,"pitch:49;roll:36;yaw:42;vgx:0;vgy:0;vgz:0;templ:92;temph:95;tof:10;h:0;bat:58;baro:15.48;time:0;agx:745.00;agy:-355.00;agz:-543.00;


łŞ¤]",58,49,36,42,0,0,0,745.00,-355.00,-543.00,15.48,10,0
8420.263712,"pitch:49;roll:39;yaw:46;vgx:0;vgy:0;vgz:0;templ:92;temph:95;tof:10;h:0;bat:58;baro:15.46;time:0;agx:697.00;agy:-354.00;agz:-560.00;


łŞ¤]",58,49,39,46,0,0,0,697.00,-354.00,-560.00,15.46,10,0
8420.365825,"pitch:47;roll:48;yaw:61;vgx:0;vgy:0;vgz:1;templ:92;temph:95;tof:10;h:0;bat:58;baro:15.43;time:0;agx:672.00;agy:-500.00;agz:-566.00;


łŞ¤]",58,47,48,61,0,0,1,672.00,-500.00,-566.00,15.43,10,0
8420.467705,"pitch:39;roll:60;yaw:82;vgx:0;vgy:0;vgz:1;templ:92;temph:95;tof:10;h:0;bat:58;baro:15.39;time:0;agx:640.00;agy:-565.00;agz:-346.00;


łŞ¤]",58,39,60,82,0,0,1,640.00,-565.00,-346.00,15.39,10,0
8420.571139,"pitch:36;roll:72;yaw:94;vgx:0;vgy:0;vgz:1;templ:92;temph:95;tof:10;h:0;bat:58;baro:15.41;time:0;agx:691.00;agy:-817.00;agz:-172.00;


łŞ¤]",58,36,72,94,0,0,1,691.00,-817.00,-172.00,15.41,10,0
8420.622026,"pitch:41;roll:83;yaw:99;vgx:0;vgy:0;vgz:0;templ:92;temph:95;tof:10;h:0;bat:58;baro:15.39;time:0;agx:677.00;agy:-797.00;agz:-155.00;


łŞ¤]",58,41,83,99,0,0,0,677.00,-797.00,-155.00,15.39,10,0
8420.723704,"pitch:44;roll:85;yaw:100;vgx:0;vgy:0;vgz:0;templ:92;temph:95;tof:10;h:0;bat:58;baro:15.38;time:0;agx:716.00;agy:-723.00;agz:-140.00;

łŞ¤]",58,44,85,100,0,0,0,716.00,-723.00,-140.00,15.38,10,0
8420.825798,"pitch:47;roll:83;yaw:99;vgx:0;vgy:0;vgz:0;templ:92;temph:95;tof:10;h:0;bat:58;baro:15.47;time:0;agx:745.00;agy:-709.00;agz:-101.00;


łŞ¤]",58,47,83,99,0,0,0,745.00,-709.00,-101.00,15.47,10,0
8420.927785,"pitch:49;roll:57;yaw:77;vgx:0;vgy:0;vgz:-1;templ:92;temph:95;tof:10;h:0;bat:58;baro:15.45;time:0;agx:754.00;agy:-448.00;agz:-252.00;

łŞ¤]",58,49,57,77,0,0,-1,754.00,-448.00,-252.00,15.45,10,0
8421.030046,"pitch:35;roll:25;yaw:44;vgx:0;vgy:0;vgz:-1;templ:92;temph:95;tof:10;h:0;bat:58;baro:15.42;time:0;agx:629.00;agy:-304.00;agz:-701.00;

łŞ¤]",58,35,25,44,0,0,-1,629.00,-304.00,-701.00,15.42,10,0
8421.131711,"pitch:19;roll:14;yaw:30;vgx:0;vgy:0;vgz:0;templ:92;temph:95;tof:10;h:0;bat:58;baro:15.44;time:0;agx:335.00;agy:-241.00;agz:-857.00;


łŞ¤]",58,19,14,30,0,0,0,335.00,-241.00,-857.00,15.44,10,0
8421.233724,"pitch:12;roll:11;yaw:25;vgx:0;vgy:0;vgz:0;templ:92;temph:95;tof:10;h:0;bat:58;baro:15.50;time:0;agx:237.00;agy:-225.00;agz:-921.00;


łŞ¤]",58,12,11,25,0,0,0,237.00,-225.00,-921.00,15.50,10,0
8421.337066,"pitch:10;roll:8;yaw:22;vgx:0;vgy:0;vgz:0;templ:93;temph:96;tof:10;h:0;bat:58;baro:15.50;time:0;agx:109.00;agy:-188.00;agz:-803.00;



łŞ¤]",58,10,8,22,0,0,0,109.00,-188.00,-803.00,15.50,10,0
8421.439679,"pitch:11;roll:7;yaw:20;vgx:0;vgy:0;vgz:0;templ:93;temph:96;tof:10;h:0;bat:58;baro:15.46;time:0;agx:150.00;agy:-125.00;agz:-985.00;



łŞ¤]",58,11,7,20,0,0,0,150.00,-125.00,-985.00,15.46,10,0
8421.540317,"pitch:14;roll:8;yaw:15;vgx:0;vgy:0;vgz:0;templ:93;temph:96;tof:10;h:0;bat:58;baro:15.45;time:0;agx:198.00;agy:-146.00;agz:-1059.00;


łŞ¤]",58,14,8,15,0,0,0,198.00,-146.00,-1059.00,15.45,10,0
8421.641815,"pitch:15;roll:7;yaw:9;vgx:0;vgy:0;vgz:0;templ:93;temph:96;tof:10;h:0;bat:58;baro:15.50;time:0;agx:276.00;agy:-175.00;agz:-879.00;



łŞ¤]",58,15,7,9,0,0,0,276.00,-175.00,-879.00,15.50,10,0
8421.743607,"pitch:17;roll:6;yaw:4;vgx:0;vgy:0;vgz:0;templ:93;temph:96;tof:10;h:0;bat:58;baro:15.50;time:0;agx:195.00;agy:-217.00;agz:-1029.00;



łŞ¤]",58,17,6,4,0,0,0,195.00,-217.00,-1029.00,15.50,10,0
8421.845688,"pitch:15;roll:4;yaw:2;vgx:0;vgy:0;vgz:0;templ:93;temph:96;tof:36;h:0;bat:58;baro:15.48;time:0;agx:326.00;agy:-42.00;agz:-987.00;




łŞ¤]",58,15,4,2,0,0,0,326.00,-42.00,-987.00,15.48,36,0
8421.947567,"pitch:15;roll:4;yaw:-2;vgx:0;vgy:0;vgz:0;templ:93;temph:96;tof:10;h:0;bat:58;baro:15.51;time:0;agx:306.00;agy:-48.00;agz:-910.00;




łŞ¤]",58,15,4,-2,0,0,0,306.00,-48.00,-910.00,15.51,10,0
8422.049953,"pitch:16;roll:5;yaw:-7;vgx:0;vgy:0;vgz:0;templ:93;temph:96;tof:10;h:0;bat:58;baro:15.52;time:0;agx:251.00;agy:-72.00;agz:-891.00;




łŞ¤]",58,16,5,-7,0,0,0,251.00,-72.00,-891.00,15.52,10,0
8422.151595,"pitch:18;roll:6;yaw:-11;vgx:0;vgy:0;vgz:0;templ:93;temph:96;tof:10;h:0;bat:58;baro:15.47;time:0;agx:241.00;agy:11.00;agz:-794.00;




łŞ¤]",58,18,6,-11,0,0,0,241.00,11.00,-794.00,15.47,10,0
8422.254074,"pitch:20;roll:5;yaw:-18;vgx:0;vgy:0;vgz:0;templ:93;temph:96;tof:10;h:0;bat:58;baro:15.42;time:0;agx:207.00;agy:-32.00;agz:-926.00;



łŞ¤]",58,20,5,-18,0,0,0,207.00,-32.00,-926.00,15.42,10,0
8422.355784,"pitch:18;roll:6;yaw:-25;vgx:0;vgy:0;vgz:0;templ:92;temph:95;tof:10;h:0;bat:58;baro:15.45;time:0;agx:232.00;agy:-110.00;agz:-928.00;


łŞ¤]",58,18,6,-25,0,0,0,232.00,-110.00,-928.00,15.45,10,0
8422.459919,"pitch:10;roll:-1;yaw:-35;vgx:0;vgy:0;vgz:0;templ:92;temph:95;tof:10;h:0;bat:58;baro:15.42;time:0;agx:175.00;agy:24.00;agz:-902.00;



łŞ¤]",58,10,-1,-35,0,0,0,175.00,24.00,-902.00,15.42,10,0
8422.560246,"pitch:13;roll:-1;yaw:-45;vgx:0;vgy:0;vgz:0;templ:92;temph:95;tof:10;h:0;bat:58;baro:15.48;time:0;agx:210.00;agy:143.00;agz:-1097.00;

łŞ¤]",58,13,-1,-45,0,0,0,210.00,143.00,-1097.00,15.48,10,0
8422.661732,"pitch:10;roll:-5;yaw:-54;vgx:0;vgy:0;vgz:0;templ:92;temph:95;tof:10;h:0;bat:58;baro:15.43;time:0;agx:-11.00;agy:32.00;agz:-944.00;


łŞ¤]",58,10,-5,-54,0,0,0,-11.00,32.00,-944.00,15.43,10,0
8422.763990,"pitch:20;roll:-12;yaw:-59;vgx:0;vgy:0;vgz:0;templ:92;temph:95;tof:10;h:0;bat:58;baro:15.46;time:0;agx:263.00;agy:346.00;agz:-1070.00;
łŞ¤]",58,20,-12,-59,0,0,0,263.00,346.00,-1070.00,15.46,10,0
8422.865566,"pitch:26;roll:-20;yaw:-70;vgx:0;vgy:0;vgz:0;templ:92;temph:95;tof:10;h:0;bat:58;baro:15.46;time:0;agx:483.00;agy:209.00;agz:-961.00;

łŞ¤]",58,26,-20,-70,0,0,0,483.00,209.00,-961.00,15.46,10,0
8422.967621,"pitch:23;roll:-19;yaw:-76;vgx:0;vgy:0;vgz:0;templ:92;temph:95;tof:10;h:0;bat:58;baro:15.44;time:0;agx:1356.00;agy:673.00;agz:-1131.00;
Ş¤]",58,23,-19,-76,0,0,0,1356.00,673.00,-1131.00,15.44,10,0
8423.071156,"pitch:16;roll:-10;yaw:-72;vgx:0;vgy:0;vgz:-1;templ:92;temph:95;tof:10;h:0;bat:58;baro:15.49;time:0;agx:-543.00;agy:-111.00;agz:-650.00;
¤]",58,16,-10,-72,0,0,-1,-543.00,-111.00,-650.00,15.49,10,0
8423.173562,"pitch:22;roll:-15;yaw:-77;vgx:0;vgy:0;vgz:1;templ:92;temph:95;tof:10;h:0;bat:58;baro:15.46;time:0;agx:1632.00;agy:566.00;agz:-1141.00;

¤]",58,22,-15,-77,0,0,1,1632.00,566.00,-1141.00,15.46,10,0
8423.274852,"pitch:11;roll:-16;yaw:-76;vgx:0;vgy:0;vgz:0;templ:92;temph:95;tof:10;h:0;bat:58;baro:15.47;time:0;agx:-831.00;agy:-24.00;agz:-683.00;


¤]",58,11,-16,-76,0,0,0,-831.00,-24.00,-683.00,15.47,10,0
8423.376251,"pitch:18;roll:-18;yaw:-78;vgx:0;vgy:0;vgz:0;templ:93;temph:95;tof:10;h:0;bat:58;baro:15.45;time:0;agx:2437.00;agy:1202.00;agz:-1686.00;
¤]",58,18,-18,-78,0,0,0,2437.00,1202.00,-1686.00,15.45,10,0
8423.477525,"pitch:5;roll:-18;yaw:-83;vgx:0;vgy:0;vgz:1;templ:93;temph:95;tof:10;h:0;bat:58;baro:15.44;time:0;agx:-1397.00;agy:-609.00;agz:-215.00;

¤]",58,5,-18,-83,0,0,1,-1397.00,-609.00,-215.00,15.44,10,0
8423.580138,"pitch:9;roll:-19;yaw:-84;vgx:0;vgy:0;vgz:0;templ:93;temph:95;tof:10;h:0;bat:58;baro:15.42;time:0;agx:802.00;agy:418.00;agz:-1030.00;


¤]",58,9,-19,-84,0,0,0,802.00,418.00,-1030.00,15.42,10,0
8423.681537,"pitch:9;roll:-19;yaw:-83;vgx:0;vgy:0;vgz:0;templ:93;temph:95;tof:10;h:0;bat:58;baro:15.43;time:0;agx:130.00;agy:372.00;agz:-975.00;



¤]",58,9,-19,-83,0,0,0,130.00,372.00,-975.00,15.43,10,0
8423.783411,"pitch:14;roll:-18;yaw:-80;vgx:0;vgy:0;vgz:0;templ:93;temph:95;tof:10;h:0;bat:58;baro:15.45;time:0;agx:193.00;agy:276.00;agz:-937.00;


¤]",58,14,-18,-80,0,0,0,193.00,276.00,-937.00,15.45,10,0
8423.885483,"pitch:17;roll:-17;yaw:-78;vgx:0;vgy:0;vgz:0;templ:93;temph:95;tof:10;h:0;bat:58;baro:15.41;time:0;agx:311.00;agy:332.00;agz:-938.00;


¤]",58,17,-17,-78,0,0,0,311.00,332.00,-938.00,15.41,10,0
8423.988196,"pitch:17;roll:-17;yaw:-75;vgx:0;vgy:0;vgz:0;templ:93;temph:95;tof:10;h:0;bat:58;baro:15.49;time:0;agx:307.00;agy:288.00;agz:-909.00;


¤]",58,17,-17,-75,0,0,0,307.00,288.00,-909.00,15.49,10,0
8424.038726,"pitch:18;roll:-17;yaw:-74;vgx:0;vgy:0;vgz:0;templ:93;temph:95;tof:10;h:0;bat:58;baro:15.43;time:0;agx:351.00;agy:273.00;agz:-907.00;


¤]",58,18,-17,-74,0,0,0,351.00,273.00,-907.00,15.43,10,0
8424.140439,"pitch:22;roll:-20;yaw:-71;vgx:0;vgy:0;vgz:0;templ:93;temph:95;tof:10;h:0;bat:58;baro:15.45;time:0;agx:399.00;agy:304.00;agz:-904.00;


¤]",58,22,-20,-71,0,0,0,399.00,304.00,-904.00,15.45,10,0
8424.242437,"pitch:25;roll:-22;yaw:-69;vgx:0;vgy:0;vgz:0;templ:93;temph:95;tof:10;h:0;bat:58;baro:15.43;time:0;agx:466.00;agy:358.00;agz:-848.00;


¤]",58,25,-22,-69,0,0,0,466.00,358.00,-848.00,15.43,10,0
8424.344503,"pitch:30;roll:-21;yaw:-69;vgx:0;vgy:0;vgz:0;templ:93;temph:95;tof:10;h:0;bat:58;baro:15.42;time:0;agx:380.00;agy:353.00;agz:-814.00;


¤]",58,30,-21,-69,0,0,0,380.00,353.00,-814.00,15.42,10,0
8424.446446,"pitch:34;roll:-19;yaw:-67;vgx:0;vgy:0;vgz:0;templ:93;temph:95;tof:10;h:0;bat:58;baro:15.45;time:0;agx:540.00;agy:225.00;agz:-761.00;


¤]",58,34,-19,-67,0,0,0,540.00,225.00,-761.00,15.45,10,0
8424.548383,"pitch:36;roll:-17;yaw:-64;vgx:0;vgy:0;vgz:0;templ:93;temph:95;tof:10;h:0;bat:58;baro:15.45;time:0;agx:584.00;agy:204.00;agz:-779.00;


¤]",58,36,-17,-64,0,0,0,584.00,204.00,-779.00,15.45,10,0
8424.650813,"pitch:38;roll:-15;yaw:-62;vgx:0;vgy:0;vgz:0;templ:93;temph:95;tof:10;h:0;bat:58;baro:15.42;time:0;agx:631.00;agy:191.00;agz:-728.00;


¤]",58,38,-15,-62,0,0,0,631.00,191.00,-728.00,15.42,10,0
8424.752511,"pitch:40;roll:-15;yaw:-62;vgx:0;vgy:0;vgz:0;templ:93;temph:95;tof:10;h:0;bat:58;baro:15.47;time:0;agx:665.00;agy:206.00;agz:-738.00;


¤]",58,40,-15,-62,0,0,0,665.00,206.00,-738.00,15.47,10,0
8424.854441,"pitch:41;roll:-18;yaw:-64;vgx:0;vgy:0;vgz:0;templ:93;temph:95;tof:10;h:0;bat:58;baro:15.42;time:0;agx:719.00;agy:188.00;agz:-716.00;


¤]",58,41,-18,-64,0,0,0,719.00,188.00,-716.00,15.42,10,0
8424.956423,"pitch:42;roll:-20;yaw:-66;vgx:0;vgy:0;vgz:0;templ:93;temph:95;tof:10;h:0;bat:58;baro:15.48;time:0;agx:668.00;agy:212.00;agz:-697.00;


¤]",58,42,-20,-66,0,0,0,668.00,212.00,-697.00,15.48,10,0
8425.058822,"pitch:43;roll:-21;yaw:-65;vgx:0;vgy:0;vgz:0;templ:93;temph:95;tof:10;h:0;bat:58;baro:15.47;time:0;agx:677.00;agy:237.00;agz:-711.00;


¤]",58,43,-21,-65,0,0,0,677.00,237.00,-711.00,15.47,10,0
8425.160559,"pitch:43;roll:-21;yaw:-64;vgx:0;vgy:0;vgz:0;templ:93;temph:95;tof:10;h:0;bat:58;baro:15.45;time:0;agx:680.00;agy:247.00;agz:-690.00;


¤]",58,43,-21,-64,0,0,0,680.00,247.00,-690.00,15.45,10,0
8425.262526,"pitch:43;roll:-21;yaw:-63;vgx:0;vgy:0;vgz:0;templ:93;temph:95;tof:10;h:0;bat:58;baro:15.48;time:0;agx:674.00;agy:225.00;agz:-685.00;


¤]",58,43,-21,-63,0,0,0,674.00,225.00,-685.00,15.48,10,0
8425.364479,"pitch:43;roll:-21;yaw:-62;vgx:0;vgy:0;vgz:0;templ:92;temph:95;tof:10;h:0;bat:58;baro:15.45;time:0;agx:661.00;agy:240.00;agz:-682.00;


¤]",58,43,-21,-62,0,0,0,661.00,240.00,-682.00,15.45,10,0
8425.466676,"pitch:43;roll:-20;yaw:-61;vgx:0;vgy:0;vgz:0;templ:92;temph:95;tof:10;h:0;bat:58;baro:15.50;time:0;agx:693.00;agy:235.00;agz:-685.00;


¤]",58,43,-20,-61,0,0,0,693.00,235.00,-685.00,15.50,10,0
8425.570030,"pitch:43;roll:-20;yaw:-60;vgx:0;vgy:0;vgz:0;templ:92;temph:95;tof:10;h:0;bat:58;baro:15.48;time:0;agx:696.00;agy:243.00;agz:-695.00;


¤]",58,43,-20,-60,0,0,0,696.00,243.00,-695.00,15.48,10,0
8425.670875,"pitch:43;roll:-20;yaw:-61;vgx:0;vgy:0;vgz:0;templ:92;temph:95;tof:10;h:0;bat:58;baro:15.50;time:0;agx:674.00;agy:237.00;agz:-686.00;


¤]",58,43,-20,-61,0,0,0,674.00,237.00,-686.00,15.50,10,0
8425.773878,"pitch:44;roll:-24;yaw:-68;vgx:0;vgy:0;vgz:0;templ:92;temph:95;tof:10;h:0;bat:58;baro:15.46;time:0;agx:688.00;agy:301.00;agz:-671.00;


¤]",58,44,-24,-68,0,0,0,688.00,301.00,-671.00,15.46,10,0
8425.874460,"pitch:43;roll:-27;yaw:-75;vgx:0;vgy:0;vgz:0;templ:92;temph:95;tof:10;h:0;bat:58;baro:15.46;time:0;agx:722.00;agy:270.00;agz:-630.00;


¤]",58,43,-27,-75,0,0,0,722.00,270.00,-630.00,15.46,10,0
8425.976361,"pitch:43;roll:-28;yaw:-77;vgx:0;vgy:0;vgz:0;templ:92;temph:95;tof:10;h:0;bat:58;baro:15.47;time:0;agx:677.00;agy:324.00;agz:-653.00;


¤]",58,43,-28,-77,0,0,0,677.00,324.00,-653.00,15.47,10,0
8426.078317,"pitch:43;roll:-30;yaw:-81;vgx:0;vgy:0;vgz:0;templ:92;temph:95;tof:10;h:0;bat:58;baro:15.46;time:0;agx:697.00;agy:344.00;agz:-638.00;


¤]",58,43,-30,-81,0,0,0,697.00,344.00,-638.00,15.46,10,0
8426.180313,"pitch:42;roll:-32;yaw:-84;vgx:0;vgy:0;vgz:0;templ:92;temph:95;tof:10;h:0;bat:58;baro:15.44;time:0;agx:694.00;agy:358.00;agz:-629.00;


¤]",58,42,-32,-84,0,0,0,694.00,358.00,-629.00,15.44,10,0
8426.282744,"pitch:42;roll:-33;yaw:-86;vgx:0;vgy:0;vgz:0;templ:92;temph:95;tof:10;h:0;bat:58;baro:15.48;time:0;agx:682.00;agy:396.00;agz:-629.00;


¤]",58,42,-33,-86,0,0,0,682.00,396.00,-629.00,15.48,10,0
8426.384452,"pitch:41;roll:-33;yaw:-87;vgx:0;vgy:0;vgz:0;templ:92;temph:95;tof:10;h:0;bat:58;baro:15.48;time:0;agx:680.00;agy:415.00;agz:-642.00;


¤]",58,41,-33,-87,0,0,0,680.00,415.00,-642.00,15.48,10,0
8426.486453,"pitch:39;roll:-32;yaw:-89;vgx:0;vgy:0;vgz:0;templ:92;temph:95;tof:10;h:0;bat:58;baro:15.40;time:0;agx:642.00;agy:386.00;agz:-634.00;


¤]",58,39,-32,-89,0,0,0,642.00,386.00,-634.00,15.40,10,0
8426.588636,"pitch:39;roll:-32;yaw:-91;vgx:0;vgy:0;vgz:0;templ:92;temph:95;tof:10;h:0;bat:58;baro:15.42;time:0;agx:656.00;agy:407.00;agz:-661.00;


¤]",58,39,-32,-91,0,0,0,656.00,407.00,-661.00,15.42,10,0
8426.690556,"pitch:37;roll:-31;yaw:-92;vgx:0;vgy:0;vgz:0;templ:92;temph:95;tof:10;h:0;bat:58;baro:15.48;time:0;agx:568.00;agy:410.00;agz:-701.00;


¤]",58,37,-31,-92,0,0,0,568.00,410.00,-701.00,15.48,10,0
8426.794496,"pitch:32;roll:-30;yaw:-97;vgx:0;vgy:0;vgz:0;templ:92;temph:95;tof:10;h:0;bat:58;baro:15.47;time:0;agx:526.00;agy:405.00;agz:-718.00;


¤]",58,32,-30,-97,0,0,0,526.00,405.00,-718.00,15.47,10,0
8426.894486,"pitch:29;roll:-30;yaw:-100;vgx:0;vgy:0;vgz:0;templ:92;temph:95;tof:10;h:0;bat:58;baro:15.46;time:0;agx:517.00;agy:362.00;agz:-731.00;


¤]",58,29,-30,-100,0,0,0,517.00,362.00,-731.00,15.46,10,0
8426.996394,"pitch:29;roll:-30;yaw:-99;vgx:0;vgy:0;vgz:0;templ:92;temph:95;tof:10;h:0;bat:58;baro:15.43;time:0;agx:506.00;agy:467.00;agz:-795.00;



¤]",58,29,-30,-99,0,0,0,506.00,467.00,-795.00,15.43,10,0
8427.098475,"pitch:28;roll:-29;yaw:-98;vgx:0;vgy:0;vgz:0;templ:92;temph:95;tof:10;h:0;bat:58;baro:15.43;time:0;agx:485.00;agy:517.00;agz:-792.00;



¤]",58,28,-29,-98,0,0,0,485.00,517.00,-792.00,15.43,10,0
8427.149494,"pitch:33;roll:-26;yaw:-88;vgx:0;vgy:0;vgz:0;templ:92;temph:95;tof:10;h:0;bat:58;baro:15.44;time:0;agx:646.00;agy:353.00;agz:-750.00;



¤]",58,33,-26,-88,0,0,0,646.00,353.00,-750.00,15.44,10,0
8427.251352,"pitch:39;roll:-22;yaw:-80;vgx:0;vgy:0;vgz:0;templ:92;temph:95;tof:10;h:0;bat:58;baro:15.44;time:0;agx:571.00;agy:361.00;agz:-778.00;



¤]",58,39,-22,-80,0,0,0,571.00,361.00,-778.00,15.44,10,0
8427.404319,"pitch:39;roll:-21;yaw:-78;vgx:0;vgy:0;vgz:0;templ:92;temph:95;tof:10;h:0;bat:58;baro:15.44;time:0;agx:622.00;agy:270.00;agz:-717.00;



¤]",58,39,-21,-78,0,0,0,622.00,270.00,-717.00,15.44,10,0
8427.455367,"pitch:38;roll:-22;yaw:-81;vgx:0;vgy:0;vgz:0;templ:92;temph:95;tof:10;h:0;bat:58;baro:15.45;time:0;agx:526.00;agy:298.00;agz:-757.00;



¤]",58,38,-22,-81,0,0,0,526.00,298.00,-757.00,15.45,10,0
8427.557459,"pitch:32;roll:-22;yaw:-92;vgx:0;vgy:0;vgz:0;templ:92;temph:95;tof:10;h:0;bat:58;baro:15.42;time:0;agx:508.00;agy:348.00;agz:-787.00;



¤]",58,32,-22,-92,0,0,0,508.00,348.00,-787.00,15.42,10,0
8427.659391,"pitch:24;roll:-21;yaw:-103;vgx:0;vgy:0;vgz:0;templ:92;temph:95;tof:10;h:0;bat:58;baro:15.45;time:0;agx:631.00;agy:342.00;agz:-817.00;


¤]",58,24,-21,-103,0,0,0,631.00,342.00,-817.00,15.45,10,0
8427.761506,"pitch:18;roll:-19;yaw:-110;vgx:0;vgy:0;vgz:0;templ:92;temph:95;tof:10;h:0;bat:58;baro:15.48;time:0;agx:444.00;agy:315.00;agz:-863.00;


¤]",58,18,-19,-110,0,0,0,444.00,315.00,-863.00,15.48,10,0
8427.863294,"pitch:17;roll:-19;yaw:-112;vgx:0;vgy:0;vgz:0;templ:92;temph:95;tof:10;h:0;bat:58;baro:15.37;time:0;agx:335.00;agy:248.00;agz:-924.00;


¤]",58,17,-19,-112,0,0,0,335.00,248.00,-924.00,15.37,10,0
8427.965820,"pitch:17;roll:-19;yaw:-114;vgx:0;vgy:0;vgz:0;templ:92;temph:95;tof:10;h:0;bat:58;baro:15.42;time:0;agx:329.00;agy:280.00;agz:-915.00;


¤]",58,17,-19,-114,0,0,0,329.00,280.00,-915.00,15.42,10,0
8428.068374,"pitch:18;roll:-18;yaw:-116;vgx:0;vgy:0;vgz:0;templ:92;temph:95;tof:10;h:0;bat:58;baro:15.43;time:0;agx:340.00;agy:327.00;agz:-904.00;


¤]",58,18,-18,-116,0,0,0,340.00,327.00,-904.00,15.43,10,0
8428.170149,"pitch:18;roll:-18;yaw:-115;vgx:0;vgy:0;vgz:0;templ:92;temph:95;tof:10;h:0;bat:58;baro:15.47;time:0;agx:318.00;agy:237.00;agz:-898.00;


¤]",58,18,-18,-115,0,0,0,318.00,237.00,-898.00,15.47,10,0
8428.271352,"pitch:17;roll:-19;yaw:-114;vgx:0;vgy:0;vgz:0;templ:92;temph:95;tof:10;h:0;bat:58;baro:15.46;time:0;agx:338.00;agy:358.00;agz:-919.00;


¤]",58,17,-19,-114,0,0,0,338.00,358.00,-919.00,15.46,10,0
8428.373219,"pitch:21;roll:-23;yaw:-107;vgx:0;vgy:0;vgz:0;templ:93;temph:95;tof:10;h:0;bat:58;baro:15.44;time:0;agx:265.00;agy:227.00;agz:-888.00;


¤]",58,21,-23,-107,0,0,0,265.00,227.00,-888.00,15.44,10,0
8428.475332,"pitch:29;roll:-25;yaw:-98;vgx:0;vgy:0;vgz:0;templ:93;temph:95;tof:10;h:0;bat:58;baro:15.39;time:0;agx:348.00;agy:266.00;agz:-856.00;



¤]",58,29,-25,-98,0,0,0,348.00,266.00,-856.00,15.39,10,0
8428.577360,"pitch:31;roll:-25;yaw:-97;vgx:0;vgy:0;vgz:0;templ:93;temph:95;tof:10;h:0;bat:58;baro:15.45;time:0;agx:431.00;agy:331.00;agz:-837.00;



¤]",58,31,-25,-97,0,0,0,431.00,331.00,-837.00,15.45,10,0
8428.679309,"pitch:30;roll:-25;yaw:-98;vgx:0;vgy:0;vgz:0;templ:93;temph:95;tof:10;h:0;bat:58;baro:15.45;time:0;agx:532.00;agy:418.00;agz:-822.00;



¤]",58,30,-25,-98,0,0,0,532.00,418.00,-822.00,15.45,10,0
8428.781352,"pitch:30;roll:-24;yaw:-99;vgx:0;vgy:0;vgz:0;templ:93;temph:95;tof:10;h:0;bat:58;baro:15.47;time:0;agx:503.00;agy:345.00;agz:-778.00;



¤]",58,30,-24,-99,0,0,0,503.00,345.00,-778.00,15.47,10,0
8428.883430,"pitch:22;roll:-23;yaw:-109;vgx:0;vgy:0;vgz:0;templ:93;temph:95;tof:10;h:0;bat:58;baro:15.46;time:0;agx:519.00;agy:354.00;agz:-757.00;


¤]",58,22,-23,-109,0,0,0,519.00,354.00,-757.00,15.46,10,0
8428.985370,"pitch:7;roll:-18;yaw:-123;vgx:0;vgy:0;vgz:0;templ:93;temph:95;tof:10;h:0;bat:58;baro:15.49;time:0;agx:448.00;agy:409.00;agz:-830.00;



¤]",58,7,-18,-123,0,0,0,448.00,409.00,-830.00,15.49,10,0
8429.087295,"pitch:1;roll:-19;yaw:-125;vgx:0;vgy:0;vgz:0;templ:93;temph:95;tof:10;h:0;bat:58;baro:15.43;time:0;agx:351.00;agy:527.00;agz:-989.00;



¤]",58,1,-19,-125,0,0,0,351.00,527.00,-989.00,15.43,10,0
8429.189276,"pitch:2;roll:-20;yaw:-125;vgx:0;vgy:0;vgz:0;templ:93;temph:95;tof:10;h:0;bat:58;baro:15.43;time:0;agx:174.00;agy:68.00;agz:-871.00;




¤]",58,2,-20,-125,0,0,0,174.00,68.00,-871.00,15.43,10,0
8429.291353,"pitch:0;roll:-20;yaw:-124;vgx:0;vgy:0;vgz:0;templ:93;temph:95;tof:10;h:0;bat:58;baro:15.43;time:0;agx:90.00;agy:255.00;agz:-895.00;




¤]",58,0,-20,-124,0,0,0,90.00,255.00,-895.00,15.43,10,0
8429.393281,"pitch:4;roll:-13;yaw:-121;vgx:0;vgy:0;vgz:-1;templ:94;temph:95;tof:10;h:0;bat:58;baro:15.42;time:0;agx:-271.00;agy:229.00;agz:-1120.00;
¤]",58,4,-13,-121,0,0,-1,-271.00,229.00,-1120.00,15.42,10,0
8429.495411,"pitch:9;roll:-5;yaw:-124;vgx:0;vgy:0;vgz:-1;templ:94;temph:95;tof:10;h:0;bat:58;baro:15.45;time:0;agx:277.00;agy:108.00;agz:-839.00;
;
¤]",58,9,-5,-124,0,0,-1,277.00,108.00,-839.00,15.45,10,0
8429.597267,"pitch:12;roll:-4;yaw:-125;vgx:0;vgy:0;vgz:0;templ:94;temph:95;tof:10;h:0;bat:58;baro:15.46;time:0;agx:259.00;agy:35.00;agz:-862.00;

;
¤]",58,12,-4,-125,0,0,0,259.00,35.00,-862.00,15.46,10,0
8429.700090,"pitch:11;roll:-7;yaw:-127;vgx:0;vgy:0;vgz:0;templ:94;temph:95;tof:10;h:0;bat:58;baro:15.48;time:0;agx:352.00;agy:72.00;agz:-934.00;

;
¤]",58,11,-7,-127,0,0,0,352.00,72.00,-934.00,15.48,10,0
8429.801388,"pitch:7;roll:-10;yaw:-126;vgx:0;vgy:0;vgz:0;templ:94;temph:95;tof:10;h:0;bat:58;baro:15.47;time:0;agx:219.00;agy:126.00;agz:-984.00;
;
¤]",58,7,-10,-126,0,0,0,219.00,126.00,-984.00,15.47,10,0
8429.905034,"pitch:3;roll:-15;yaw:-124;vgx:0;vgy:0;vgz:0;templ:94;temph:95;tof:10;h:0;bat:58;baro:15.48;time:0;agx:79.00;agy:289.00;agz:-1008.00;
;
¤]",58,3,-15,-124,0,0,0,79.00,289.00,-1008.00,15.48,10,0
8430.005468,"pitch:0;roll:-18;yaw:-123;vgx:0;vgy:0;vgz:0;templ:94;temph:95;tof:10;h:0;bat:58;baro:15.47;time:0;agx:79.00;agy:349.00;agz:-961.00;

;
¤]",58,0,-18,-123,0,0,0,79.00,349.00,-961.00,15.47,10,0
8430.107227,"pitch:1;roll:-19;yaw:-121;vgx:0;vgy:0;vgz:0;templ:94;temph:95;tof:10;h:0;bat:58;baro:15.47;time:0;agx:80.00;agy:258.00;agz:-930.00;

;
¤]",58,1,-19,-121,0,0,0,80.00,258.00,-930.00,15.47,10,0
8430.209141,"pitch:2;roll:-20;yaw:-119;vgx:0;vgy:0;vgz:0;templ:94;temph:95;tof:10;h:0;bat:58;baro:15.49;time:0;agx:53.00;agy:334.00;agz:-934.00;

;
¤]",58,2,-20,-119,0,0,0,53.00,334.00,-934.00,15.49,10,0
8430.311324,"pitch:2;roll:-21;yaw:-117;vgx:0;vgy:0;vgz:0;templ:94;temph:95;tof:10;h:0;bat:58;baro:15.43;time:0;agx:66.00;agy:390.00;agz:-945.00;

;
¤]",58,2,-21,-117,0,0,0,66.00,390.00,-945.00,15.43,10,0
8430.413063,"pitch:4;roll:-22;yaw:-114;vgx:0;vgy:0;vgz:0;templ:94;temph:95;tof:10;h:0;bat:58;baro:15.45;time:0;agx:77.00;agy:348.00;agz:-942.00;

;
¤]",58,4,-22,-114,0,0,0,77.00,348.00,-942.00,15.45,10,0
8430.515165,"pitch:13;roll:-21;yaw:-108;vgx:0;vgy:0;vgz:0;templ:94;temph:95;tof:10;h:0;bat:58;baro:15.46;time:0;agx:233.00;agy:411.00;agz:-943.00;

¤]",58,13,-21,-108,0,0,0,233.00,411.00,-943.00,15.46,10,0
8430.617064,"pitch:18;roll:-18;yaw:-111;vgx:0;vgy:0;vgz:0;templ:94;temph:95;tof:10;h:0;bat:58;baro:15.47;time:0;agx:352.00;agy:312.00;agz:-870.00;

¤]",58,18,-18,-111,0,0,0,352.00,312.00,-870.00,15.47,10,0
8430.719223,"pitch:22;roll:-18;yaw:-110;vgx:0;vgy:0;vgz:0;templ:94;temph:95;tof:10;h:0;bat:58;baro:15.46;time:0;agx:380.00;agy:257.00;agz:-865.00;

¤]",58,22,-18,-110,0,0,0,380.00,257.00,-865.00,15.46,10,0
8430.821446,"pitch:25;roll:-21;yaw:-111;vgx:0;vgy:0;vgz:0;templ:94;temph:95;tof:10;h:0;bat:58;baro:15.47;time:0;agx:416.00;agy:325.00;agz:-828.00;

¤]",58,25,-21,-111,0,0,0,416.00,325.00,-828.00,15.47,10,0
8430.872420,"pitch:25;roll:-23;yaw:-113;vgx:0;vgy:0;vgz:0;templ:94;temph:95;tof:10;h:0;bat:58;baro:15.45;time:0;agx:542.00;agy:369.00;agz:-825.00;

¤]",58,25,-23,-113,0,0,0,542.00,369.00,-825.00,15.45,10,0
8430.974986,"pitch:22;roll:-23;yaw:-113;vgx:0;vgy:0;vgz:0;templ:94;temph:95;tof:10;h:0;bat:58;baro:15.49;time:0;agx:487.00;agy:388.00;agz:-794.00;

¤]",58,22,-23,-113,0,0,0,487.00,388.00,-794.00,15.49,10,0
8431.077921,"pitch:20;roll:-23;yaw:-110;vgx:0;vgy:0;vgz:0;templ:94;temph:95;tof:10;h:0;bat:58;baro:15.44;time:0;agx:446.00;agy:258.00;agz:-802.00;

¤]",58,20,-23,-110,0,0,0,446.00,258.00,-802.00,15.44,10,0
8431.180235,"pitch:21;roll:-24;yaw:-107;vgx:0;vgy:0;vgz:0;templ:94;temph:95;tof:10;h:0;bat:58;baro:15.41;time:0;agx:376.00;agy:404.00;agz:-881.00;

¤]",58,21,-24,-107,0,0,0,376.00,404.00,-881.00,15.41,10,0
8431.281264,"pitch:22;roll:-25;yaw:-103;vgx:0;vgy:0;vgz:0;templ:94;temph:95;tof:10;h:0;bat:58;baro:15.41;time:0;agx:302.00;agy:527.00;agz:-875.00;

¤]",58,22,-25,-103,0,0,0,302.00,527.00,-875.00,15.41,10,0
8431.383137,"pitch:21;roll:-26;yaw:-102;vgx:0;vgy:0;vgz:0;templ:93;temph:96;tof:10;h:0;bat:58;baro:15.42;time:0;agx:196.00;agy:474.00;agz:-891.00;

¤]",58,21,-26,-102,0,0,0,196.00,474.00,-891.00,15.42,10,0
8431.484130,"pitch:21;roll:-25;yaw:-104;vgx:0;vgy:0;vgz:0;templ:93;temph:96;tof:10;h:0;bat:58;baro:15.47;time:0;agx:429.00;agy:281.00;agz:-801.00;

¤]",58,21,-25,-104,0,0,0,429.00,281.00,-801.00,15.47,10,0
8431.586127,"pitch:20;roll:-25;yaw:-106;vgx:0;vgy:0;vgz:0;templ:93;temph:96;tof:10;h:0;bat:58;baro:15.45;time:0;agx:378.00;agy:330.00;agz:-830.00;

¤]",58,20,-25,-106,0,0,0,378.00,330.00,-830.00,15.45,10,0
8431.688361,"pitch:20;roll:-24;yaw:-108;vgx:0;vgy:0;vgz:0;templ:93;temph:96;tof:10;h:0;bat:58;baro:15.46;time:0;agx:362.00;agy:358.00;agz:-913.00;

¤]",58,20,-24,-108,0,0,0,362.00,358.00,-913.00,15.46,10,0
8431.790240,"pitch:18;roll:-23;yaw:-110;vgx:0;vgy:0;vgz:0;templ:93;temph:96;tof:10;h:0;bat:58;baro:15.41;time:0;agx:346.00;agy:373.00;agz:-892.00;

¤]",58,18,-23,-110,0,0,0,346.00,373.00,-892.00,15.41,10,0
8431.892276,"pitch:17;roll:-22;yaw:-111;vgx:0;vgy:0;vgz:0;templ:93;temph:96;tof:10;h:0;bat:58;baro:15.44;time:0;agx:317.00;agy:361.00;agz:-873.00;

¤]",58,17,-22,-111,0,0,0,317.00,361.00,-873.00,15.44,10,0
8431.994368,"pitch:15;roll:-21;yaw:-114;vgx:0;vgy:0;vgz:0;templ:93;temph:96;tof:10;h:0;bat:58;baro:15.42;time:0;agx:187.00;agy:307.00;agz:-904.00;

¤]",58,15,-21,-114,0,0,0,187.00,307.00,-904.00,15.42,10,0
8432.096890,"pitch:16;roll:-21;yaw:-109;vgx:0;vgy:0;vgz:0;templ:93;temph:96;tof:10;h:0;bat:58;baro:15.43;time:0;agx:255.00;agy:290.00;agz:-869.00;

¤]",58,16,-21,-109,0,0,0,255.00,290.00,-869.00,15.43,10,0
8432.198259,"pitch:16;roll:-21;yaw:-110;vgx:0;vgy:0;vgz:0;templ:93;temph:96;tof:10;h:0;bat:58;baro:15.47;time:0;agx:289.00;agy:302.00;agz:-838.00;

¤]",58,16,-21,-110,0,0,0,289.00,302.00,-838.00,15.47,10,0
8432.300858,"pitch:16;roll:-22;yaw:-109;vgx:0;vgy:0;vgz:0;templ:93;temph:96;tof:10;h:0;bat:58;baro:15.43;time:0;agx:313.00;agy:359.00;agz:-897.00;

¤]",58,16,-22,-109,0,0,0,313.00,359.00,-897.00,15.43,10,0
8432.404723,"pitch:16;roll:-23;yaw:-109;vgx:0;vgy:0;vgz:0;templ:93;temph:95;tof:10;h:0;bat:58;baro:15.43;time:0;agx:320.00;agy:382.00;agz:-868.00;

¤]",58,16,-23,-109,0,0,0,320.00,382.00,-868.00,15.43,10,0
8432.504987,"pitch:16;roll:-24;yaw:-109;vgx:0;vgy:0;vgz:0;templ:93;temph:95;tof:10;h:0;bat:58;baro:15.41;time:0;agx:327.00;agy:406.00;agz:-866.00;

¤]",58,16,-24,-109,0,0,0,327.00,406.00,-866.00,15.41,10,0
8432.607041,"pitch:16;roll:-24;yaw:-108;vgx:0;vgy:0;vgz:0;templ:93;temph:95;tof:10;h:0;bat:58;baro:15.45;time:0;agx:307.00;agy:387.00;agz:-849.00;

¤]",58,16,-24,-108,0,0,0,307.00,387.00,-849.00,15.45,10,0
8432.709081,"pitch:15;roll:-25;yaw:-107;vgx:0;vgy:0;vgz:0;templ:93;temph:95;tof:10;h:0;bat:58;baro:15.43;time:0;agx:283.00;agy:378.00;agz:-867.00;

¤]",58,15,-25,-107,0,0,0,283.00,378.00,-867.00,15.43,10,0
8432.811080,"pitch:15;roll:-25;yaw:-106;vgx:0;vgy:0;vgz:0;templ:93;temph:95;tof:10;h:0;bat:58;baro:15.43;time:0;agx:290.00;agy:459.00;agz:-881.00;

¤]",58,15,-25,-106,0,0,0,290.00,459.00,-881.00,15.43,10,0
8432.913118,"pitch:16;roll:-25;yaw:-105;vgx:0;vgy:0;vgz:0;templ:93;temph:95;tof:10;h:0;bat:58;baro:15.42;time:0;agx:260.00;agy:345.00;agz:-828.00;

¤]",58,16,-25,-105,0,0,0,260.00,345.00,-828.00,15.42,10,0
8433.015511,"pitch:17;roll:-25;yaw:-104;vgx:0;vgy:0;vgz:0;templ:93;temph:95;tof:10;h:0;bat:58;baro:15.40;time:0;agx:272.00;agy:445.00;agz:-908.00;

¤]",58,17,-25,-104,0,0,0,272.00,445.00,-908.00,15.40,10,0
8433.117122,"pitch:17;roll:-25;yaw:-104;vgx:0;vgy:0;vgz:0;templ:93;temph:95;tof:10;h:0;bat:58;baro:15.44;time:0;agx:281.00;agy:364.00;agz:-840.00;

¤]",58,17,-25,-104,0,0,0,281.00,364.00,-840.00,15.44,10,0
8433.219072,"pitch:18;roll:-26;yaw:-104;vgx:0;vgy:0;vgz:0;templ:93;temph:95;tof:10;h:0;bat:58;baro:15.37;time:0;agx:322.00;agy:454.00;agz:-842.00;

¤]",58,18,-26,-104,0,0,0,322.00,454.00,-842.00,15.37,10,0
8433.321261,"pitch:18;roll:-27;yaw:-103;vgx:0;vgy:0;vgz:0;templ:93;temph:95;tof:10;h:0;bat:58;baro:15.37;time:0;agx:296.00;agy:480.00;agz:-851.00;

¤]",58,18,-27,-103,0,0,0,296.00,480.00,-851.00,15.37,10,0
8433.423074,"pitch:19;roll:-28;yaw:-102;vgx:0;vgy:0;vgz:0;templ:92;temph:95;tof:10;h:0;bat:58;baro:15.39;time:0;agx:401.00;agy:448.00;agz:-815.00;

¤]",58,19,-28,-102,0,0,0,401.00,448.00,-815.00,15.39,10,0
8433.525172,"pitch:21;roll:-31;yaw:-100;vgx:0;vgy:0;vgz:0;templ:92;temph:95;tof:10;h:0;bat:58;baro:15.40;time:0;agx:349.00;agy:454.00;agz:-776.00;

¤]",58,21,-31,-100,0,0,0,349.00,454.00,-776.00,15.40,10,0
8433.627169,"pitch:27;roll:-34;yaw:-99;vgx:0;vgy:0;vgz:0;templ:92;temph:95;tof:10;h:0;bat:58;baro:15.41;time:0;agx:473.00;agy:463.00;agz:-765.00;


¤]",58,27,-34,-99,0,0,0,473.00,463.00,-765.00,15.41,10,0
8433.729201,"pitch:31;roll:-36;yaw:-100;vgx:0;vgy:0;vgz:0;templ:92;temph:95;tof:10;h:0;bat:58;baro:15.41;time:0;agx:458.00;agy:521.00;agz:-711.00;

¤]",58,31,-36,-100,0,0,0,458.00,521.00,-711.00,15.41,10,0
8433.830977,"pitch:29;roll:-34;yaw:-100;vgx:0;vgy:0;vgz:0;templ:92;temph:95;tof:10;h:0;bat:58;baro:15.40;time:0;agx:487.00;agy:538.00;agz:-718.00;

¤]",58,29,-34,-100,0,0,0,487.00,538.00,-718.00,15.40,10,0
8433.932955,"pitch:29;roll:-34;yaw:-100;vgx:0;vgy:0;vgz:0;templ:92;temph:95;tof:10;h:0;bat:58;baro:15.42;time:0;agx:496.00;agy:504.00;agz:-754.00;

¤]",58,29,-34,-100,0,0,0,496.00,504.00,-754.00,15.42,10,0
8434.037290,"pitch:28;roll:-35;yaw:-99;vgx:0;vgy:0;vgz:0;templ:92;temph:95;tof:10;h:0;bat:58;baro:15.34;time:0;agx:464.00;agy:482.00;agz:-700.00;


¤]",58,28,-35,-99,0,0,0,464.00,482.00,-700.00,15.34,10,0
8434.138998,"pitch:27;roll:-35;yaw:-97;vgx:0;vgy:0;vgz:0;templ:92;temph:95;tof:10;h:0;bat:58;baro:15.37;time:0;agx:480.00;agy:468.00;agz:-708.00;


¤]",58,27,-35,-97,0,0,0,480.00,468.00,-708.00,15.37,10,0
8434.238944,"pitch:25;roll:-35;yaw:-96;vgx:0;vgy:0;vgz:0;templ:92;temph:95;tof:10;h:0;bat:58;baro:15.38;time:0;agx:476.00;agy:472.00;agz:-741.00;


¤]",58,25,-35,-96,0,0,0,476.00,472.00,-741.00,15.38,10,0
8434.290078,"pitch:24;roll:-36;yaw:-96;vgx:0;vgy:0;vgz:0;templ:92;temph:95;tof:10;h:0;bat:58;baro:15.33;time:0;agx:434.00;agy:562.00;agz:-786.00;


¤]",58,24,-36,-96,0,0,0,434.00,562.00,-786.00,15.33,10,0
8434.442961,"pitch:23;roll:-36;yaw:-96;vgx:0;vgy:0;vgz:0;templ:93;temph:95;tof:10;h:0;bat:58;baro:15.40;time:0;agx:399.00;agy:528.00;agz:-738.00;


¤]",58,23,-36,-96,0,0,0,399.00,528.00,-738.00,15.40,10,0
8434.494146,"pitch:22;roll:-35;yaw:-96;vgx:0;vgy:0;vgz:0;templ:93;temph:95;tof:10;h:0;bat:58;baro:15.36;time:0;agx:373.00;agy:554.00;agz:-783.00;


¤]",58,22,-35,-96,0,0,0,373.00,554.00,-783.00,15.36,10,0
8434.596116,"pitch:20;roll:-35;yaw:-96;vgx:0;vgy:0;vgz:0;templ:93;temph:95;tof:10;h:0;bat:58;baro:15.35;time:0;agx:338.00;agy:531.00;agz:-783.00;


¤]",58,20,-35,-96,0,0,0,338.00,531.00,-783.00,15.35,10,0
8434.698179,"pitch:17;roll:-34;yaw:-96;vgx:0;vgy:0;vgz:0;templ:93;temph:95;tof:10;h:0;bat:58;baro:15.38;time:0;agx:291.00;agy:536.00;agz:-786.00;


¤]",58,17,-34,-96,0,0,0,291.00,536.00,-786.00,15.38,10,0
8434.800835,"pitch:14;roll:-34;yaw:-96;vgx:0;vgy:0;vgz:0;templ:93;temph:95;tof:10;h:0;bat:58;baro:15.33;time:0;agx:259.00;agy:590.00;agz:-821.00;


¤]",58,14,-34,-96,0,0,0,259.00,590.00,-821.00,15.33,10,0
8434.902261,"pitch:11;roll:-34;yaw:-95;vgx:0;vgy:0;vgz:0;templ:93;temph:95;tof:10;h:0;bat:58;baro:15.39;time:0;agx:194.00;agy:543.00;agz:-854.00;


¤]",58,11,-34,-95,0,0,0,194.00,543.00,-854.00,15.39,10,0
8435.004122,"pitch:8;roll:-34;yaw:-95;vgx:0;vgy:0;vgz:0;templ:93;temph:95;tof:10;h:0;bat:58;baro:15.42;time:0;agx:179.00;agy:540.00;agz:-791.00;



¤]",58,8,-34,-95,0,0,0,179.00,540.00,-791.00,15.42,10,0
8435.106082,"pitch:7;roll:-33;yaw:-94;vgx:0;vgy:0;vgz:0;templ:93;temph:95;tof:10;h:0;bat:58;baro:15.44;time:0;agx:112.00;agy:548.00;agz:-828.00;



¤]",58,7,-33,-94,0,0,0,112.00,548.00,-828.00,15.44,10,0
8435.207939,"pitch:5;roll:-33;yaw:-94;vgx:0;vgy:0;vgz:0;templ:93;temph:95;tof:10;h:0;bat:58;baro:15.36;time:0;agx:106.00;agy:568.00;agz:-851.00;



¤]",58,5,-33,-94,0,0,0,106.00,568.00,-851.00,15.36,10,0
8435.310040,"pitch:5;roll:-33;yaw:-92;vgx:0;vgy:0;vgz:0;templ:93;temph:95;tof:10;h:0;bat:58;baro:15.39;time:0;agx:46.00;agy:539.00;agz:-832.00;




¤]",58,5,-33,-92,0,0,0,46.00,539.00,-832.00,15.39,10,0
8435.411980,"pitch:4;roll:-33;yaw:-92;vgx:0;vgy:0;vgz:0;templ:93;temph:96;tof:10;h:0;bat:58;baro:15.40;time:0;agx:87.00;agy:564.00;agz:-836.00;




¤]",58,4,-33,-92,0,0,0,87.00,564.00,-836.00,15.40,10,0
8435.514028,"pitch:5;roll:-33;yaw:-92;vgx:0;vgy:0;vgz:0;templ:93;temph:96;tof:10;h:0;bat:58;baro:15.37;time:0;agx:81.00;agy:571.00;agz:-867.00;




¤]",58,5,-33,-92,0,0,0,81.00,571.00,-867.00,15.37,10,0
8435.616000,"pitch:6;roll:-33;yaw:-92;vgx:0;vgy:0;vgz:0;templ:93;temph:96;tof:10;h:0;bat:58;baro:15.36;time:0;agx:32.00;agy:473.00;agz:-790.00;




¤]",58,6,-33,-92,0,0,0,32.00,473.00,-790.00,15.36,10,0
8435.718197,"pitch:11;roll:-33;yaw:-92;vgx:0;vgy:0;vgz:0;templ:93;temph:96;tof:10;h:0;bat:58;baro:15.38;time:0;agx:210.00;agy:464.00;agz:-755.00;


¤]",58,11,-33,-92,0,0,0,210.00,464.00,-755.00,15.38,10,0
8435.819922,"pitch:24;roll:-37;yaw:-94;vgx:0;vgy:0;vgz:0;templ:93;temph:96;tof:10;h:0;bat:58;baro:15.36;time:0;agx:411.00;agy:615.00;agz:-791.00;


¤]",58,24,-37,-94,0,0,0,411.00,615.00,-791.00,15.36,10,0
8435.922096,"pitch:26;roll:-40;yaw:-95;vgx:0;vgy:0;vgz:0;templ:93;temph:96;tof:10;h:0;bat:58;baro:15.40;time:0;agx:444.00;agy:589.00;agz:-653.00;


¤]",58,26,-40,-95,0,0,0,444.00,589.00,-653.00,15.40,10,0
8436.024137,"pitch:26;roll:-42;yaw:-96;vgx:0;vgy:0;vgz:0;templ:93;temph:96;tof:10;h:0;bat:58;baro:15.37;time:0;agx:406.00;agy:765.00;agz:-644.00;


¤]",58,26,-42,-96,0,0,0,406.00,765.00,-644.00,15.37,10,0
8436.126096,"pitch:27;roll:-42;yaw:-97;vgx:0;vgy:0;vgz:0;templ:93;temph:96;tof:10;h:0;bat:58;baro:15.39;time:0;agx:417.00;agy:510.00;agz:-663.00;


¤]",58,27,-42,-97,0,0,0,417.00,510.00,-663.00,15.39,10,0
8436.228290,"pitch:25;roll:-41;yaw:-97;vgx:0;vgy:0;vgz:0;templ:93;temph:96;tof:10;h:0;bat:58;baro:15.40;time:0;agx:428.00;agy:618.00;agz:-678.00;


¤]",58,25,-41,-97,0,0,0,428.00,618.00,-678.00,15.40,10,0
8436.330173,"pitch:19;roll:-40;yaw:-98;vgx:0;vgy:0;vgz:0;templ:93;temph:96;tof:10;h:0;bat:58;baro:15.38;time:0;agx:291.00;agy:600.00;agz:-703.00;


¤]",58,19,-40,-98,0,0,0,291.00,600.00,-703.00,15.38,10,0
8436.432139,"pitch:16;roll:-39;yaw:-98;vgx:0;vgy:0;vgz:0;templ:93;temph:95;tof:10;h:0;bat:58;baro:15.38;time:0;agx:204.00;agy:638.00;agz:-757.00;


¤]",58,16,-39,-98,0,0,0,204.00,638.00,-757.00,15.38,10,0
8436.534033,"pitch:15;roll:-37;yaw:-101;vgx:0;vgy:0;vgz:0;templ:93;temph:95;tof:10;h:0;bat:58;baro:15.36;time:0;agx:271.00;agy:586.00;agz:-816.00;

¤]",58,15,-37,-101,0,0,0,271.00,586.00,-816.00,15.36,10,0
8436.636407,"pitch:14;roll:-36;yaw:-104;vgx:0;vgy:0;vgz:0;templ:93;temph:95;tof:10;h:0;bat:58;baro:15.41;time:0;agx:337.00;agy:523.00;agz:-739.00;

¤]",58,14,-36,-104,0,0,0,337.00,523.00,-739.00,15.41,10,0
8436.737948,"pitch:13;roll:-34;yaw:-107;vgx:0;vgy:0;vgz:0;templ:93;temph:95;tof:10;h:0;bat:58;baro:15.40;time:0;agx:236.00;agy:510.00;agz:-791.00;

¤]",58,13,-34,-107,0,0,0,236.00,510.00,-791.00,15.40,10,0
8436.840175,"pitch:12;roll:-34;yaw:-108;vgx:0;vgy:0;vgz:0;templ:93;temph:95;tof:10;h:0;bat:58;baro:15.39;time:0;agx:136.00;agy:435.00;agz:-863.00;

¤]",58,12,-34,-108,0,0,0,136.00,435.00,-863.00,15.39,10,0
8436.941935,"pitch:13;roll:-32;yaw:-109;vgx:0;vgy:0;vgz:0;templ:93;temph:95;tof:10;h:0;bat:58;baro:15.41;time:0;agx:213.00;agy:563.00;agz:-821.00;

¤]",58,13,-32,-109,0,0,0,213.00,563.00,-821.00,15.41,10,0
8437.043910,"pitch:13;roll:-29;yaw:-109;vgx:0;vgy:0;vgz:0;templ:93;temph:95;tof:10;h:0;bat:58;baro:15.43;time:0;agx:202.00;agy:487.00;agz:-796.00;

¤]",58,13,-29,-109,0,0,0,202.00,487.00,-796.00,15.43,10,0
8437.145924,"pitch:11;roll:-29;yaw:-109;vgx:0;vgy:0;vgz:0;templ:93;temph:95;tof:10;h:0;bat:58;baro:15.35;time:0;agx:190.00;agy:374.00;agz:-729.00;

¤]",58,11,-29,-109,0,0,0,190.00,374.00,-729.00,15.35,10,0
8437.248269,"pitch:10;roll:-31;yaw:-109;vgx:0;vgy:0;vgz:0;templ:93;temph:95;tof:10;h:0;bat:58;baro:15.36;time:0;agx:198.00;agy:559.00;agz:-797.00;

¤]",58,10,-31,-109,0,0,0,198.00,559.00,-797.00,15.36,10,0
8437.300890,"pitch:13;roll:-30;yaw:-112;vgx:0;vgy:0;vgz:0;templ:93;temph:95;tof:10;h:0;bat:58;baro:15.35;time:0;agx:316.00;agy:533.00;agz:-997.00;

¤]",58,13,-30,-112,0,0,0,316.00,533.00,-997.00,15.35,10,0
8437.452099,"pitch:10;roll:-41;yaw:-120;vgx:0;vgy:0;vgz:0;templ:93;temph:95;tof:10;h:0;bat:58;baro:15.34;time:0;agx:182.00;agy:508.00;agz:-744.00;

¤]",58,10,-41,-120,0,0,0,182.00,508.00,-744.00,15.34,10,0
8437.553867,"pitch:8;roll:-50;yaw:-122;vgx:0;vgy:0;vgz:0;templ:93;temph:95;tof:10;h:0;bat:58;baro:15.37;time:0;agx:270.00;agy:584.00;agz:-902.00;


¤]",58,8,-50,-122,0,0,0,270.00,584.00,-902.00,15.37,10,0
8437.655951,"pitch:9;roll:-60;yaw:-123;vgx:0;vgy:0;vgz:0;templ:93;temph:95;tof:10;h:0;bat:58;baro:15.37;time:0;agx:137.00;agy:636.00;agz:-739.00;
