t_sec,raw,bat,pitch,roll,yaw,vgx,vgy,vgz,agx,agy,agz,baro,tof,h
12957.902233,"pitch:0;roll:0;yaw:168;vgx:0;vgy:0;vgz:0;templ:87;temph:90;tof:10;h:0;bat:30;baro:9.09;time:0;agx:-3.00;agy:1.00;agz:-999.00;
",30,0,0,168,0,0,0,-3.00,1.00,-999.00,9.09,10,0
12958.029165,"pitch:0;roll:0;yaw:168;vgx:0;vgy:0;vgz:0;templ:87;temph:90;tof:10;h:0;bat:30;baro:9.13;time:0;agx:-2.00;agy:-7.00;agz:-1003.00;
",30,0,0,168,0,0,0,-2.00,-7.00,-1003.00,9.13,10,0
12958.105938,"pitch:0;roll:0;yaw:168;vgx:0;vgy:0;vgz:0;templ:87;temph:90;tof:10;h:0;bat:30;baro:9.11;time:0;agx:-1.00;agy:-2.00;agz:-999.00;

",30,0,0,168,0,0,0,-1.00,-2.00,-999.00,9.11,10,0
12958.208049,"pitch:0;roll:0;yaw:168;vgx:0;vgy:0;vgz:0;templ:87;temph:90;tof:10;h:0;bat:30;baro:9.10;time:0;agx:-1.00;agy:4.00;agz:-998.00;


",30,0,0,168,0,0,0,-1.00,4.00,-998.00,9.10,10,0
12958.313473,"pitch:0;roll:0;yaw:168;vgx:0;vgy:0;vgz:0;templ:87;temph:90;tof:10;h:0;bat:30;baro:9.13;time:0;agx:1.00;agy:1.00;agz:-1004.00;


",30,0,0,168,0,0,0,1.00,1.00,-1004.00,9.13,10,0
12958.411776,"pitch:0;roll:0;yaw:168;vgx:0;vgy:0;vgz:0;templ:87;temph:90;tof:10;h:0;bat:30;baro:9.12;time:0;agx:2.00;agy:-3.00;agz:-1001.00;

",30,0,0,168,0,0,0,2.00,-3.00,-1001.00,9.12,10,0
12958.540962,"pitch:0;roll:0;yaw:168;vgx:0;vgy:0;vgz:0;templ:87;temph:90;tof:10;h:0;bat:30;baro:9.13;time:0;agx:0.00;agy:0.00;agz:-1000.00;


",30,0,0,168,0,0,0,0.00,0.00,-1000.00,9.13,10,0
12958.616065,"pitch:0;roll:0;yaw:168;vgx:0;vgy:0;vgz:0;templ:87;temph:90;tof:10;h:0;bat:30;baro:9.05;time:0;agx:-2.00;agy:0.00;agz:-1000.00;

",30,0,0,168,0,0,0,-2.00,0.00,-1000.00,9.05,10,0
12958.746183,"pitch:0;roll:0;yaw:168;vgx:0;vgy:0;vgz:0;templ:87;temph:90;tof:10;h:0;bat:30;baro:9.09;time:0;agx:-1.00;agy:0.00;agz:-1000.00;

",30,0,0,168,0,0,0,-1.00,0.00,-1000.00,9.09,10,0
12958.819656,"pitch:0;roll:0;yaw:168;vgx:0;vgy:0;vgz:0;templ:87;temph:90;tof:10;h:0;bat:30;baro:9.09;time:0;agx:-1.00;agy:-2.00;agz:-999.00;

",30,0,0,168,0,0,0,-1.00,-2.00,-999.00,9.09,10,0
12958.921898,"pitch:0;roll:0;yaw:168;vgx:0;vgy:0;vgz:0;templ:87;temph:90;tof:10;h:0;bat:30;baro:9.08;time:0;agx:-1.00;agy:0.00;agz:-998.00;


",30,0,0,168,0,0,0,-1.00,0.00,-998.00,9.08,10,0
12959.023919,"pitch:0;roll:0;yaw:168;vgx:0;vgy:0;vgz:0;templ:87;temph:90;tof:10;h:0;bat:30;baro:9.08;time:0;agx:-1.00;agy:0.00;agz:-1002.00;

",30,0,0,168,0,0,0,-1.00,0.00,-1002.00,9.08,10,0
12959.125708,"pitch:0;roll:0;yaw:168;vgx:0;vgy:0;vgz:0;templ:87;temph:90;tof:10;h:0;bat:30;baro:9.08;time:0;agx:1.00;agy:-2.00;agz:-1001.00;

",30,0,0,168,0,0,0,1.00,-2.00,-1001.00,9.08,10,0
12959.227520,"pitch:0;roll:0;yaw:168;vgx:0;vgy:0;vgz:0;templ:87;temph:90;tof:10;h:0;bat:30;baro:9.07;time:0;agx:-1.00;agy:0.00;agz:-997.00;


",30,0,0,168,0,0,0,-1.00,0.00,-997.00,9.07,10,0
12959.329502,"pitch:0;roll:0;yaw:168;vgx:0;vgy:0;vgz:0;templ:87;temph:90;tof:10;h:0;bat:30;baro:9.10;time:0;agx:0.00;agy:-3.00;agz:-1001.00;

",30,0,0,168,0,0,0,0.00,-3.00,-1001.00,9.10,10,0
12959.431736,"pitch:0;roll:0;yaw:168;vgx:0;vgy:0;vgz:0;templ:87;temph:90;tof:10;h:0;bat:30;baro:9.11;time:0;agx:-1.00;agy:0.00;agz:-1000.00;

",30,0,0,168,0,0,0,-1.00,0.00,-1000.00,9.11,10,0
12959.533590,"pitch:0;roll:0;yaw:168;vgx:0;vgy:0;vgz:0;templ:87;temph:90;tof:10;h:0;bat:30;baro:9.13;time:0;agx:-1.00;agy:0.00;agz:-998.00;


",30,0,0,168,0,0,0,-1.00,0.00,-998.00,9.13,10,0
12959.635518,"pitch:0;roll:0;yaw:168;vgx:0;vgy:0;vgz:0;templ:87;temph:90;tof:10;h:0;bat:30;baro:9.08;time:0;agx:0.00;agy:-2.00;agz:-1001.00;

",30,0,0,168,0,0,0,0.00,-2.00,-1001.00,9.08,10,0
12959.737817,"pitch:0;roll:0;yaw:168;vgx:0;vgy:0;vgz:0;templ:87;temph:90;tof:10;h:0;bat:30;baro:9.11;time:0;agx:-1.00;agy:0.00;agz:-1001.00;

",30,0,0,168,0,0,0,-1.00,0.00,-1001.00,9.11,10,0
12959.839923,"pitch:0;roll:0;yaw:168;vgx:0;vgy:0;vgz:0;templ:87;temph:90;tof:10;h:0;bat:30;baro:9.12;time:0;agx:0.00;agy:-1.00;agz:-1000.00;

",30,0,0,168,0,0,0,0.00,-1.00,-1000.00,9.12,10,0
12959.943464,"pitch:0;roll:0;yaw:168;vgx:0;vgy:0;vgz:0;templ:87;temph:90;tof:10;h:0;bat:30;baro:9.10;time:0;agx:0.00;agy:-1.00;agz:-998.00;


",30,0,0,168,0,0,0,0.00,-1.00,-998.00,9.10,10,0
12960.044706,"pitch:0;roll:0;yaw:168;vgx:0;vgy:0;vgz:0;templ:87;temph:90;tof:10;h:0;bat:30;baro:9.12;time:0;agx:-1.00;agy:-1.00;agz:-999.00;

",30,0,0,168,0,0,0,-1.00,-1.00,-999.00,9.12,10,0
12960.145408,"pitch:0;roll:0;yaw:168;vgx:0;vgy:0;vgz:0;templ:87;temph:90;tof:10;h:0;bat:30;baro:9.12;time:0;agx:0.00;agy:0.00;agz:-1002.00;


",30,0,0,168,0,0,0,0.00,0.00,-1002.00,9.12,10,0
12960.247532,"pitch:0;roll:0;yaw:168;vgx:0;vgy:0;vgz:0;templ:87;temph:90;tof:10;h:0;bat:30;baro:9.07;time:0;agx:0.00;agy:4.00;agz:-995.00;



",30,0,0,168,0,0,0,0.00,4.00,-995.00,9.07,10,0
12960.349862,"pitch:0;roll:0;yaw:168;vgx:0;vgy:0;vgz:0;templ:87;temph:90;tof:10;h:0;bat:30;baro:9.08;time:0;agx:1.00;agy:1.00;agz:-1003.00;


",30,0,0,168,0,0,0,1.00,1.00,-1003.00,9.08,10,0
12960.451618,"pitch:0;roll:0;yaw:168;vgx:0;vgy:0;vgz:0;templ:87;temph:90;tof:10;h:0;bat:30;baro:9.06;time:0;agx:-1.00;agy:-2.00;agz:-1000.00;
",30,0,0,168,0,0,0,-1.00,-2.00,-1000.00,9.06,10,0
12960.553680,"pitch:0;roll:0;yaw:168;vgx:0;vgy:0;vgz:0;templ:87;temph:90;tof:10;h:0;bat:30;baro:9.07;time:0;agx:0.00;agy:-5.00;agz:-1001.00;

",30,0,0,168,0,0,0,0.00,-5.00,-1001.00,9.07,10,0
12960.655473,"pitch:0;roll:0;yaw:168;vgx:0;vgy:0;vgz:0;templ:87;temph:90;tof:10;h:0;bat:30;baro:9.08;time:0;agx:-1.00;agy:0.00;agz:-999.00;


",30,0,0,168,0,0,0,-1.00,0.00,-999.00,9.08,10,0
12960.757577,"pitch:0;roll:0;yaw:168;vgx:0;vgy:0;vgz:0;templ:87;temph:90;tof:10;h:0;bat:30;baro:9.11;time:0;agx:0.00;agy:1.00;agz:-1000.00;


",30,0,0,168,0,0,0,0.00,1.00,-1000.00,9.11,10,0
12960.859635,"pitch:0;roll:0;yaw:168;vgx:0;vgy:0;vgz:0;templ:87;temph:90;tof:10;h:0;bat:30;baro:9.09;time:0;agx:1.00;agy:-2.00;agz:-999.00;


",30,0,0,168,0,0,0,1.00,-2.00,-999.00,9.09,10,0
12960.961585,"pitch:0;roll:0;yaw:168;vgx:0;vgy:0;vgz:0;templ:87;temph:90;tof:10;h:0;bat:30;baro:9.07;time:0;agx:0.00;agy:-3.00;agz:-997.00;


",30,0,0,168,0,0,0,0.00,-3.00,-997.00,9.07,10,0
12961.016522,"pitch:0;roll:0;yaw:168;vgx:0;vgy:0;vgz:0;templ:87;temph:90;tof:10;h:0;bat:30;baro:9.08;time:0;agx:1.00;agy:0.00;agz:-997.00;



",30,0,0,168,0,0,0,1.00,0.00,-997.00,9.08,10,0
12961.114751,"pitch:0;roll:0;yaw:168;vgx:0;vgy:0;vgz:0;templ:87;temph:90;tof:10;h:0;bat:30;baro:9.12;time:0;agx:0.00;agy:-2.00;agz:-999.00;


",30,0,0,168,0,0,0,0.00,-2.00,-999.00,9.12,10,0
12961.217183,"pitch:0;roll:0;yaw:168;vgx:0;vgy:0;vgz:0;templ:87;temph:90;tof:10;h:0;bat:30;baro:9.11;time:0;agx:-1.00;agy:-1.00;agz:-999.00;

",30,0,0,168,0,0,0,-1.00,-1.00,-999.00,9.11,10,0
12961.320955,"pitch:0;roll:0;yaw:168;vgx:0;vgy:0;vgz:0;templ:87;temph:90;tof:10;h:0;bat:30;baro:9.12;time:0;agx:-1.00;agy:-1.00;agz:-998.00;

",30,0,0,168,0,0,0,-1.00,-1.00,-998.00,9.12,10,0
12961.421698,"pitch:0;roll:0;yaw:168;vgx:0;vgy:0;vgz:0;templ:88;temph:90;tof:10;h:0;bat:30;baro:9.11;time:0;agx:0.00;agy:-2.00;agz:-999.00;


",30,0,0,168,0,0,0,0.00,-2.00,-999.00,9.11,10,0
12961.523345,"pitch:0;roll:0;yaw:168;vgx:0;vgy:0;vgz:0;templ:88;temph:90;tof:10;h:0;bat:30;baro:9.15;time:0;agx:2.00;agy:-2.00;agz:-999.00;


",30,0,0,168,0,0,0,2.00,-2.00,-999.00,9.15,10,0
12961.624549,"pitch:0;roll:0;yaw:168;vgx:0;vgy:0;vgz:0;templ:88;temph:90;tof:10;h:0;bat:30;baro:9.14;time:0;agx:0.00;agy:1.00;agz:-1000.00;


",30,0,0,168,0,0,0,0.00,1.00,-1000.00,9.14,10,0
12961.729066,"pitch:0;roll:0;yaw:168;vgx:0;vgy:0;vgz:0;templ:88;temph:90;tof:10;h:0;bat:30;baro:9.10;time:0;agx:0.00;agy:0.00;agz:-1000.00;


",30,0,0,168,0,0,0,0.00,0.00,-1000.00,9.10,10,0
12961.828411,"pitch:0;roll:0;yaw:168;vgx:0;vgy:0;vgz:0;templ:88;temph:90;tof:10;h:0;bat:30;baro:9.07;time:0;agx:2.00;agy:-4.00;agz:-1000.00;

",30,0,0,168,0,0,0,2.00,-4.00,-1000.00,9.07,10,0
12961.930585,"pitch:0;roll:0;yaw:168;vgx:0;vgy:0;vgz:0;templ:88;temph:90;tof:10;h:0;bat:30;baro:9.07;time:0;agx:1.00;agy:-2.00;agz:-1000.00;

",30,0,0,168,0,0,0,1.00,-2.00,-1000.00,9.07,10,0
12962.032370,"pitch:0;roll:0;yaw:168;vgx:0;vgy:0;vgz:0;templ:88;temph:90;tof:10;h:0;bat:30;baro:9.13;time:0;agx:-1.00;agy:1.00;agz:-997.00;


",30,0,0,168,0,0,0,-1.00,1.00,-997.00,9.13,10,0
12962.136217,"pitch:0;roll:0;yaw:168;vgx:0;vgy:0;vgz:0;templ:88;temph:90;tof:10;h:0;bat:30;baro:9.10;time:0;agx:0.00;agy:0.00;agz:-1000.00;


",30,0,0,168,0,0,0,0.00,0.00,-1000.00,9.10,10,0
12962.236427,"pitch:0;roll:0;yaw:168;vgx:0;vgy:0;vgz:0;templ:88;temph:90;tof:10;h:0;bat:30;baro:9.15;time:0;agx:-3.00;agy:-1.00;agz:-1001.00;
",30,0,0,168,0,0,0,-3.00,-1.00,-1001.00,9.15,10,0
12962.338314,"pitch:0;roll:0;yaw:168;vgx:0;vgy:0;vgz:0;templ:88;temph:90;tof:10;h:0;bat:30;baro:9.14;time:0;agx:-1.00;agy:-3.00;agz:-997.00;

",30,0,0,168,0,0,0,-1.00,-3.00,-997.00,9.14,10,0
12962.440466,"pitch:0;roll:0;yaw:168;vgx:0;vgy:0;vgz:0;templ:88;temph:90;tof:10;h:0;bat:30;baro:9.07;time:0;agx:-3.00;agy:0.00;agz:-997.00;


",30,0,0,168,0,0,0,-3.00,0.00,-997.00,9.07,10,0
12962.544792,"pitch:0;roll:0;yaw:168;vgx:0;vgy:0;vgz:0;templ:88;temph:90;tof:10;h:0;bat:30;baro:9.11;time:0;agx:-1.00;agy:-1.00;agz:-1003.00;
",30,0,0,168,0,0,0,-1.00,-1.00,-1003.00,9.11,10,0
12962.644494,"pitch:0;roll:0;yaw:168;vgx:0;vgy:0;vgz:0;templ:88;temph:90;tof:10;h:0;bat:30;baro:9.11;time:0;agx:0.00;agy:1.00;agz:-997.00;
;
",30,0,0,168,0,0,0,0.00,1.00,-997.00,9.11,10,0
12962.746400,"pitch:0;roll:0;yaw:168;vgx:0;vgy:0;vgz:0;templ:88;temph:90;tof:10;h:0;bat:30;baro:9.10;time:0;agx:1.00;agy:-4.00;agz:-1002.00;

",30,0,0,168,0,0,0,1.00,-4.00,-1002.00,9.10,10,0
12962.848476,"pitch:0;roll:0;yaw:168;vgx:0;vgy:0;vgz:0;templ:88;temph:90;tof:10;h:0;bat:30;baro:9.06;time:0;agx:0.00;agy:-1.00;agz:-999.00;


",30,0,0,168,0,0,0,0.00,-1.00,-999.00,9.06,10,0
12962.950430,"pitch:0;roll:0;yaw:168;vgx:0;vgy:0;vgz:0;templ:88;temph:90;tof:10;h:0;bat:30;baro:9.16;time:0;agx:-1.00;agy:0.00;agz:-1002.00;

",30,0,0,168,0,0,0,-1.00,0.00,-1002.00,9.16,10,0
12963.060365,"pitch:0;roll:0;yaw:168;vgx:0;vgy:0;vgz:0;templ:88;temph:90;tof:10;h:0;bat:30;baro:9.12;time:0;agx:-1.00;agy:-1.00;agz:-997.00;

",30,0,0,168,0,0,0,-1.00,-1.00,-997.00,9.12,10,0
12963.154364,"pitch:0;roll:0;yaw:168;vgx:0;vgy:0;vgz:0;templ:88;temph:90;tof:10;h:0;bat:30;baro:9.10;time:0;agx:0.00;agy:-2.00;agz:-1001.00;

",30,0,0,168,0,0,0,0.00,-2.00,-1001.00,9.10,10,0
12963.256453,"pitch:0;roll:0;yaw:168;vgx:0;vgy:0;vgz:0;templ:88;temph:90;tof:10;h:0;bat:30;baro:9.12;time:0;agx:-2.00;agy:1.00;agz:-998.00;


",30,0,0,168,0,0,0,-2.00,1.00,-998.00,9.12,10,0
12963.358297,"pitch:0;roll:0;yaw:168;vgx:0;vgy:0;vgz:0;templ:88;temph:90;tof:10;h:0;bat:30;baro:9.12;time:0;agx:0.00;agy:-1.00;agz:-998.00;


",30,0,0,168,0,0,0,0.00,-1.00,-998.00,9.12,10,0
12963.460446,"pitch:0;roll:0;yaw:168;vgx:0;vgy:0;vgz:0;templ:88;temph:90;tof:10;h:0;bat:30;baro:9.07;time:0;agx:1.00;agy:-3.00;agz:-1003.00;

",30,0,0,168,0,0,0,1.00,-3.00,-1003.00,9.07,10,0
12963.562505,"pitch:0;roll:0;yaw:168;vgx:0;vgy:0;vgz:0;templ:88;temph:90;tof:10;h:0;bat:30;baro:9.07;time:0;agx:-1.00;agy:0.00;agz:-998.00;


",30,0,0,168,0,0,0,-1.00,0.00,-998.00,9.07,10,0
12963.665299,"pitch:0;roll:0;yaw:168;vgx:0;vgy:0;vgz:0;templ:88;temph:90;tof:10;h:0;bat:30;baro:9.09;time:0;agx:0.00;agy:0.00;agz:-998.00;



",30,0,0,168,0,0,0,0.00,0.00,-998.00,9.09,10,0
12963.766342,"pitch:0;roll:0;yaw:168;vgx:0;vgy:0;vgz:0;templ:88;temph:90;tof:10;h:0;bat:30;baro:9.12;time:0;agx:0.00;agy:0.00;agz:-1000.00;


",30,0,0,168,0,0,0,0.00,0.00,-1000.00,9.12,10,0
12963.868342,"pitch:0;roll:0;yaw:168;vgx:0;vgy:0;vgz:0;templ:88;temph:90;tof:10;h:0;bat:30;baro:9.09;time:0;agx:-1.00;agy:-3.00;agz:-998.00;

",30,0,0,168,0,0,0,-1.00,-3.00,-998.00,9.09,10,0
12963.970430,"pitch:0;roll:0;yaw:168;vgx:0;vgy:0;vgz:0;templ:88;temph:90;tof:10;h:0;bat:30;baro:9.10;time:0;agx:-1.00;agy:-1.00;agz:-1000.00;
",30,0,0,168,0,0,0,-1.00,-1.00,-1000.00,9.10,10,0
12964.072446,"pitch:0;roll:0;yaw:168;vgx:0;vgy:0;vgz:0;templ:88;temph:90;tof:10;h:0;bat:30;baro:9.09;time:0;agx:0.00;agy:0.00;agz:-1000.00;

",30,0,0,168,0,0,0,0.00,0.00,-1000.00,9.09,10,0
12964.175273,"pitch:0;roll:0;yaw:168;vgx:0;vgy:0;vgz:0;templ:88;temph:90;tof:10;h:0;bat:30;baro:9.11;time:0;agx:0.00;agy:0.00;agz:-998.00;


",30,0,0,168,0,0,0,0.00,0.00,-998.00,9.11,10,0
12964.279976,"pitch:0;roll:0;yaw:168;vgx:0;vgy:0;vgz:0;templ:88;temph:90;tof:10;h:0;bat:30;baro:9.11;time:0;agx:-2.00;agy:0.00;agz:-1001.00;

",30,0,0,168,0,0,0,-2.00,0.00,-1001.00,9.11,10,0
12964.328679,"pitch:0;roll:0;yaw:168;vgx:0;vgy:0;vgz:0;templ:88;temph:90;tof:10;h:0;bat:30;baro:9.04;time:0;agx:0.00;agy:-2.00;agz:-1002.00;

",30,0,0,168,0,0,0,0.00,-2.00,-1002.00,9.04,10,0
12964.481597,"pitch:0;roll:0;yaw:168;vgx:0;vgy:0;vgz:0;templ:87;temph:90;tof:10;h:0;bat:30;baro:9.12;time:0;agx:1.00;agy:-1.00;agz:-999.00;


",30,0,0,168,0,0,0,1.00,-1.00,-999.00,9.12,10,0
12964.532365,"pitch:0;roll:0;yaw:168;vgx:0;vgy:0;vgz:0;templ:87;temph:90;tof:10;h:0;bat:30;baro:9.07;time:0;agx:1.00;agy:-2.00;agz:-1000.00;

",30,0,0,168,0,0,0,1.00,-2.00,-1000.00,9.07,10,0
12964.634429,"pitch:0;roll:0;yaw:168;vgx:0;vgy:0;vgz:0;templ:87;temph:90;tof:10;h:0;bat:30;baro:9.09;time:0;agx:0.00;agy:-1.00;agz:-1002.00;

",30,0,0,168,0,0,0,0.00,-1.00,-1002.00,9.09,10,0
12964.736489,"pitch:0;roll:0;yaw:168;vgx:0;vgy:0;vgz:0;templ:87;temph:90;tof:10;h:0;bat:30;baro:9.06;time:0;agx:0.00;agy:0.00;agz:-997.00;


",30,0,0,168,0,0,0,0.00,0.00,-997.00,9.06,10,0
12964.838550,"pitch:0;roll:0;yaw:168;vgx:0;vgy:0;vgz:0;templ:87;temph:90;tof:10;h:0;bat:30;baro:9.13;time:0;agx:-1.00;agy:-2.00;agz:-998.00;

",30,0,0,168,0,0,0,-1.00,-2.00,-998.00,9.13,10,0
12964.942331,"pitch:0;roll:0;yaw:168;vgx:0;vgy:0;vgz:0;templ:87;temph:90;tof:10;h:0;bat:30;baro:9.10;time:0;agx:0.00;agy:-1.00;agz:-1001.00;

",30,0,0,168,0,0,0,0.00,-1.00,-1001.00,9.10,10,0
12965.046792,"pitch:0;roll:0;yaw:168;vgx:0;vgy:0;vgz:0;templ:87;temph:90;tof:10;h:0;bat:30;baro:9.11;time:0;agx:0.00;agy:-1.00;agz:-999.00;


",30,0,0,168,0,0,0,0.00,-1.00,-999.00,9.11,10,0
12965.147419,"pitch:0;roll:0;yaw:168;vgx:0;vgy:0;vgz:0;templ:87;temph:90;tof:10;h:0;bat:30;baro:9.09;time:0;agx:0.00;agy:-1.00;agz:-999.00;


",30,0,0,168,0,0,0,0.00,-1.00,-999.00,9.09,10,0
12965.248023,"pitch:0;roll:0;yaw:168;vgx:0;vgy:0;vgz:0;templ:87;temph:90;tof:10;h:0;bat:30;baro:9.09;time:0;agx:1.00;agy:0.00;agz:-1000.00;


",30,0,0,168,0,0,0,1.00,0.00,-1000.00,9.09,10,0
12965.352244,"pitch:0;roll:0;yaw:168;vgx:0;vgy:0;vgz:0;templ:87;temph:90;tof:10;h:0;bat:30;baro:9.13;time:0;agx:0.00;agy:0.00;agz:-999.00;



",30,0,0,168,0,0,0,0.00,0.00,-999.00,9.13,10,0
12965.452495,"pitch:0;roll:0;yaw:168;vgx:0;vgy:0;vgz:0;templ:88;temph:90;tof:10;h:0;bat:30;baro:9.08;time:0;agx:-1.00;agy:-1.00;agz:-1001.00;
",30,0,0,168,0,0,0,-1.00,-1.00,-1001.00,9.08,10,0
12965.553173,"pitch:0;roll:0;yaw:168;vgx:0;vgy:0;vgz:0;templ:88;temph:90;tof:10;h:0;bat:30;baro:9.10;time:0;agx:-2.00;agy:0.00;agz:-1001.00;

",30,0,0,168,0,0,0,-2.00,0.00,-1001.00,9.10,10,0
12965.654324,"pitch:0;roll:0;yaw:168;vgx:0;vgy:0;vgz:0;templ:88;temph:90;tof:10;h:0;bat:30;baro:9.08;time:0;agx:0.00;agy:0.00;agz:-999.00;


",30,0,0,168,0,0,0,0.00,0.00,-999.00,9.08,10,0
12965.756341,"pitch:0;roll:0;yaw:168;vgx:0;vgy:0;vgz:0;templ:88;temph:90;tof:10;h:0;bat:30;baro:9.12;time:0;agx:-2.00;agy:0.00;agz:-999.00;


",30,0,0,168,0,0,0,-2.00,0.00,-999.00,9.12,10,0
12965.858285,"pitch:0;roll:0;yaw:168;vgx:0;vgy:0;vgz:0;templ:88;temph:90;tof:10;h:0;bat:30;baro:9.09;time:0;agx:62.00;agy:29.00;agz:-1029.00;
",30,0,0,168,0,0,0,62.00,29.00,-1029.00,9.09,10,0
12965.963180,"pitch:0;roll:0;yaw:167;vgx:0;vgy:0;vgz:0;templ:88;temph:90;tof:10;h:0;bat:30;baro:9.08;time:0;agx:95.00;agy:-95.00;agz:-1176.00;
",30,0,0,167,0,0,0,95.00,-95.00,-1176.00,9.08,10,0
12966.062560,"pitch:4;roll:3;yaw:165;vgx:0;vgy:0;vgz:-1;templ:88;temph:90;tof:10;h:0;bat:30;baro:9.07;time:0;agx:-116.00;agy:-136.00;agz:-1154.00;
",30,4,3,165,0,0,-1,-116.00,-136.00,-1154.00,9.07,10,0
12966.165139,"pitch:7;roll:-2;yaw:156;vgx:1;vgy:1;vgz:-2;templ:88;temph:90;tof:10;h:0;bat:30;baro:9.14;time:0;agx:106.00;agy:-244.00;agz:-1022.00;
",30,7,-2,156,1,1,-2,106.00,-244.00,-1022.00,9.14,10,0
12966.268699,"pitch:8;roll:-2;yaw:149;vgx:2;vgy:3;vgz:-1;templ:88;temph:90;tof:10;h:0;bat:30;baro:9.13;time:0;agx:95.00;agy:-86.00;agz:-915.00;
;
",30,8,-2,149,2,3,-1,95.00,-86.00,-915.00,9.13,10,0
12966.368611,"pitch:8;roll:-1;yaw:145;vgx:3;vgy:3;vgz:0;templ:88;temph:90;tof:10;h:0;bat:30;baro:9.15;time:0;agx:45.00;agy:32.00;agz:-943.00;

;
",30,8,-1,145,3,3,0,45.00,32.00,-943.00,9.15,10,0
12966.470379,"pitch:9;roll:0;yaw:141;vgx:3;vgy:3;vgz:0;templ:88;temph:91;tof:10;h:0;bat:30;baro:9.18;time:0;agx:97.00;agy:64.00;agz:-909.00;


;
",30,9,0,141,3,3,0,97.00,64.00,-909.00,9.18,10,0
12966.572313,"pitch:8;roll:0;yaw:136;vgx:2;vgy:2;vgz:0;templ:88;temph:91;tof:10;h:0;bat:30;baro:9.15;time:0;agx:97.00;agy:127.00;agz:-893.00;

;
",30,8,0,136,2,2,0,97.00,127.00,-893.00,9.15,10,0
12966.675987,"pitch:7;roll:-1;yaw:132;vgx:2;vgy:2;vgz:1;templ:88;temph:91;tof:10;h:0;bat:30;baro:9.18;time:0;agx:90.00;agy:123.00;agz:-915.00;

;
",30,7,-1,132,2,2,1,90.00,123.00,-915.00,9.18,10,0
12966.776357,"pitch:5;roll:-1;yaw:128;vgx:1;vgy:1;vgz:2;templ:88;temph:91;tof:60;h:0;bat:30;baro:9.11;time:0;agx:66.00;agy:118.00;agz:-980.00;

;
",30,5,-1,128,1,1,2,66.00,118.00,-980.00,9.11,60,0
12966.878320,"pitch:3;roll:-2;yaw:125;vgx:1;vgy:1;vgz:2;templ:88;temph:91;tof:84;h:0;bat:30;baro:9.11;time:0;agx:63.00;agy:54.00;agz:-981.00;


;
",30,3,-2,125,1,1,2,63.00,54.00,-981.00,9.11,84,0
12966.980351,"pitch:2;roll:-2;yaw:122;vgx:1;vgy:1;vgz:2;templ:88;temph:91;tof:82;h:0;bat:30;baro:9.05;time:0;agx:58.00;agy:43.00;agz:-1012.00;

;
",30,2,-2,122,1,1,2,58.00,43.00,-1012.00,9.05,82,0
12967.084918,"pitch:1;roll:-2;yaw:120;vgx:1;vgy:1;vgz:2;templ:88;temph:91;tof:79;h:0;bat:30;baro:9.11;time:0;agx:11.00;agy:48.00;agz:-1023.00;

;
",30,1,-2,120,1,1,2,11.00,48.00,-1023.00,9.11,79,0
12967.185200,"pitch:0;roll:-1;yaw:117;vgx:1;vgy:1;vgz:1;templ:88;temph:91;tof:78;h:0;bat:30;baro:9.04;time:0;agx:-1.00;agy:47.00;agz:-978.00;


;
",30,0,-1,117,1,1,1,-1.00,47.00,-978.00,9.04,78,0
12967.287087,"pitch:0;roll:0;yaw:115;vgx:1;vgy:1;vgz:2;templ:88;temph:91;tof:76;h:0;bat:30;baro:9.02;time:0;agx:33.00;agy:8.00;agz:-984.00;



;
",30,0,0,115,1,1,2,33.00,8.00,-984.00,9.02,76,0
12967.389114,"pitch:0;roll:0;yaw:114;vgx:1;vgy:0;vgz:2;templ:88;temph:91;tof:74;h:0;bat:30;baro:9.01;time:0;agx:20.00;agy:70.00;agz:-979.00;



;
",30,0,0,114,1,0,2,20.00,70.00,-979.00,9.01,74,0
12967.491313,"pitch:0;roll:0;yaw:112;vgx:0;vgy:0;vgz:2;templ:88;temph:91;tof:72;h:0;bat:30;baro:9.02;time:0;agx:-50.00;agy:86.00;agz:-993.00;


;
",30,0,0,112,0,0,2,-50.00,86.00,-993.00,9.02,72,0
12967.593189,"pitch:0;roll:0;yaw:111;vgx:0;vgy:0;vgz:3;templ:88;temph:91;tof:69;h:0;bat:30;baro:9.00;time:0;agx:15.00;agy:66.00;agz:-955.00;



;
",30,0,0,111,0,0,3,15.00,66.00,-955.00,9.00,69,0
12967.695366,"pitch:1;roll:0;yaw:110;vgx:0;vgy:0;vgz:3;templ:88;temph:91;tof:66;h:0;bat:30;baro:8.89;time:0;agx:9.00;agy:34.00;agz:-923.00;




;
",30,1,0,110,0,0,3,9.00,34.00,-923.00,8.89,66,0
12967.797107,"pitch:0;roll:0;yaw:109;vgx:1;vgy:0;vgz:3;templ:88;temph:91;tof:65;h:0;bat:30;baro:8.89;time:0;agx:2.00;agy:-20.00;agz:-943.00;



;
",30,0,0,109,1,0,3,2.00,-20.00,-943.00,8.89,65,0
12967.899542,"pitch:-2;roll:0;yaw:108;vgx:1;vgy:-1;vgz:2;templ:88;temph:91;tof:63;h:0;bat:30;baro:8.87;time:0;agx:-36.00;agy:7.00;agz:-996.00;

;
",30,-2,0,108,1,-1,2,-36.00,7.00,-996.00,8.87,63,0
12967.951409,"pitch:-3;roll:0;yaw:107;vgx:0;vgy:-1;vgz:1;templ:88;temph:91;tof:60;h:0;bat:30;baro:8.86;time:0;agx:-34.00;agy:50.00;agz:-1093.00;

",30,-3,0,107,0,-1,1,-34.00,50.00,-1093.00,8.86,60,0
12968.052104,"pitch:-4;roll:0;yaw:107;vgx:0;vgy:-1;vgz:0;templ:88;temph:91;tof:58;h:0;bat:30;baro:8.85;time:0;agx:-88.00;agy:52.00;agz:-1114.00;

",30,-4,0,107,0,-1,0,-88.00,52.00,-1114.00,8.85,58,0
12968.154071,"pitch:-4;roll:-1;yaw:107;vgx:0;vgy:-1;vgz:0;templ:88;temph:91;tof:57;h:0;bat:30;baro:8.83;time:0;agx:-48.00;agy:60.00;agz:-1111.00;

",30,-4,-1,107,0,-1,0,-48.00,60.00,-1111.00,8.83,57,0
12968.256054,"pitch:-4;roll:-2;yaw:107;vgx:0;vgy:-1;vgz:0;templ:88;temph:91;tof:56;h:0;bat:30;baro:8.82;time:0;agx:-75.00;agy:-8.00;agz:-997.00;


",30,-4,-2,107,0,-1,0,-75.00,-8.00,-997.00,8.82,56,0
12968.358278,"pitch:-4;roll:-2;yaw:106;vgx:0;vgy:0;vgz:1;templ:88;temph:91;tof:53;h:0;bat:30;baro:8.84;time:0;agx:-11.00;agy:0.00;agz:-990.00;



",30,-4,-2,106,0,0,1,-11.00,0.00,-990.00,8.84,53,0
12968.460110,"pitch:-4;roll:-4;yaw:106;vgx:0;vgy:0;vgz:1;templ:88;temph:91;tof:51;h:0;bat:30;baro:8.86;time:0;agx:-29.00;agy:78.00;agz:-916.00;



",30,-4,-4,106,0,0,1,-29.00,78.00,-916.00,8.86,51,0
12968.562271,"pitch:-3;roll:-4;yaw:107;vgx:0;vgy:0;vgz:2;templ:88;temph:91;tof:45;h:0;bat:30;baro:8.76;time:0;agx:-83.00;agy:124.00;agz:-894.00;


",30,-3,-4,107,0,0,2,-83.00,124.00,-894.00,8.76,45,0
12968.664014,"pitch:0;roll:-5;yaw:107;vgx:0;vgy:0;vgz:3;templ:88;temph:91;tof:44;h:0;bat:30;baro:8.75;time:0;agx:-48.00;agy:136.00;agz:-921.00;



",30,0,-5,107,0,0,3,-48.00,136.00,-921.00,8.75,44,0
12968.766139,"pitch:0;roll:-6;yaw:106;vgx:0;vgy:0;vgz:4;templ:88;temph:91;tof:40;h:0;bat:30;baro:8.69;time:0;agx:31.00;agy:64.00;agz:-934.00;




",30,0,-6,106,0,0,4,31.00,64.00,-934.00,8.69,40,0
12968.868049,"pitch:-2;roll:-6;yaw:105;vgx:0;vgy:0;vgz:5;templ:88;temph:91;tof:34;h:0;bat:30;baro:8.62;time:0;agx:3.00;agy:120.00;agz:-961.00;




",30,-2,-6,105,0,0,5,3.00,120.00,-961.00,8.62,34,0
12968.970343,"pitch:-5;roll:-5;yaw:105;vgx:0;vgy:0;vgz:5;templ:88;temph:91;tof:10;h:0;bat:30;baro:8.60;time:0;agx:-219.00;agy:155.00;agz:-1026.00;
",30,-5,-5,105,0,0,5,-219.00,155.00,-1026.00,8.60,10,0
12969.072229,"pitch:-6;roll:-3;yaw:104;vgx:0;vgy:0;vgz:5;templ:88;temph:91;tof:10;h:-10;bat:30;baro:8.51;time:0;agx:-132.00;agy:-8.00;agz:-1071.00;
€",30,-6,-3,104,0,0,5,-132.00,-8.00,-1071.00,8.51,10,-10
12969.174053,"pitch:-5;roll:-1;yaw:100;vgx:0;vgy:0;vgz:4;templ:88;temph:91;tof:10;h:-10;bat:30;baro:8.53;time:0;agx:-92.00;agy:-18.00;agz:-1095.00;
€",30,-5,-1,100,0,0,4,-92.00,-18.00,-1095.00,8.53,10,-10
12969.276142,"pitch:-4;roll:0;yaw:98;vgx:0;vgy:0;vgz:3;templ:88;temph:91;tof:10;h:-20;bat:30;baro:8.45;time:0;agx:-21.00;agy:-31.00;agz:-1055.00;

€",30,-4,0,98,0,0,3,-21.00,-31.00,-1055.00,8.45,10,-20
12969.378061,"pitch:-2;roll:0;yaw:99;vgx:0;vgy:0;vgz:2;templ:88;temph:91;tof:10;h:-20;bat:30;baro:8.48;time:0;agx:-51.00;agy:134.00;agz:-1003.00;

€",30,-2,0,99,0,0,2,-51.00,134.00,-1003.00,8.48,10,-20
12969.481412,"pitch:-1;roll:0;yaw:99;vgx:0;vgy:0;vgz:2;templ:88;temph:91;tof:10;h:-20;bat:30;baro:8.41;time:0;agx:-25.00;agy:41.00;agz:-1037.00;


€",30,-1,0,99,0,0,2,-25.00,41.00,-1037.00,8.41,10,-20
12969.582987,"pitch:0;roll:0;yaw:100;vgx:0;vgy:0;vgz:1;templ:88;temph:91;tof:10;h:-20;bat:30;baro:8.37;time:0;agx:-7.00;agy:-46.00;agz:-1038.00;


€",30,0,0,100,0,0,1,-7.00,-46.00,-1038.00,8.37,10,-20
12969.684999,"pitch:0;roll:0;yaw:98;vgx:0;vgy:0;vgz:1;templ:88;temph:91;tof:10;h:0;bat:30;baro:8.37;time:0;agx:140.00;agy:-75.00;agz:-1044.00;



€",30,0,0,98,0,0,1,140.00,-75.00,-1044.00,8.37,10,0
12969.787115,"pitch:0;roll:0;yaw:98;vgx:0;vgy:1;vgz:0;templ:88;temph:91;tof:10;h:0;bat:30;baro:8.36;time:0;agx:83.00;agy:15.00;agz:-1077.00;




€",30,0,0,98,0,1,0,83.00,15.00,-1077.00,8.36,10,0
12969.889113,"pitch:-1;roll:2;yaw:94;vgx:0;vgy:2;vgz:0;templ:88;temph:91;tof:10;h:0;bat:30;baro:8.38;time:0;agx:4.00;agy:8.00;agz:2.00;
00;




€",30,-1,2,94,0,2,0,4.00,8.00,2.00,8.38,10,0
12969.991421,"pitch:-2;roll:5;yaw:96;vgx:0;vgy:2;vgz:6;templ:88;temph:91;tof:10;h:0;bat:30;baro:8.38;time:0;agx:-376.00;agy:161.00;agz:-335.00;



€",30,-2,5,96,0,2,6,-376.00,161.00,-335.00,8.38,10,0
12970.093026,"pitch:0;roll:0;yaw:98;vgx:-1;vgy:0;vgz:6;templ:88;temph:91;tof:10;h:0;bat:30;baro:8.31;time:0;agx:27.00;agy:-10.00;agz:-1003.00;




€",30,0,0,98,-1,0,6,27.00,-10.00,-1003.00,8.31,10,0
12970.194994,"pitch:0;roll:0;yaw:98;vgx:-1;vgy:0;vgz:6;templ:88;temph:91;tof:10;h:-10;bat:30;baro:8.34;time:0;agx:7.00;agy:6.00;agz:-999.00;





€",30,0,0,98,-1,0,6,7.00,6.00,-999.00,8.34,10,-10
12970.296929,"pitch:0;roll:0;yaw:98;vgx:-1;vgy:0;vgz:6;templ:88;temph:91;tof:10;h:-10;bat:30;baro:8.34;time:0;agx:8.00;agy:4.00;agz:-998.00;





€",30,0,0,98,-1,0,6,8.00,4.00,-998.00,8.34,10,-10
12970.399383,"pitch:0;roll:0;yaw:98;vgx:-1;vgy:0;vgz:5;templ:88;temph:91;tof:10;h:-20;bat:30;baro:8.30;time:0;agx:7.00;agy:6.00;agz:-1003.00;





€",30,0,0,98,-1,0,5,7.00,6.00,-1003.00,8.30,10,-20
12970.501117,"pitch:0;roll:0;yaw:98;vgx:-1;vgy:0;vgz:5;templ:88;temph:91;tof:10;h:-20;bat:30;baro:8.33;time:0;agx:7.00;agy:5.00;agz:-1000.00;





€",30,0,0,98,-1,0,5,7.00,5.00,-1000.00,8.33,10,-20
12970.603021,"pitch:0;roll:0;yaw:98;vgx:-1;vgy:0;vgz:5;templ:88;temph:91;tof:10;h:-30;bat:30;baro:8.35;time:0;agx:8.00;agy:5.00;agz:-1002.00;





€",30,0,0,98,-1,0,5,8.00,5.00,-1002.00,8.35,10,-30
12970.704946,"pitch:0;roll:0;yaw:98;vgx:-1;vgy:0;vgz:4;templ:88;temph:91;tof:10;h:-30;bat:30;baro:8.31;time:0;agx:7.00;agy:5.00;agz:-1001.00;





€",30,0,0,98,-1,0,4,7.00,5.00,-1001.00,8.31,10,-30
12970.807108,"pitch:0;roll:0;yaw:98;vgx:-1;vgy:0;vgz:4;templ:88;temph:91;tof:10;h:-30;bat:30;baro:8.31;time:0;agx:6.00;agy:6.00;agz:-1002.00;





€",30,0,0,98,-1,0,4,6.00,6.00,-1002.00,8.31,10,-30
12970.911808,"pitch:0;roll:0;yaw:98;vgx:-1;vgy:0;vgz:4;templ:88;temph:91;tof:10;h:-30;bat:30;baro:8.32;time:0;agx:6.00;agy:7.00;agz:-1001.00;





€",30,0,0,98,-1,0,4,6.00,7.00,-1001.00,8.32,10,-30
12971.011937,"pitch:0;roll:0;yaw:98;vgx:-1;vgy:0;vgz:3;templ:88;temph:91;tof:10;h:-30;bat:30;baro:8.34;time:0;agx:7.00;agy:5.00;agz:-1003.00;





€",30,0,0,98,-1,0,3,7.00,5.00,-1003.00,8.34,10,-30
12971.112947,"pitch:0;roll:0;yaw:98;vgx:0;vgy:0;vgz:0;templ:88;temph:91;tof:10;h:-30;bat:30;baro:8.33;time:0;agx:7.00;agy:5.00;agz:-999.00;






€",30,0,0,98,0,0,0,7.00,5.00,-999.00,8.33,10,-30
12971.215022,"pitch:0;roll:0;yaw:98;vgx:0;vgy:0;vgz:0;templ:88;temph:91;tof:10;h:-30;bat:30;baro:8.35;time:0;agx:7.00;agy:5.00;agz:-1005.00;






€",30,0,0,98,0,0,0,7.00,5.00,-1005.00,8.35,10,-30
12971.266068,"pitch:0;roll:0;yaw:98;vgx:0;vgy:0;vgz:0;templ:88;temph:91;tof:10;h:0;bat:30;baro:8.32;time:0;agx:7.00;agy:6.00;agz:-1003.00;







€",30,0,0,98,0,0,0,7.00,6.00,-1003.00,8.32,10,0
12971.370811,"pitch:0;roll:0;yaw:98;vgx:0;vgy:0;vgz:0;templ:88;temph:91;tof:10;h:0;bat:30;baro:8.31;time:0;agx:8.00;agy:6.00;agz:-999.00;








€",30,0,0,98,0,0,0,8.00,6.00,-999.00,8.31,10,0
12971.470046,"pitch:0;roll:0;yaw:98;vgx:0;vgy:0;vgz:0;templ:88;temph:91;tof:10;h:0;bat:30;baro:8.32;time:0;agx:7.00;agy:6.00;agz:-1001.00;







€",30,0,0,98,0,0,0,7.00,6.00,-1001.00,8.32,10,0
12971.573821,"pitch:0;roll:0;yaw:98;vgx:0;vgy:0;vgz:0;templ:88;temph:91;tof:10;h:0;bat:30;baro:8.32;time:0;agx:7.00;agy:5.00;agz:-1002.00;







€",30,0,0,98,0,0,0,7.00,5.00,-1002.00,8.32,10,0
12971.677627,"pitch:0;roll:0;yaw:98;vgx:0;vgy:0;vgz:0;templ:88;temph:91;tof:10;h:0;bat:30;baro:8.32;time:0;agx:7.00;agy:5.00;agz:-1002.00;







€",30,0,0,98,0,0,0,7.00,5.00,-1002.00,8.32,10,0
12971.778435,"pitch:0;roll:0;yaw:98;vgx:0;vgy:0;vgz:0;templ:88;temph:91;tof:10;h:0;bat:30;baro:8.28;time:0;agx:8.00;agy:6.00;agz:-1004.00;







€",30,0,0,98,0,0,0,8.00,6.00,-1004.00,8.28,10,0
12971.879013,"pitch:0;roll:0;yaw:98;vgx:0;vgy:0;vgz:0;templ:88;temph:91;tof:10;h:0;bat:30;baro:8.29;time:0;agx:7.00;agy:5.00;agz:-1003.00;







€",30,0,0,98,0,0,0,7.00,5.00,-1003.00,8.29,10,0
12971.981217,"pitch:0;roll:0;yaw:98;vgx:0;vgy:0;vgz:0;templ:88;temph:91;tof:10;h:0;bat:30;baro:8.27;time:0;agx:7.00;agy:6.00;agz:-1001.00;







€",30,0,0,98,0,0,0,7.00,6.00,-1001.00,8.27,10,0
12972.082966,"pitch:0;roll:0;yaw:98;vgx:0;vgy:0;vgz:0;templ:88;temph:91;tof:10;h:0;bat:30;baro:8.30;time:0;agx:8.00;agy:5.00;agz:-1002.00;







€",30,0,0,98,0,0,0,8.00,5.00,-1002.00,8.30,10,0
12972.185105,"pitch:0;roll:0;yaw:98;vgx:0;vgy:0;vgz:0;templ:88;temph:91;tof:10;h:0;bat:30;baro:8.32;time:0;agx:7.00;agy:5.00;agz:-1002.00;







€",30,0,0,98,0,0,0,7.00,5.00,-1002.00,8.32,10,0
12972.287041,"pitch:0;roll:0;yaw:98;vgx:0;vgy:0;vgz:0;templ:88;temph:91;tof:10;h:0;bat:30;baro:8.38;time:0;agx:7.00;agy:5.00;agz:-1002.00;







€",30,0,0,98,0,0,0,7.00,5.00,-1002.00,8.38,10,0
12972.389266,"pitch:0;roll:0;yaw:98;vgx:0;vgy:0;vgz:0;templ:88;temph:91;tof:10;h:0;bat:30;baro:8.36;time:0;agx:7.00;agy:4.00;agz:-1002.00;







€",30,0,0,98,0,0,0,7.00,4.00,-1002.00,8.36,10,0
12972.492029,"pitch:0;roll:0;yaw:98;vgx:0;vgy:0;vgz:0;templ:88;temph:91;tof:10;h:0;bat:30;baro:8.37;time:0;agx:8.00;agy:6.00;agz:-1001.00;







€",30,0,0,98,0,0,0,8.00,6.00,-1001.00,8.37,10,0
12972.594091,"pitch:0;roll:0;yaw:98;vgx:0;vgy:0;vgz:0;templ:88;temph:91;tof:10;h:0;bat:30;baro:8.29;time:0;agx:7.00;agy:5.00;agz:-1000.00;







€",30,0,0,98,0,0,0,7.00,5.00,-1000.00,8.29,10,0
12972.695958,"pitch:0;roll:0;yaw:98;vgx:0;vgy:0;vgz:0;templ:88;temph:91;tof:10;h:0;bat:30;baro:8.32;time:0;agx:7.00;agy:6.00;agz:-1001.00;







€",30,0,0,98,0,0,0,7.00,6.00,-1001.00,8.32,10,0
12972.798037,"pitch:0;roll:0;yaw:98;vgx:0;vgy:0;vgz:0;templ:88;temph:91;tof:10;h:0;bat:30;baro:8.34;time:0;agx:8.00;agy:6.00;agz:-1002.00;







€",30,0,0,98,0,0,0,8.00,6.00,-1002.00,8.34,10,0
12972.900058,"pitch:0;roll:0;yaw:98;vgx:0;vgy:0;vgz:0;templ:88;temph:91;tof:10;h:0;bat:30;baro:8.30;time:0;agx:8.00;agy:5.00;agz:-997.00;








€",30,0,0,98,0,0,0,8.00,5.00,-997.00,8.30,10,0
12973.001980,"pitch:0;roll:0;yaw:98;vgx:0;vgy:0;vgz:0;templ:88;temph:91;tof:10;h:0;bat:30;baro:8.36;time:0;agx:8.00;agy:4.00;agz:-1000.00;







€",30,0,0,98,0,0,0,8.00,4.00,-1000.00,8.36,10,0
12973.104019,"pitch:0;roll:0;yaw:98;vgx:0;vgy:0;vgz:0;templ:88;temph:91;tof:10;h:0;bat:30;baro:8.31;time:0;agx:8.00;agy:6.00;agz:-999.00;








€",30,0,0,98,0,0,0,8.00,6.00,-999.00,8.31,10,0
12973.206453,"pitch:0;roll:0;yaw:98;vgx:0;vgy:0;vgz:0;templ:88;temph:91;tof:10;h:0;bat:30;baro:8.34;time:0;agx:7.00;agy:5.00;agz:-1000.00;







€",30,0,0,98,0,0,0,7.00,5.00,-1000.00,8.34,10,0
12973.308783,"pitch:0;roll:0;yaw:98;vgx:0;vgy:0;vgz:0;templ:88;temph:91;tof:10;h:0;bat:30;baro:8.33;time:0;agx:12.00;agy:3.00;agz:-999.00;







€",30,0,0,98,0,0,0,12.00,3.00,-999.00,8.33,10,0
12973.409984,"pitch:0;roll:0;yaw:98;vgx:0;vgy:0;vgz:0;templ:88;temph:91;tof:10;h:0;bat:30;baro:8.33;time:0;agx:6.00;agy:-10.00;agz:-997.00;







€",30,0,0,98,0,0,0,6.00,-10.00,-997.00,8.33,10,0
12973.511946,"pitch:0;roll:0;yaw:98;vgx:0;vgy:0;vgz:0;templ:88;temph:91;tof:10;h:0;bat:30;baro:8.33;time:0;agx:9.00;agy:9.00;agz:-1004.00;








€",30,0,0,98,0,0,0,9.00,9.00,-1004.00,8.33,10,0
12973.613961,"pitch:0;roll:0;yaw:97;vgx:0;vgy:0;vgz:0;templ:88;temph:91;tof:10;h:0;bat:30;baro:8.33;time:0;agx:-25.00;agy:85.00;agz:-998.00;






€",30,0,0,97,0,0,0,-25.00,85.00,-998.00,8.33,10,0
12973.717605,"pitch:0;roll:0;yaw:96;vgx:0;vgy:0;vgz:0;templ:88;temph:91;tof:10;h:0;bat:30;baro:8.33;time:0;agx:-22.00;agy:37.00;agz:-1052.00;





€",30,0,0,96,0,0,0,-22.00,37.00,-1052.00,8.33,10,0
12973.820348,"pitch:0;roll:0;yaw:96;vgx:0;vgy:0;vgz:0;templ:88;temph:91;tof:10;h:0;bat:30;baro:8.33;time:0;agx:22.00;agy:-42.00;agz:-1100.00;





€",30,0,0,96,0,0,0,22.00,-42.00,-1100.00,8.33,10,0
12973.921842,"pitch:0;roll:0;yaw:97;vgx:0;vgy:0;vgz:-1;templ:88;temph:91;tof:10;h:0;bat:30;baro:8.33;time:0;agx:18.00;agy:1.00;agz:-1183.00;






€",30,0,0,97,0,0,-1,18.00,1.00,-1183.00,8.33,10,0
12974.024980,"pitch:0;roll:0;yaw:97;vgx:0;vgy:0;vgz:-5;templ:88;temph:91;tof:10;h:0;bat:30;baro:8.33;time:0;agx:-20.00;agy:48.00;agz:-1355.00;




€",30,0,0,97,0,0,-5,-20.00,48.00,-1355.00,8.33,10,0
12974.125130,"pitch:0;roll:0;yaw:97;vgx:0;vgy:0;vgz:-6;templ:88;temph:91;tof:15;h:0;bat:30;baro:8.56;time:0;agx:18.00;agy:14.00;agz:-1202.00;





€",30,0,0,97,0,0,-6,18.00,14.00,-1202.00,8.56,15,0
12974.226891,"pitch:0;roll:0;yaw:97;vgx:0;vgy:0;vgz:-7;templ:88;temph:91;tof:22;h:10;bat:30;baro:8.79;time:1;agx:-33.00;agy:36.00;agz:-1057.00;



€",30,0,0,97,0,0,-7,-33.00,36.00,-1057.00,8.79,22,10
12974.328895,"pitch:0;roll:0;yaw:97;vgx:0;vgy:0;vgz:-7;templ:88;temph:91;tof:32;h:10;bat:30;baro:8.83;time:1;agx:33.00;agy:-32.00;agz:-1026.00;



€",30,0,0,97,0,0,-7,33.00,-32.00,-1026.00,8.83,32,10
12974.431912,"pitch:0;roll:0;yaw:97;vgx:0;vgy:0;vgz:-7;templ:88;temph:91;tof:41;h:20;bat:30;baro:8.89;time:1;agx:-5.00;agy:15.00;agz:-998.00;




€",30,0,0,97,0,0,-7,-5.00,15.00,-998.00,8.89,41,20
12974.534073,"pitch:0;roll:0;yaw:97;vgx:0;vgy:0;vgz:-7;templ:89;temph:90;tof:51;h:30;bat:30;baro:8.97;time:1;agx:13.00;agy:-2.00;agz:-942.00;




€",30,0,0,97,0,0,-7,13.00,-2.00,-942.00,8.97,51,30
12974.636065,"pitch:0;roll:0;yaw:97;vgx:0;vgy:0;vgz:-6;templ:89;temph:90;tof:58;h:30;bat:30;baro:9.09;time:1;agx:-14.00;agy:51.00;agz:-914.00;




€",30,0,0,97,0,0,-6,-14.00,51.00,-914.00,9.09,58,30
12974.737932,"pitch:0;roll:0;yaw:97;vgx:0;vgy:0;vgz:-5;templ:89;temph:90;tof:65;h:40;bat:30;baro:9.10;time:1;agx:-20.00;agy:50.00;agz:-886.00;




€",30,0,0,97,0,0,-5,-20.00,50.00,-886.00,9.10,65,40
12974.788821,"pitch:0;roll:0;yaw:97;vgx:0;vgy:0;vgz:-3;templ:89;temph:90;tof:71;h:40;bat:30;baro:9.20;time:1;agx:-11.00;agy:19.00;agz:-881.00;




€",30,0,0,97,0,0,-3,-11.00,19.00,-881.00,9.20,71,40
12974.890795,"pitch:0;roll:0;yaw:97;vgx:0;vgy:0;vgz:-2;templ:89;temph:90;tof:76;h:50;bat:30;baro:9.27;time:1;agx:-41.00;agy:50.00;agz:-872.00;




€",30,0,0,97,0,0,-2,-41.00,50.00,-872.00,9.27,76,50
12974.992798,"pitch:0;roll:0;yaw:97;vgx:0;vgy:0;vgz:-1;templ:89;temph:90;tof:80;h:50;bat:30;baro:9.34;time:1;agx:13.00;agy:-16.00;agz:-883.00;




€",30,0,0,97,0,0,-1,13.00,-16.00,-883.00,9.34,80,50
12975.094918,"pitch:0;roll:0;yaw:97;vgx:0;vgy:0;vgz:-1;templ:89;temph:90;tof:82;h:50;bat:30;baro:9.42;time:1;agx:-5.00;agy:19.00;agz:-914.00;





€",30,0,0,97,0,0,-1,-5.00,19.00,-914.00,9.42,82,50
12975.197152,"pitch:0;roll:0;yaw:97;vgx:0;vgy:0;vgz:0;templ:89;temph:90;tof:84;h:50;bat:30;baro:9.41;time:2;agx:-10.00;agy:29.00;agz:-938.00;





€",30,0,0,97,0,0,0,-10.00,29.00,-938.00,9.41,84,50
12975.298780,"pitch:0;roll:0;yaw:97;vgx:0;vgy:0;vgz:0;templ:89;temph:90;tof:85;h:50;bat:30;baro:9.33;time:2;agx:18.00;agy:-2.00;agz:-950.00;






€",30,0,0,97,0,0,0,18.00,-2.00,-950.00,9.33,85,50
12975.401114,"pitch:0;roll:0;yaw:96;vgx:0;vgy:0;vgz:0;templ:89;temph:90;tof:86;h:50;bat:30;baro:9.35;time:2;agx:9.00;agy:-16.00;agz:-959.00;






€",30,0,0,96,0,0,0,9.00,-16.00,-959.00,9.35,86,50
12975.502914,"pitch:0;roll:0;yaw:96;vgx:0;vgy:0;vgz:0;templ:88;temph:91;tof:86;h:50;bat:30;baro:9.40;time:2;agx:13.00;agy:25.00;agz:-983.00;






€",30,0,0,96,0,0,0,13.00,25.00,-983.00,9.40,86,50
12975.604753,"pitch:-1;roll:0;yaw:97;vgx:0;vgy:0;vgz:0;templ:88;temph:91;tof:87;h:60;bat:30;baro:9.41;time:2;agx:25.00;agy:2.00;agz:-997.00;






€",30,-1,0,97,0,0,0,25.00,2.00,-997.00,9.41,87,60
12975.706693,"pitch:-2;roll:0;yaw:97;vgx:0;vgy:0;vgz:0;templ:88;temph:91;tof:85;h:60;bat:30;baro:9.39;time:2;agx:12.00;agy:21.00;agz:-991.00;





€",30,-2,0,97,0,0,0,12.00,21.00,-991.00,9.39,85,60
12975.810150,"pitch:-1;roll:0;yaw:97;vgx:0;vgy:0;vgz:0;templ:88;temph:91;tof:85;h:60;bat:30;baro:9.41;time:2;agx:16.00;agy:-11.00;agz:-1007.00;



€",30,-1,0,97,0,0,0,16.00,-11.00,-1007.00,9.41,85,60
12975.912868,"pitch:0;roll:0;yaw:96;vgx:0;vgy:0;vgz:0;templ:88;temph:91;tof:86;h:60;bat:30;baro:9.40;time:2;agx:-8.00;agy:24.00;agz:-1006.00;




€",30,0,0,96,0,0,0,-8.00,24.00,-1006.00,9.40,86,60
12976.013171,"pitch:0;roll:0;yaw:97;vgx:0;vgy:0;vgz:0;templ:88;temph:91;tof:86;h:60;bat:30;baro:9.40;time:2;agx:-30.00;agy:34.00;agz:-1006.00;




€",30,0,0,97,0,0,0,-30.00,34.00,-1006.00,9.40,86,60
12976.114752,"pitch:-1;roll:0;yaw:97;vgx:0;vgy:0;vgz:0;templ:88;temph:91;tof:87;h:60;bat:30;baro:9.42;time:2;agx:-26.00;agy:21.00;agz:-1006.00;



€",30,-1,0,97,0,0,0,-26.00,21.00,-1006.00,9.42,87,60
12976.216705,"pitch:-2;roll:0;yaw:97;vgx:0;vgy:1;vgz:0;templ:88;temph:91;tof:86;h:60;bat:30;baro:9.46;time:3;agx:9.00;agy:0.00;agz:-993.00;
0;



€",30,-2,0,97,0,1,0,9.00,0.00,-993.00,9.46,86,60
12976.318792,"pitch:-4;roll:0;yaw:97;vgx:0;vgy:1;vgz:0;templ:88;temph:91;tof:86;h:60;bat:30;baro:9.44;time:3;agx:14.00;agy:14.00;agz:-981.00;




€",30,-4,0,97,0,1,0,14.00,14.00,-981.00,9.44,86,60
12976.420898,"pitch:-4;roll:0;yaw:97;vgx:0;vgy:2;vgz:0;templ:88;temph:91;tof:86;h:60;bat:30;baro:9.44;time:3;agx:-9.00;agy:5.00;agz:-985.00;





€",30,-4,0,97,0,2,0,-9.00,5.00,-985.00,9.44,86,60
12976.522659,"pitch:-4;roll:0;yaw:97;vgx:0;vgy:3;vgz:0;templ:88;temph:91;tof:86;h:60;bat:30;baro:9.40;time:3;agx:22.00;agy:3.00;agz:-988.00;





€",30,-4,0,97,0,3,0,22.00,3.00,-988.00,9.40,86,60
12976.624941,"pitch:-4;roll:0;yaw:97;vgx:0;vgy:3;vgz:0;templ:88;temph:91;tof:86;h:60;bat:30;baro:9.43;time:3;agx:2.00;agy:-7.00;agz:-981.00;





€",30,-4,0,97,0,3,0,2.00,-7.00,-981.00,9.43,86,60
12976.726778,"pitch:-4;roll:0;yaw:97;vgx:0;vgy:4;vgz:0;templ:88;temph:91;tof:87;h:60;bat:30;baro:9.49;time:3;agx:-3.00;agy:-25.00;agz:-979.00;




€",30,-4,0,97,0,4,0,-3.00,-25.00,-979.00,9.49,87,60
12976.829702,"pitch:-3;roll:0;yaw:97;vgx:0;vgy:4;vgz:0;templ:88;temph:91;tof:88;h:60;bat:30;baro:9.36;time:3;agx:6.00;agy:-16.00;agz:-980.00;





€",30,-3,0,97,0,4,0,6.00,-16.00,-980.00,9.36,88,60
12976.931902,"pitch:-3;roll:0;yaw:97;vgx:0;vgy:5;vgz:0;templ:88;temph:91;tof:88;h:60;bat:30;baro:9.39;time:3;agx:-26.00;agy:47.00;agz:-998.00;




€",30,-3,0,97,0,5,0,-26.00,47.00,-998.00,9.39,88,60
12977.033671,"pitch:-3;roll:0;yaw:97;vgx:0;vgy:5;vgz:0;templ:88;temph:91;tof:89;h:60;bat:30;baro:9.39;time:3;agx:-36.00;agy:28.00;agz:-983.00;




€",30,-3,0,97,0,5,0,-36.00,28.00,-983.00,9.39,89,60
12977.136509,"pitch:-3;roll:0;yaw:97;vgx:0;vgy:5;vgz:0;templ:88;temph:91;tof:88;h:60;bat:30;baro:9.40;time:3;agx:-32.00;agy:38.00;agz:-1000.00;



€",30,-3,0,97,0,5,0,-32.00,38.00,-1000.00,9.40,88,60
12977.237798,"pitch:-3;roll:0;yaw:97;vgx:0;vgy:6;vgz:0;templ:88;temph:91;tof:88;h:60;bat:30;baro:9.36;time:4;agx:-46.00;agy:19.00;agz:-974.00;




€",30,-3,0,97,0,6,0,-46.00,19.00,-974.00,9.36,88,60
12977.339749,"pitch:-3;roll:0;yaw:97;vgx:0;vgy:6;vgz:0;templ:88;temph:91;tof:88;h:60;bat:30;baro:9.36;time:4;agx:-19.00;agy:14.00;agz:-998.00;




€",30,-3,0,97,0,6,0,-19.00,14.00,-998.00,9.36,88,60
12977.441655,"pitch:-2;roll:0;yaw:97;vgx:0;vgy:6;vgz:0;templ:88;temph:91;tof:87;h:60;bat:30;baro:9.33;time:4;agx:-49.00;agy:22.00;agz:-990.00;




€",30,-2,0,97,0,6,0,-49.00,22.00,-990.00,9.33,87,60
12977.543628,"pitch:-2;roll:0;yaw:97;vgx:0;vgy:6;vgz:0;templ:88;temph:91;tof:87;h:60;bat:30;baro:9.28;time:4;agx:-13.00;agy:5.00;agz:-986.00;





€",30,-2,0,97,0,6,0,-13.00,5.00,-986.00,9.28,87,60
12977.647654,"pitch:-2;roll:0;yaw:97;vgx:0;vgy:6;vgz:0;templ:88;temph:91;tof:87;h:60;bat:30;baro:9.32;time:4;agx:-38.00;agy:36.00;agz:-1012.00;



€",30,-2,0,97,0,6,0,-38.00,36.00,-1012.00,9.32,87,60
12977.748929,"pitch:-2;roll:0;yaw:97;vgx:0;vgy:6;vgz:0;templ:88;temph:91;tof:86;h:60;bat:30;baro:9.37;time:4;agx:-22.00;agy:-5.00;agz:-990.00;




€",30,-2,0,97,0,6,0,-22.00,-5.00,-990.00,9.37,86,60
12977.850643,"pitch:-2;roll:0;yaw:97;vgx:0;vgy:6;vgz:0;templ:88;temph:91;tof:85;h:60;bat:30;baro:9.27;time:4;agx:-30.00;agy:13.00;agz:-991.00;




€",30,-2,0,97,0,6,0,-30.00,13.00,-991.00,9.27,85,60
12977.952686,"pitch:0;roll:0;yaw:97;vgx:0;vgy:6;vgz:0;templ:88;temph:91;tof:84;h:60;bat:30;baro:9.28;time:4;agx:-12.00;agy:21.00;agz:-987.00;





€",30,0,0,97,0,6,0,-12.00,21.00,-987.00,9.28,84,60
12978.054592,"pitch:1;roll:0;yaw:97;vgx:0;vgy:6;vgz:0;templ:88;temph:91;tof:83;h:60;bat:30;baro:9.34;time:4;agx:-21.00;agy:8.00;agz:-1001.00;





€",30,1,0,97,0,6,0,-21.00,8.00,-1001.00,9.34,83,60
12978.156611,"pitch:2;roll:0;yaw:96;vgx:0;vgy:5;vgz:0;templ:88;temph:91;tof:82;h:60;bat:30;baro:9.32;time:4;agx:-3.00;agy:-20.00;agz:-1023.00;




€",30,2,0,96,0,5,0,-3.00,-20.00,-1023.00,9.32,82,60
12978.258644,"pitch:1;roll:0;yaw:97;vgx:0;vgy:5;vgz:0;templ:88;temph:91;tof:82;h:60;bat:30;baro:9.29;time:5;agx:-8.00;agy:31.00;agz:-1005.00;





€",30,1,0,97,0,5,0,-8.00,31.00,-1005.00,9.29,82,60
12978.309714,"pitch:1;roll:0;yaw:97;vgx:0;vgy:4;vgz:0;templ:88;temph:91;tof:81;h:60;bat:30;baro:9.37;time:5;agx:23.00;agy:-3.00;agz:-999.00;






€",30,1,0,97,0,4,0,23.00,-3.00,-999.00,9.37,81,60
12978.411945,"pitch:1;roll:0;yaw:97;vgx:0;vgy:4;vgz:0;templ:88;temph:91;tof:81;h:50;bat:30;baro:9.31;time:5;agx:-27.00;agy:-8.00;agz:-1010.00;




€",30,1,0,97,0,4,0,-27.00,-8.00,-1010.00,9.31,81,50
12978.564702,"pitch:1;roll:0;yaw:97;vgx:0;vgy:3;vgz:0;templ:88;temph:91;tof:80;h:50;bat:30;baro:9.44;time:5;agx:-17.00;agy:-13.00;agz:-1000.00;



€",30,1,0,97,0,3,0,-17.00,-13.00,-1000.00,9.44,80,50
12978.618986,"pitch:0;roll:0;yaw:97;vgx:0;vgy:3;vgz:0;templ:88;temph:91;tof:82;h:50;bat:30;baro:9.31;time:5;agx:4.00;agy:4.00;agz:-1020.00;
0;



€",30,0,0,97,0,3,0,4.00,4.00,-1020.00,9.31,82,50
12978.718295,"pitch:0;roll:0;yaw:97;vgx:0;vgy:3;vgz:0;templ:88;temph:91;tof:81;h:50;bat:30;baro:9.38;time:5;agx:-8.00;agy:-8.00;agz:-1019.00;




€",30,0,0,97,0,3,0,-8.00,-8.00,-1019.00,9.38,81,50
12978.822016,"pitch:0;roll:0;yaw:97;vgx:0;vgy:2;vgz:0;templ:88;temph:91;tof:79;h:50;bat:30;baro:9.44;time:5;agx:-36.00;agy:0.00;agz:-1008.00;




€",30,0,0,97,0,2,0,-36.00,0.00,-1008.00,9.44,79,50
12978.922292,"pitch:0;roll:0;yaw:97;vgx:0;vgy:2;vgz:0;templ:88;temph:91;tof:79;h:50;bat:30;baro:9.37;time:5;agx:-3.00;agy:3.00;agz:-985.00;





€",30,0,0,97,0,2,0,-3.00,3.00,-985.00,9.37,79,50
12979.023511,"pitch:0;roll:0;yaw:97;vgx:0;vgy:2;vgz:0;templ:88;temph:91;tof:79;h:50;bat:30;baro:9.39;time:5;agx:-12.00;agy:19.00;agz:-1007.00;




€",30,0,0,97,0,2,0,-12.00,19.00,-1007.00,9.39,79,50
12979.127487,"pitch:-1;roll:0;yaw:97;vgx:0;vgy:2;vgz:0;templ:88;temph:91;tof:80;h:50;bat:30;baro:9.36;time:5;agx:-8.00;agy:12.00;agz:-1027.00;




€",30,-1,0,97,0,2,0,-8.00,12.00,-1027.00,9.36,80,50
12979.227495,"pitch:-2;roll:0;yaw:97;vgx:0;vgy:2;vgz:0;templ:88;temph:91;tof:81;h:50;bat:30;baro:9.40;time:6;agx:2.00;agy:-8.00;agz:-990.00;





€",30,-2,0,97,0,2,0,2.00,-8.00,-990.00,9.40,81,50
12979.329480,"pitch:-3;roll:0;yaw:96;vgx:0;vgy:2;vgz:0;templ:88;temph:91;tof:80;h:50;bat:30;baro:9.30;time:6;agx:-43.00;agy:34.00;agz:-986.00;




€",30,-3,0,96,0,2,0,-43.00,34.00,-986.00,9.30,80,50
12979.431827,"pitch:-5;roll:0;yaw:97;vgx:0;vgy:3;vgz:0;templ:88;temph:91;tof:76;h:50;bat:30;baro:9.30;time:6;agx:-2.00;agy:1.00;agz:-976.00;





€",30,-5,0,97,0,3,0,-2.00,1.00,-976.00,9.30,76,50
12979.533620,"pitch:-4;roll:0;yaw:97;vgx:0;vgy:3;vgz:0;templ:88;temph:90;tof:78;h:50;bat:30;baro:9.23;time:6;agx:-43.00;agy:27.00;agz:-1016.00;



€",30,-4,0,97,0,3,0,-43.00,27.00,-1016.00,9.23,78,50
12979.635538,"pitch:-4;roll:0;yaw:97;vgx:0;vgy:4;vgz:0;templ:88;temph:90;tof:77;h:50;bat:30;baro:9.33;time:6;agx:-43.00;agy:21.00;agz:-1003.00;



€",30,-4,0,97,0,4,0,-43.00,21.00,-1003.00,9.33,77,50
12979.737536,"pitch:-4;roll:0;yaw:97;vgx:0;vgy:4;vgz:0;templ:88;temph:90;tof:78;h:50;bat:30;baro:9.25;time:6;agx:-15.00;agy:29.00;agz:-1004.00;



€",30,-4,0,97,0,4,0,-15.00,29.00,-1004.00,9.25,78,50
12979.841271,"pitch:-4;roll:0;yaw:97;vgx:-1;vgy:4;vgz:0;templ:88;temph:90;tof:81;h:50;bat:30;baro:9.18;time:6;agx:-31.00;agy:35.00;agz:-1019.00;


€",30,-4,0,97,-1,4,0,-31.00,35.00,-1019.00,9.18,81,50
12979.942705,"pitch:-4;roll:-1;yaw:96;vgx:-1;vgy:4;vgz:0;templ:88;temph:90;tof:80;h:50;bat:30;baro:9.25;time:6;agx:-19.00;agy:22.00;agz:-1017.00;

€",30,-4,-1,96,-1,4,0,-19.00,22.00,-1017.00,9.25,80,50
12980.046250,"pitch:-4;roll:-1;yaw:97;vgx:-1;vgy:5;vgz:0;templ:88;temph:90;tof:80;h:50;bat:30;baro:9.30;time:6;agx:-72.00;agy:45.00;agz:-1019.00;

€",30,-4,-1,97,-1,5,0,-72.00,45.00,-1019.00,9.30,80,50
12980.146402,"pitch:-4;roll:-1;yaw:97;vgx:-1;vgy:5;vgz:0;templ:88;temph:90;tof:81;h:50;bat:30;baro:9.26;time:6;agx:-19.00;agy:33.00;agz:-980.00;


€",30,-4,-1,97,-1,5,0,-19.00,33.00,-980.00,9.26,81,50
