t_sec,raw,bat,pitch,roll,yaw,vgx,vgy,vgz,agx,agy,agz,baro,tof,h
6962.243112,"pitch:0;roll:0;yaw:0;vgx:0;vgy:0;vgz:0;templ:84;temph:87;tof:10;h:0;bat:84;baro:17.38;time:0;agx:4.00;agy:2.00;agz:-999.00;
",84,0,0,0,0,0,0,4.00,2.00,-999.00,17.38,10,0
6962.344953,"pitch:0;roll:0;yaw:0;vgx:0;vgy:0;vgz:0;templ:84;temph:87;tof:10;h:0;bat:84;baro:17.35;time:0;agx:2.00;agy:2.00;agz:-997.00;
",84,0,0,0,0,0,0,2.00,2.00,-997.00,17.35,10,0
6962.447205,"pitch:0;roll:0;yaw:0;vgx:0;vgy:0;vgz:0;templ:84;temph:87;tof:10;h:0;bat:84;baro:17.36;time:0;agx:4.00;agy:2.00;agz:-1001.00;
",84,0,0,0,0,0,0,4.00,2.00,-1001.00,17.36,10,0
6962.549880,"pitch:0;roll:0;yaw:0;vgx:0;vgy:0;vgz:0;templ:84;temph:87;tof:10;h:0;bat:84;baro:17.33;time:0;agx:3.00;agy:3.00;agz:-1003.00;
",84,0,0,0,0,0,0,3.00,3.00,-1003.00,17.33,10,0
6962.651978,"pitch:0;roll:0;yaw:0;vgx:0;vgy:0;vgz:0;templ:84;temph:87;tof:10;h:0;bat:84;baro:17.34;time:0;agx:4.00;agy:0.00;agz:-1000.00;
",84,0,0,0,0,0,0,4.00,0.00,-1000.00,17.34,10,0
6962.753816,"pitch:0;roll:0;yaw:0;vgx:0;vgy:0;vgz:0;templ:84;temph:87;tof:10;h:0;bat:84;baro:17.39;time:0;agx:4.00;agy:4.00;agz:-1001.00;
",84,0,0,0,0,0,0,4.00,4.00,-1001.00,17.39,10,0
6962.884973,"pitch:0;roll:0;yaw:0;vgx:0;vgy:0;vgz:0;templ:84;temph:87;tof:10;h:0;bat:84;baro:17.39;time:0;agx:3.00;agy:3.00;agz:-1001.00;
",84,0,0,0,0,0,0,3.00,3.00,-1001.00,17.39,10,0
6962.906989,"pitch:0;roll:0;yaw:0;vgx:0;vgy:0;vgz:0;templ:84;temph:87;tof:10;h:0;bat:84;baro:17.32;time:0;agx:4.00;agy:1.00;agz:-1000.00;
",84,0,0,0,0,0,0,4.00,1.00,-1000.00,17.32,10,0
6963.089831,"pitch:0;roll:0;yaw:0;vgx:0;vgy:0;vgz:0;templ:84;temph:87;tof:10;h:0;bat:84;baro:17.35;time:0;agx:6.00;agy:2.00;agz:-999.00;

",84,0,0,0,0,0,0,6.00,2.00,-999.00,17.35,10,0
6963.110751,"pitch:0;roll:0;yaw:0;vgx:0;vgy:0;vgz:0;templ:84;temph:87;tof:10;h:0;bat:84;baro:17.35;time:0;agx:3.00;agy:3.00;agz:-996.00;

",84,0,0,0,0,0,0,3.00,3.00,-996.00,17.35,10,0
6963.212823,"pitch:0;roll:0;yaw:0;vgx:0;vgy:0;vgz:0;templ:84;temph:87;tof:10;h:0;bat:84;baro:17.37;time:0;agx:4.00;agy:2.00;agz:-999.00;

",84,0,0,0,0,0,0,4.00,2.00,-999.00,17.37,10,0
6963.315801,"pitch:0;roll:0;yaw:0;vgx:0;vgy:0;vgz:0;templ:84;temph:87;tof:10;h:0;bat:84;baro:17.32;time:0;agx:5.00;agy:2.00;agz:-1002.00;
",84,0,0,0,0,0,0,5.00,2.00,-1002.00,17.32,10,0
6963.417945,"pitch:0;roll:0;yaw:0;vgx:0;vgy:0;vgz:0;templ:84;temph:87;tof:10;h:0;bat:84;baro:17.32;time:0;agx:3.00;agy:3.00;agz:-1001.00;
",84,0,0,0,0,0,0,3.00,3.00,-1001.00,17.32,10,0
6963.520070,"pitch:0;roll:0;yaw:0;vgx:0;vgy:0;vgz:0;templ:85;temph:87;tof:10;h:0;bat:84;baro:17.33;time:0;agx:3.00;agy:2.00;agz:-997.00;

",84,0,0,0,0,0,0,3.00,2.00,-997.00,17.33,10,0
6963.621979,"pitch:0;roll:0;yaw:0;vgx:0;vgy:0;vgz:0;templ:85;temph:87;tof:10;h:0;bat:84;baro:17.35;time:0;agx:4.00;agy:2.00;agz:-1000.00;
",84,0,0,0,0,0,0,4.00,2.00,-1000.00,17.35,10,0
6963.723916,"pitch:0;roll:0;yaw:0;vgx:0;vgy:0;vgz:0;templ:85;temph:87;tof:10;h:0;bat:84;baro:17.34;time:0;agx:4.00;agy:3.00;agz:-998.00;

",84,0,0,0,0,0,0,4.00,3.00,-998.00,17.34,10,0
6963.825972,"pitch:0;roll:0;yaw:0;vgx:0;vgy:0;vgz:0;templ:85;temph:87;tof:10;h:0;bat:84;baro:17.33;time:0;agx:4.00;agy:2.00;agz:-999.00;

",84,0,0,0,0,0,0,4.00,2.00,-999.00,17.33,10,0
6963.927790,"pitch:0;roll:0;yaw:0;vgx:0;vgy:0;vgz:0;templ:85;temph:87;tof:10;h:0;bat:84;baro:17.33;time:0;agx:3.00;agy:3.00;agz:-998.00;

",84,0,0,0,0,0,0,3.00,3.00,-998.00,17.33,10,0
6964.029768,"pitch:0;roll:0;yaw:0;vgx:0;vgy:0;vgz:0;templ:85;temph:87;tof:10;h:0;bat:84;baro:17.33;time:0;agx:4.00;agy:3.00;agz:-999.00;

",84,0,0,0,0,0,0,4.00,3.00,-999.00,17.33,10,0
6964.135411,"pitch:0;roll:0;yaw:0;vgx:0;vgy:0;vgz:0;templ:85;temph:87;tof:10;h:0;bat:84;baro:17.31;time:0;agx:4.00;agy:2.00;agz:-998.00;

",84,0,0,0,0,0,0,4.00,2.00,-998.00,17.31,10,0
6964.233845,"pitch:0;roll:0;yaw:0;vgx:0;vgy:0;vgz:0;templ:85;temph:87;tof:10;h:0;bat:84;baro:17.33;time:0;agx:4.00;agy:3.00;agz:-1001.00;
",84,0,0,0,0,0,0,4.00,3.00,-1001.00,17.33,10,0
6964.335639,"pitch:0;roll:0;yaw:0;vgx:0;vgy:0;vgz:0;templ:85;temph:87;tof:10;h:0;bat:84;baro:17.34;time:0;agx:4.00;agy:3.00;agz:-999.00;

",84,0,0,0,0,0,0,4.00,3.00,-999.00,17.34,10,0
6964.438664,"pitch:0;roll:0;yaw:0;vgx:0;vgy:0;vgz:0;templ:85;temph:87;tof:10;h:0;bat:84;baro:17.33;time:0;agx:4.00;agy:2.00;agz:-1001.00;
",84,0,0,0,0,0,0,4.00,2.00,-1001.00,17.33,10,0
6964.539812,"pitch:0;roll:0;yaw:0;vgx:0;vgy:0;vgz:0;templ:84;temph:88;tof:10;h:0;bat:84;baro:17.30;time:0;agx:4.00;agy:4.00;agz:-999.00;

",84,0,0,0,0,0,0,4.00,4.00,-999.00,17.30,10,0
6964.641677,"pitch:0;roll:0;yaw:0;vgx:0;vgy:0;vgz:0;templ:84;temph:88;tof:10;h:0;bat:84;baro:17.28;time:0;agx:3.00;agy:3.00;agz:-1001.00;
",84,0,0,0,0,0,0,3.00,3.00,-1001.00,17.28,10,0
6964.743859,"pitch:0;roll:0;yaw:0;vgx:0;vgy:0;vgz:0;templ:84;temph:88;tof:10;h:0;bat:84;baro:17.34;time:0;agx:3.00;agy:3.00;agz:-1000.00;
",84,0,0,0,0,0,0,3.00,3.00,-1000.00,17.34,10,0
6964.845824,"pitch:0;roll:0;yaw:0;vgx:0;vgy:0;vgz:0;templ:84;temph:88;tof:10;h:0;bat:84;baro:17.30;time:0;agx:4.00;agy:3.00;agz:-1001.00;
",84,0,0,0,0,0,0,4.00,3.00,-1001.00,17.30,10,0
6964.947668,"pitch:0;roll:0;yaw:0;vgx:0;vgy:0;vgz:0;templ:84;temph:88;tof:10;h:0;bat:84;baro:17.34;time:0;agx:3.00;agy:3.00;agz:-1001.00;
",84,0,0,0,0,0,0,3.00,3.00,-1001.00,17.34,10,0
6965.049717,"pitch:0;roll:0;yaw:0;vgx:0;vgy:0;vgz:0;templ:84;temph:88;tof:10;h:0;bat:83;baro:17.31;time:0;agx:4.00;agy:4.00;agz:-1002.00;
",83,0,0,0,0,0,0,4.00,4.00,-1002.00,17.31,10,0
6965.151657,"pitch:0;roll:0;yaw:0;vgx:0;vgy:0;vgz:0;templ:84;temph:88;tof:10;h:0;bat:83;baro:17.30;time:0;agx:4.00;agy:1.00;agz:-1000.00;
",83,0,0,0,0,0,0,4.00,1.00,-1000.00,17.30,10,0
6965.253844,"pitch:0;roll:0;yaw:0;vgx:0;vgy:0;vgz:0;templ:84;temph:88;tof:10;h:0;bat:83;baro:17.34;time:0;agx:3.00;agy:2.00;agz:-999.00;

",83,0,0,0,0,0,0,3.00,2.00,-999.00,17.34,10,0
6965.355826,"pitch:0;roll:0;yaw:0;vgx:0;vgy:0;vgz:0;templ:84;temph:88;tof:10;h:0;bat:83;baro:17.27;time:0;agx:3.00;agy:4.00;agz:-999.00;

",83,0,0,0,0,0,0,3.00,4.00,-999.00,17.27,10,0
6965.457691,"pitch:0;roll:0;yaw:0;vgx:0;vgy:0;vgz:0;templ:84;temph:88;tof:10;h:0;bat:83;baro:17.33;time:0;agx:4.00;agy:2.00;agz:-999.00;

",83,0,0,0,0,0,0,4.00,2.00,-999.00,17.33,10,0
6965.559754,"pitch:0;roll:0;yaw:0;vgx:0;vgy:0;vgz:0;templ:85;temph:87;tof:10;h:0;bat:83;baro:17.34;time:0;agx:3.00;agy:1.00;agz:-998.00;

",83,0,0,0,0,0,0,3.00,1.00,-998.00,17.34,10,0
6965.662788,"pitch:0;roll:0;yaw:0;vgx:0;vgy:0;vgz:0;templ:85;temph:87;tof:10;h:0;bat:83;baro:17.30;time:0;agx:5.00;agy:2.00;agz:-1002.00;
",83,0,0,0,0,0,0,5.00,2.00,-1002.00,17.30,10,0
6965.765283,"pitch:0;roll:0;yaw:0;vgx:0;vgy:0;vgz:0;templ:85;temph:87;tof:10;h:0;bat:83;baro:17.34;time:0;agx:3.00;agy:4.00;agz:-1000.00;
",83,0,0,0,0,0,0,3.00,4.00,-1000.00,17.34,10,0
6965.868816,"pitch:0;roll:0;yaw:0;vgx:0;vgy:0;vgz:0;templ:85;temph:87;tof:10;h:0;bat:83;baro:17.28;time:0;agx:3.00;agy:1.00;agz:-999.00;

",83,0,0,0,0,0,0,3.00,1.00,-999.00,17.28,10,0
6965.968614,"pitch:0;roll:0;yaw:0;vgx:0;vgy:0;vgz:0;templ:85;temph:87;tof:10;h:0;bat:83;baro:17.28;time:0;agx:3.00;agy:3.00;agz:-999.00;

",83,0,0,0,0,0,0,3.00,3.00,-999.00,17.28,10,0
6966.070821,"pitch:0;roll:0;yaw:0;vgx:0;vgy:0;vgz:0;templ:85;temph:87;tof:10;h:0;bat:83;baro:17.30;time:0;agx:4.00;agy:3.00;agz:-997.00;

",83,0,0,0,0,0,0,4.00,3.00,-997.00,17.30,10,0
6966.172818,"pitch:0;roll:0;yaw:0;vgx:0;vgy:0;vgz:0;templ:85;temph:87;tof:10;h:0;bat:83;baro:17.30;time:0;agx:4.00;agy:2.00;agz:-1000.00;
",83,0,0,0,0,0,0,4.00,2.00,-1000.00,17.30,10,0
6966.274870,"pitch:0;roll:0;yaw:0;vgx:0;vgy:0;vgz:0;templ:85;temph:87;tof:10;h:0;bat:83;baro:17.35;time:0;agx:3.00;agy:2.00;agz:-997.00;

",83,0,0,0,0,0,0,3.00,2.00,-997.00,17.35,10,0
6966.325700,"pitch:0;roll:0;yaw:0;vgx:0;vgy:0;vgz:0;templ:85;temph:87;tof:10;h:0;bat:83;baro:17.32;time:0;agx:3.00;agy:3.00;agz:-998.00;

",83,0,0,0,0,0,0,3.00,3.00,-998.00,17.32,10,0
6966.427874,"pitch:0;roll:0;yaw:0;vgx:0;vgy:0;vgz:0;templ:85;temph:87;tof:10;h:0;bat:83;baro:17.29;time:0;agx:2.00;agy:3.00;agz:-1002.00;
",83,0,0,0,0,0,0,2.00,3.00,-1002.00,17.29,10,0
6966.580895,"pitch:0;roll:0;yaw:0;vgx:0;vgy:0;vgz:0;templ:85;temph:88;tof:10;h:0;bat:83;baro:17.32;time:0;agx:4.00;agy:2.00;agz:-999.00;

",83,0,0,0,0,0,0,4.00,2.00,-999.00,17.32,10,0
6966.633163,"pitch:0;roll:0;yaw:0;vgx:0;vgy:0;vgz:0;templ:85;temph:88;tof:10;h:0;bat:83;baro:17.29;time:0;agx:4.00;agy:2.00;agz:-999.00;

",83,0,0,0,0,0,0,4.00,2.00,-999.00,17.29,10,0
6966.734163,"pitch:0;roll:0;yaw:0;vgx:0;vgy:0;vgz:0;templ:85;temph:88;tof:10;h:0;bat:83;baro:17.24;time:0;agx:3.00;agy:2.00;agz:-998.00;

",83,0,0,0,0,0,0,3.00,2.00,-998.00,17.24,10,0
6966.836464,"pitch:0;roll:0;yaw:0;vgx:0;vgy:0;vgz:0;templ:85;temph:88;tof:10;h:0;bat:83;baro:17.29;time:0;agx:4.00;agy:3.00;agz:-999.00;

",83,0,0,0,0,0,0,4.00,3.00,-999.00,17.29,10,0
6966.937661,"pitch:0;roll:0;yaw:0;vgx:0;vgy:0;vgz:0;templ:85;temph:88;tof:10;h:0;bat:83;baro:17.29;time:0;agx:5.00;agy:2.00;agz:-998.00;

",83,0,0,0,0,0,0,5.00,2.00,-998.00,17.29,10,0
6967.039814,"pitch:0;roll:0;yaw:0;vgx:0;vgy:0;vgz:0;templ:85;temph:88;tof:10;h:0;bat:83;baro:17.30;time:0;agx:4.00;agy:2.00;agz:-998.00;

",83,0,0,0,0,0,0,4.00,2.00,-998.00,17.30,10,0
6967.141605,"pitch:0;roll:0;yaw:0;vgx:0;vgy:0;vgz:0;templ:85;temph:88;tof:10;h:0;bat:83;baro:17.29;time:0;agx:5.00;agy:0.00;agz:-1001.00;
",83,0,0,0,0,0,0,5.00,0.00,-1001.00,17.29,10,0
6967.243699,"pitch:0;roll:0;yaw:0;vgx:0;vgy:0;vgz:0;templ:85;temph:88;tof:10;h:0;bat:83;baro:17.30;time:0;agx:5.00;agy:1.00;agz:-1001.00;
",83,0,0,0,0,0,0,5.00,1.00,-1001.00,17.30,10,0
6967.345917,"pitch:0;roll:0;yaw:0;vgx:0;vgy:0;vgz:0;templ:85;temph:88;tof:10;h:0;bat:83;baro:17.23;time:0;agx:3.00;agy:3.00;agz:-999.00;

",83,0,0,0,0,0,0,3.00,3.00,-999.00,17.23,10,0
6967.447436,"pitch:0;roll:0;yaw:0;vgx:0;vgy:0;vgz:0;templ:85;temph:88;tof:10;h:0;bat:83;baro:17.26;time:0;agx:5.00;agy:2.00;agz:-1001.00;
",83,0,0,0,0,0,0,5.00,2.00,-1001.00,17.26,10,0
6967.549888,"pitch:0;roll:0;yaw:0;vgx:0;vgy:0;vgz:0;templ:86;temph:88;tof:10;h:0;bat:83;baro:17.28;time:0;agx:3.00;agy:3.00;agz:-998.00;

",83,0,0,0,0,0,0,3.00,3.00,-998.00,17.28,10,0
6967.651633,"pitch:0;roll:0;yaw:0;vgx:0;vgy:0;vgz:0;templ:86;temph:88;tof:10;h:0;bat:83;baro:17.24;time:0;agx:4.00;agy:2.00;agz:-1001.00;
",83,0,0,0,0,0,0,4.00,2.00,-1001.00,17.24,10,0
6967.753861,"pitch:0;roll:0;yaw:0;vgx:0;vgy:0;vgz:0;templ:86;temph:88;tof:10;h:0;bat:83;baro:17.28;time:0;agx:5.00;agy:2.00;agz:-1002.00;
",83,0,0,0,0,0,0,5.00,2.00,-1002.00,17.28,10,0
6967.855821,"pitch:0;roll:0;yaw:0;vgx:0;vgy:0;vgz:0;templ:86;temph:88;tof:10;h:0;bat:83;baro:17.29;time:0;agx:4.00;agy:3.00;agz:-1001.00;
",83,0,0,0,0,0,0,4.00,3.00,-1001.00,17.29,10,0
6967.957923,"pitch:0;roll:0;yaw:0;vgx:0;vgy:0;vgz:0;templ:86;temph:88;tof:10;h:0;bat:83;baro:17.29;time:0;agx:3.00;agy:2.00;agz:-1001.00;
",83,0,0,0,0,0,0,3.00,2.00,-1001.00,17.29,10,0
6968.062089,"pitch:0;roll:0;yaw:0;vgx:0;vgy:0;vgz:0;templ:86;temph:88;tof:10;h:0;bat:83;baro:17.29;time:0;agx:2.00;agy:4.00;agz:-998.00;

",83,0,0,0,0,0,0,2.00,4.00,-998.00,17.29,10,0
6968.162798,"pitch:0;roll:0;yaw:0;vgx:0;vgy:0;vgz:0;templ:86;temph:88;tof:10;h:0;bat:83;baro:17.25;time:0;agx:3.00;agy:1.00;agz:-1002.00;
",83,0,0,0,0,0,0,3.00,1.00,-1002.00,17.25,10,0
6968.265731,"pitch:0;roll:0;yaw:0;vgx:0;vgy:0;vgz:0;templ:86;temph:88;tof:10;h:0;bat:83;baro:17.23;time:0;agx:4.00;agy:3.00;agz:-1000.00;
",83,0,0,0,0,0,0,4.00,3.00,-1000.00,17.23,10,0
6968.367693,"pitch:0;roll:0;yaw:0;vgx:0;vgy:0;vgz:0;templ:86;temph:88;tof:10;h:0;bat:83;baro:17.30;time:0;agx:3.00;agy:3.00;agz:-998.00;

",83,0,0,0,0,0,0,3.00,3.00,-998.00,17.30,10,0
6968.468363,"pitch:0;roll:0;yaw:0;vgx:0;vgy:0;vgz:0;templ:86;temph:88;tof:10;h:0;bat:83;baro:17.28;time:0;agx:4.00;agy:2.00;agz:-999.00;

",83,0,0,0,0,0,0,4.00,2.00,-999.00,17.28,10,0
6968.570585,"pitch:0;roll:0;yaw:0;vgx:0;vgy:0;vgz:0;templ:84;temph:88;tof:10;h:0;bat:83;baro:17.30;time:0;agx:3.00;agy:3.00;agz:-997.00;

",83,0,0,0,0,0,0,3.00,3.00,-997.00,17.30,10,0
6968.672885,"pitch:0;roll:0;yaw:0;vgx:0;vgy:0;vgz:0;templ:84;temph:88;tof:10;h:0;bat:83;baro:17.25;time:0;agx:4.00;agy:2.00;agz:-999.00;

",83,0,0,0,0,0,0,4.00,2.00,-999.00,17.25,10,0
6968.774864,"pitch:0;roll:0;yaw:0;vgx:0;vgy:0;vgz:0;templ:84;temph:88;tof:10;h:0;bat:83;baro:17.28;time:0;agx:4.00;agy:2.00;agz:-1001.00;
",83,0,0,0,0,0,0,4.00,2.00,-1001.00,17.28,10,0
6968.876518,"pitch:0;roll:0;yaw:0;vgx:0;vgy:0;vgz:0;templ:84;temph:88;tof:10;h:0;bat:83;baro:17.25;time:0;agx:4.00;agy:1.00;agz:-998.00;

",83,0,0,0,0,0,0,4.00,1.00,-998.00,17.25,10,0
6968.978294,"pitch:0;roll:0;yaw:0;vgx:0;vgy:0;vgz:0;templ:84;temph:88;tof:10;h:0;bat:83;baro:17.22;time:0;agx:3.00;agy:2.00;agz:-1001.00;
",83,0,0,0,0,0,0,3.00,2.00,-1001.00,17.22,10,0
6969.080902,"pitch:0;roll:0;yaw:0;vgx:0;vgy:0;vgz:0;templ:84;temph:88;tof:10;h:0;bat:83;baro:17.25;time:0;agx:4.00;agy:2.00;agz:-996.00;

",83,0,0,0,0,0,0,4.00,2.00,-996.00,17.25,10,0
6969.182878,"pitch:0;roll:0;yaw:0;vgx:0;vgy:0;vgz:0;templ:84;temph:88;tof:10;h:0;bat:83;baro:17.22;time:0;agx:4.00;agy:2.00;agz:-997.00;

",83,0,0,0,0,0,0,4.00,2.00,-997.00,17.22,10,0
6969.284897,"pitch:0;roll:0;yaw:0;vgx:0;vgy:0;vgz:0;templ:84;temph:88;tof:10;h:0;bat:83;baro:17.25;time:0;agx:4.00;agy:3.00;agz:-1001.00;
",83,0,0,0,0,0,0,4.00,3.00,-1001.00,17.25,10,0
6969.387521,"pitch:0;roll:0;yaw:0;vgx:0;vgy:0;vgz:0;templ:84;temph:88;tof:10;h:0;bat:83;baro:17.28;time:0;agx:4.00;agy:3.00;agz:-997.00;

",83,0,0,0,0,0,0,4.00,3.00,-997.00,17.28,10,0
6969.488553,"pitch:0;roll:0;yaw:0;vgx:0;vgy:0;vgz:0;templ:84;temph:88;tof:10;h:0;bat:83;baro:17.28;time:0;agx:4.00;agy:1.00;agz:-998.00;

",83,0,0,0,0,0,0,4.00,1.00,-998.00,17.28,10,0
6969.590876,"pitch:0;roll:0;yaw:0;vgx:0;vgy:0;vgz:0;templ:85;temph:87;tof:10;h:0;bat:83;baro:17.23;time:0;agx:2.00;agy:3.00;agz:-1001.00;
",83,0,0,0,0,0,0,2.00,3.00,-1001.00,17.23,10,0
6969.692871,"pitch:0;roll:0;yaw:0;vgx:0;vgy:0;vgz:0;templ:85;temph:87;tof:10;h:0;bat:83;baro:17.26;time:0;agx:3.00;agy:3.00;agz:-998.00;

",83,0,0,0,0,0,0,3.00,3.00,-998.00,17.26,10,0
6969.794673,"pitch:0;roll:0;yaw:0;vgx:0;vgy:0;vgz:0;templ:85;temph:87;tof:10;h:0;bat:83;baro:17.28;time:0;agx:3.00;agy:2.00;agz:-1000.00;
",83,0,0,0,0,0,0,3.00,2.00,-1000.00,17.28,10,0
6969.845435,"pitch:0;roll:0;yaw:0;vgx:0;vgy:0;vgz:0;templ:85;temph:87;tof:10;h:0;bat:83;baro:17.31;time:0;agx:4.00;agy:2.00;agz:-999.00;

",83,0,0,0,0,0,0,4.00,2.00,-999.00,17.31,10,0
6969.947402,"pitch:0;roll:0;yaw:0;vgx:0;vgy:0;vgz:0;templ:85;temph:87;tof:10;h:0;bat:83;baro:17.19;time:0;agx:4.00;agy:2.00;agz:-999.00;

",83,0,0,0,0,0,0,4.00,2.00,-999.00,17.19,10,0
6970.049762,"pitch:0;roll:0;yaw:0;vgx:0;vgy:0;vgz:0;templ:85;temph:87;tof:10;h:0;bat:83;baro:17.25;time:0;agx:4.00;agy:2.00;agz:-1002.00;
",83,0,0,0,0,0,0,4.00,2.00,-1002.00,17.25,10,0
6970.151502,"pitch:0;roll:0;yaw:0;vgx:0;vgy:0;vgz:0;templ:85;temph:87;tof:10;h:0;bat:83;baro:17.22;time:0;agx:4.00;agy:2.00;agz:-996.00;

",83,0,0,0,0,0,0,4.00,2.00,-996.00,17.22,10,0
6970.253440,"pitch:0;roll:0;yaw:0;vgx:0;vgy:0;vgz:0;templ:85;temph:87;tof:10;h:0;bat:83;baro:17.27;time:0;agx:3.00;agy:2.00;agz:-1000.00;
",83,0,0,0,0,0,0,3.00,2.00,-1000.00,17.27,10,0
6970.355455,"pitch:0;roll:0;yaw:0;vgx:0;vgy:0;vgz:0;templ:85;temph:87;tof:10;h:0;bat:83;baro:17.24;time:0;agx:4.00;agy:2.00;agz:-1001.00;
",83,0,0,0,0,0,0,4.00,2.00,-1001.00,17.24,10,0
6970.457903,"pitch:0;roll:0;yaw:0;vgx:0;vgy:0;vgz:0;templ:85;temph:87;tof:10;h:0;bat:83;baro:17.27;time:0;agx:4.00;agy:4.00;agz:-998.00;

",83,0,0,0,0,0,0,4.00,4.00,-998.00,17.27,10,0
6970.559600,"pitch:0;roll:0;yaw:0;vgx:0;vgy:0;vgz:0;templ:85;temph:88;tof:10;h:0;bat:83;baro:17.24;time:0;agx:5.00;agy:2.00;agz:-1000.00;
",83,0,0,0,0,0,0,5.00,2.00,-1000.00,17.24,10,0
6970.663375,"pitch:0;roll:0;yaw:0;vgx:0;vgy:0;vgz:0;templ:85;temph:88;tof:10;h:0;bat:83;baro:17.25;time:0;agx:2.00;agy:3.00;agz:-1000.00;
",83,0,0,0,0,0,0,2.00,3.00,-1000.00,17.25,10,0
6970.765778,"pitch:0;roll:0;yaw:0;vgx:0;vgy:0;vgz:0;templ:85;temph:88;tof:10;h:0;bat:83;baro:17.23;time:0;agx:4.00;agy:2.00;agz:-1001.00;
",83,0,0,0,0,0,0,4.00,2.00,-1001.00,17.23,10,0
6970.869034,"pitch:0;roll:0;yaw:0;vgx:0;vgy:0;vgz:0;templ:85;temph:88;tof:10;h:0;bat:83;baro:17.25;time:0;agx:3.00;agy:3.00;agz:-999.00;

",83,0,0,0,0,0,0,3.00,3.00,-999.00,17.25,10,0
6970.969365,"pitch:0;roll:0;yaw:0;vgx:0;vgy:0;vgz:0;templ:85;temph:88;tof:10;h:0;bat:83;baro:17.23;time:0;agx:4.00;agy:2.00;agz:-998.00;

",83,0,0,0,0,0,0,4.00,2.00,-998.00,17.23,10,0
6971.071399,"pitch:0;roll:0;yaw:0;vgx:0;vgy:0;vgz:0;templ:85;temph:88;tof:10;h:0;bat:83;baro:17.25;time:0;agx:4.00;agy:2.00;agz:-1001.00;
",83,0,0,0,0,0,0,4.00,2.00,-1001.00,17.25,10,0
6971.173119,"pitch:0;roll:0;yaw:0;vgx:0;vgy:0;vgz:0;templ:85;temph:88;tof:10;h:0;bat:83;baro:17.27;time:0;agx:5.00;agy:3.00;agz:-1001.00;
",83,0,0,0,0,0,0,5.00,3.00,-1001.00,17.27,10,0
6971.275391,"pitch:0;roll:0;yaw:0;vgx:0;vgy:0;vgz:0;templ:85;temph:88;tof:10;h:0;bat:83;baro:17.25;time:0;agx:5.00;agy:2.00;agz:-1000.00;
",83,0,0,0,0,0,0,5.00,2.00,-1000.00,17.25,10,0
6971.377513,"pitch:0;roll:0;yaw:0;vgx:0;vgy:0;vgz:0;templ:85;temph:88;tof:10;h:0;bat:83;baro:17.25;time:0;agx:4.00;agy:2.00;agz:-1001.00;
",83,0,0,0,0,0,0,4.00,2.00,-1001.00,17.25,10,0
6971.479747,"pitch:0;roll:0;yaw:0;vgx:0;vgy:0;vgz:0;templ:85;temph:88;tof:10;h:0;bat:83;baro:17.26;time:0;agx:5.00;agy:4.00;agz:-998.00;

",83,0,0,0,0,0,0,5.00,4.00,-998.00,17.26,10,0
6971.581759,"pitch:0;roll:0;yaw:0;vgx:0;vgy:0;vgz:0;templ:86;temph:88;tof:10;h:0;bat:83;baro:17.27;time:0;agx:6.00;agy:1.00;agz:-1000.00;
",83,0,0,0,0,0,0,6.00,1.00,-1000.00,17.27,10,0
6971.683821,"pitch:0;roll:0;yaw:0;vgx:0;vgy:0;vgz:0;templ:86;temph:88;tof:10;h:0;bat:83;baro:17.23;time:0;agx:4.00;agy:3.00;agz:-999.00;

",83,0,0,0,0,0,0,4.00,3.00,-999.00,17.23,10,0
6971.790388,"pitch:0;roll:0;yaw:0;vgx:0;vgy:0;vgz:0;templ:86;temph:88;tof:10;h:0;bat:83;baro:17.25;time:0;agx:4.00;agy:2.00;agz:-997.00;

",83,0,0,0,0,0,0,4.00,2.00,-997.00,17.25,10,0
6971.887531,"pitch:0;roll:0;yaw:0;vgx:0;vgy:0;vgz:0;templ:86;temph:88;tof:10;h:0;bat:83;baro:17.27;time:0;agx:5.00;agy:2.00;agz:-999.00;

",83,0,0,0,0,0,0,5.00,2.00,-999.00,17.27,10,0
6971.989398,"pitch:0;roll:0;yaw:0;vgx:0;vgy:0;vgz:0;templ:86;temph:88;tof:10;h:0;bat:83;baro:17.23;time:0;agx:4.00;agy:2.00;agz:-999.00;

",83,0,0,0,0,0,0,4.00,2.00,-999.00,17.23,10,0
6972.091398,"pitch:0;roll:0;yaw:0;vgx:0;vgy:0;vgz:0;templ:86;temph:88;tof:10;h:0;bat:83;baro:17.23;time:0;agx:4.00;agy:1.00;agz:-999.00;

",83,0,0,0,0,0,0,4.00,1.00,-999.00,17.23,10,0
6972.193380,"pitch:0;roll:0;yaw:0;vgx:0;vgy:0;vgz:0;templ:86;temph:88;tof:10;h:0;bat:83;baro:17.21;time:0;agx:5.00;agy:2.00;agz:-1000.00;
",83,0,0,0,0,0,0,5.00,2.00,-1000.00,17.21,10,0
6972.299461,"pitch:0;roll:0;yaw:0;vgx:0;vgy:0;vgz:0;templ:86;temph:88;tof:10;h:0;bat:83;baro:17.19;time:0;agx:4.00;agy:4.00;agz:-997.00;

",83,0,0,0,0,0,0,4.00,4.00,-997.00,17.19,10,0
6972.397399,"pitch:0;roll:0;yaw:0;vgx:0;vgy:0;vgz:0;templ:86;temph:88;tof:10;h:0;bat:83;baro:17.23;time:0;agx:3.00;agy:2.00;agz:-1001.00;
",83,0,0,0,0,0,0,3.00,2.00,-1001.00,17.23,10,0
6972.500984,"pitch:0;roll:0;yaw:0;vgx:0;vgy:0;vgz:0;templ:86;temph:88;tof:10;h:0;bat:83;baro:17.23;time:0;agx:5.00;agy:2.00;agz:-998.00;

",83,0,0,0,0,0,0,5.00,2.00,-998.00,17.23,10,0
6972.602515,"pitch:0;roll:0;yaw:0;vgx:0;vgy:0;vgz:0;templ:85;temph:88;tof:10;h:0;bat:83;baro:17.22;time:0;agx:4.00;agy:3.00;agz:-996.00;

",83,0,0,0,0,0,0,4.00,3.00,-996.00,17.22,10,0
6972.704273,"pitch:0;roll:0;yaw:0;vgx:0;vgy:0;vgz:0;templ:85;temph:88;tof:10;h:0;bat:83;baro:17.24;time:0;agx:4.00;agy:3.00;agz:-999.00;

",83,0,0,0,0,0,0,4.00,3.00,-999.00,17.24,10,0
6972.806399,"pitch:0;roll:0;yaw:0;vgx:0;vgy:0;vgz:0;templ:85;temph:88;tof:10;h:0;bat:83;baro:17.22;time:0;agx:4.00;agy:2.00;agz:-1000.00;
",83,0,0,0,0,0,0,4.00,2.00,-1000.00,17.22,10,0
6972.908408,"pitch:0;roll:0;yaw:0;vgx:0;vgy:0;vgz:0;templ:85;temph:88;tof:10;h:0;bat:83;baro:17.18;time:0;agx:3.00;agy:5.00;agz:-1000.00;
",83,0,0,0,0,0,0,3.00,5.00,-1000.00,17.18,10,0
6973.010392,"pitch:0;roll:0;yaw:0;vgx:0;vgy:0;vgz:0;templ:85;temph:88;tof:10;h:0;bat:83;baro:17.20;time:0;agx:4.00;agy:4.00;agz:-998.00;

",83,0,0,0,0,0,0,4.00,4.00,-998.00,17.20,10,0
6973.112374,"pitch:0;roll:0;yaw:0;vgx:0;vgy:0;vgz:0;templ:85;temph:88;tof:10;h:0;bat:83;baro:17.26;time:0;agx:6.00;agy:2.00;agz:-999.00;

",83,0,0,0,0,0,0,6.00,2.00,-999.00,17.26,10,0
6973.214676,"pitch:0;roll:0;yaw:0;vgx:0;vgy:0;vgz:0;templ:85;temph:88;tof:10;h:0;bat:83;baro:17.30;time:0;agx:4.00;agy:3.00;agz:-1000.00;
",83,0,0,0,0,0,0,4.00,3.00,-1000.00,17.30,10,0
6973.267461,"pitch:0;roll:0;yaw:0;vgx:0;vgy:0;vgz:0;templ:85;temph:88;tof:10;h:0;bat:83;baro:17.25;time:0;agx:4.00;agy:1.00;agz:-1000.00;
",83,0,0,0,0,0,0,4.00,1.00,-1000.00,17.25,10,0
6973.369562,"pitch:0;roll:0;yaw:0;vgx:0;vgy:0;vgz:0;templ:85;temph:88;tof:10;h:0;bat:83;baro:17.23;time:0;agx:5.00;agy:3.00;agz:-999.00;

",83,0,0,0,0,0,0,5.00,3.00,-999.00,17.23,10,0
6973.470815,"pitch:0;roll:0;yaw:0;vgx:0;vgy:0;vgz:0;templ:85;temph:88;tof:10;h:0;bat:83;baro:17.23;time:0;agx:3.00;agy:2.00;agz:-998.00;

",83,0,0,0,0,0,0,3.00,2.00,-998.00,17.23,10,0
6973.572226,"pitch:0;roll:0;yaw:0;vgx:0;vgy:0;vgz:0;templ:86;temph:89;tof:10;h:0;bat:83;baro:17.21;time:0;agx:5.00;agy:2.00;agz:-1000.00;
",83,0,0,0,0,0,0,5.00,2.00,-1000.00,17.21,10,0
6973.674405,"pitch:0;roll:0;yaw:0;vgx:0;vgy:0;vgz:0;templ:86;temph:89;tof:10;h:0;bat:83;baro:17.25;time:0;agx:5.00;agy:3.00;agz:-1000.00;
",83,0,0,0,0,0,0,5.00,3.00,-1000.00,17.25,10,0
6973.776384,"pitch:0;roll:0;yaw:0;vgx:0;vgy:0;vgz:0;templ:86;temph:89;tof:10;h:0;bat:83;baro:17.21;time:0;agx:5.00;agy:2.00;agz:-999.00;

",83,0,0,0,0,0,0,5.00,2.00,-999.00,17.21,10,0
6973.878418,"pitch:0;roll:0;yaw:0;vgx:0;vgy:0;vgz:0;templ:86;temph:89;tof:10;h:0;bat:83;baro:17.23;time:0;agx:3.00;agy:3.00;agz:-999.00;

",83,0,0,0,0,0,0,3.00,3.00,-999.00,17.23,10,0
6973.980316,"pitch:0;roll:0;yaw:0;vgx:0;vgy:0;vgz:0;templ:86;temph:89;tof:10;h:0;bat:83;baro:17.25;time:0;agx:2.00;agy:2.00;agz:-999.00;

",83,0,0,0,0,0,0,2.00,2.00,-999.00,17.25,10,0
6974.082384,"pitch:0;roll:0;yaw:0;vgx:0;vgy:0;vgz:0;templ:86;temph:89;tof:10;h:0;bat:83;baro:17.20;time:0;agx:4.00;agy:3.00;agz:-999.00;

",83,0,0,0,0,0,0,4.00,3.00,-999.00,17.20,10,0
6974.184725,"pitch:0;roll:0;yaw:0;vgx:0;vgy:0;vgz:0;templ:86;temph:89;tof:10;h:0;bat:83;baro:17.26;time:0;agx:4.00;agy:3.00;agz:-999.00;

",83,0,0,0,0,0,0,4.00,3.00,-999.00,17.26,10,0
6974.286649,"pitch:0;roll:0;yaw:0;vgx:0;vgy:0;vgz:0;templ:86;temph:89;tof:10;h:0;bat:83;baro:17.26;time:0;agx:4.00;agy:1.00;agz:-1001.00;
",83,0,0,0,0,0,0,4.00,1.00,-1001.00,17.26,10,0
6974.389722,"pitch:0;roll:0;yaw:0;vgx:0;vgy:0;vgz:0;templ:86;temph:89;tof:10;h:0;bat:83;baro:17.26;time:0;agx:3.00;agy:2.00;agz:-997.00;

",83,0,0,0,0,0,0,3.00,2.00,-997.00,17.26,10,0
6974.490186,"pitch:0;roll:0;yaw:0;vgx:0;vgy:0;vgz:0;templ:86;temph:89;tof:10;h:0;bat:83;baro:17.23;time:0;agx:6.00;agy:2.00;agz:-999.00;

",83,0,0,0,0,0,0,6.00,2.00,-999.00,17.23,10,0
6974.592175,"pitch:0;roll:0;yaw:0;vgx:0;vgy:0;vgz:0;templ:86;temph:88;tof:10;h:0;bat:83;baro:17.18;time:0;agx:4.00;agy:3.00;agz:-999.00;

",83,0,0,0,0,0,0,4.00,3.00,-999.00,17.18,10,0
6974.695702,"pitch:0;roll:0;yaw:0;vgx:0;vgy:0;vgz:0;templ:86;temph:88;tof:10;h:0;bat:83;baro:17.28;time:0;agx:3.00;agy:1.00;agz:-1000.00;
",83,0,0,0,0,0,0,3.00,1.00,-1000.00,17.28,10,0
6974.796776,"pitch:0;roll:0;yaw:0;vgx:0;vgy:0;vgz:0;templ:86;temph:88;tof:10;h:0;bat:83;baro:17.27;time:0;agx:4.00;agy:3.00;agz:-998.00;

",83,0,0,0,0,0,0,4.00,3.00,-998.00,17.27,10,0
6974.900645,"pitch:0;roll:0;yaw:0;vgx:0;vgy:0;vgz:0;templ:86;temph:88;tof:10;h:0;bat:83;baro:17.24;time:0;agx:4.00;agy:2.00;agz:-999.00;

",83,0,0,0,0,0,0,4.00,2.00,-999.00,17.24,10,0
6975.004686,"pitch:0;roll:0;yaw:0;vgx:0;vgy:0;vgz:0;templ:86;temph:88;tof:10;h:0;bat:83;baro:17.28;time:0;agx:4.00;agy:4.00;agz:-1003.00;
",83,0,0,0,0,0,0,4.00,4.00,-1003.00,17.28,10,0
6975.103169,"pitch:0;roll:0;yaw:0;vgx:0;vgy:0;vgz:0;templ:86;temph:88;tof:10;h:0;bat:83;baro:17.25;time:0;agx:5.00;agy:3.00;agz:-1001.00;
",83,0,0,0,0,0,0,5.00,3.00,-1001.00,17.25,10,0
6975.208965,"pitch:0;roll:0;yaw:0;vgx:0;vgy:0;vgz:0;templ:86;temph:88;tof:10;h:0;bat:83;baro:17.24;time:0;agx:4.00;agy:3.00;agz:-997.00;

",83,0,0,0,0,0,0,4.00,3.00,-997.00,17.24,10,0
6975.306373,"pitch:0;roll:0;yaw:0;vgx:0;vgy:0;vgz:0;templ:86;temph:88;tof:10;h:0;bat:83;baro:17.26;time:0;agx:3.00;agy:3.00;agz:-1002.00;
",83,0,0,0,0,0,0,3.00,3.00,-1002.00,17.26,10,0
6975.408125,"pitch:0;roll:0;yaw:0;vgx:0;vgy:0;vgz:0;templ:86;temph:88;tof:10;h:0;bat:83;baro:17.25;time:0;agx:5.00;agy:4.00;agz:-1000.00;
",83,0,0,0,0,0,0,5.00,4.00,-1000.00,17.25,10,0
6975.511029,"pitch:0;roll:0;yaw:0;vgx:0;vgy:0;vgz:0;templ:86;temph:88;tof:10;h:0;bat:83;baro:17.26;time:0;agx:6.00;agy:2.00;agz:-998.00;

",83,0,0,0,0,0,0,6.00,2.00,-998.00,17.26,10,0
6975.613179,"pitch:0;roll:0;yaw:0;vgx:0;vgy:0;vgz:0;templ:86;temph:88;tof:10;h:0;bat:83;baro:17.25;time:0;agx:5.00;agy:2.00;agz:-999.00;

",83,0,0,0,0,0,0,5.00,2.00,-999.00,17.25,10,0
6975.715149,"pitch:0;roll:0;yaw:0;vgx:0;vgy:0;vgz:0;templ:86;temph:88;tof:10;h:0;bat:83;baro:17.27;time:0;agx:5.00;agy:3.00;agz:-1002.00;
",83,0,0,0,0,0,0,5.00,3.00,-1002.00,17.27,10,0
6975.817144,"pitch:0;roll:0;yaw:0;vgx:0;vgy:0;vgz:0;templ:86;temph:88;tof:10;h:0;bat:83;baro:17.31;time:0;agx:5.00;agy:2.00;agz:-998.00;

",83,0,0,0,0,0,0,5.00,2.00,-998.00,17.31,10,0
6975.919442,"pitch:0;roll:0;yaw:0;vgx:0;vgy:0;vgz:0;templ:86;temph:88;tof:10;h:0;bat:83;baro:17.28;time:0;agx:4.00;agy:2.00;agz:-999.00;

",83,0,0,0,0,0,0,4.00,2.00,-999.00,17.28,10,0
6976.021159,"pitch:0;roll:0;yaw:0;vgx:0;vgy:0;vgz:0;templ:86;temph:88;tof:10;h:0;bat:83;baro:17.30;time:0;agx:4.00;agy:1.00;agz:-999.00;

",83,0,0,0,0,0,0,4.00,1.00,-999.00,17.30,10,0
6976.123262,"pitch:0;roll:0;yaw:0;vgx:0;vgy:0;vgz:0;templ:86;temph:88;tof:10;h:0;bat:83;baro:17.24;time:0;agx:3.00;agy:3.00;agz:-1000.00;
",83,0,0,0,0,0,0,3.00,3.00,-1000.00,17.24,10,0
6976.225320,"pitch:0;roll:0;yaw:0;vgx:0;vgy:0;vgz:0;templ:86;temph:88;tof:10;h:0;bat:83;baro:17.33;time:0;agx:2.00;agy:2.00;agz:-1002.00;
",83,0,0,0,0,0,0,2.00,2.00,-1002.00,17.33,10,0
6976.329890,"pitch:0;roll:0;yaw:0;vgx:0;vgy:0;vgz:0;templ:86;temph:88;tof:10;h:0;bat:83;baro:17.26;time:0;agx:3.00;agy:1.00;agz:-1001.00;
",83,0,0,0,0,0,0,3.00,1.00,-1001.00,17.26,10,0
6976.430463,"pitch:0;roll:0;yaw:0;vgx:0;vgy:0;vgz:0;templ:86;temph:88;tof:10;h:0;bat:83;baro:17.29;time:0;agx:6.00;agy:2.00;agz:-1000.00;
",83,0,0,0,0,0,0,6.00,2.00,-1000.00,17.29,10,0
6976.482365,"pitch:0;roll:0;yaw:0;vgx:0;vgy:0;vgz:0;templ:86;temph:88;tof:10;h:0;bat:83;baro:17.28;time:0;agx:4.00;agy:2.00;agz:-999.00;

",83,0,0,0,0,0,0,4.00,2.00,-999.00,17.28,10,0
6976.584516,"pitch:0;roll:0;yaw:0;vgx:0;vgy:0;vgz:0;templ:86;temph:89;tof:10;h:0;bat:83;baro:17.25;time:0;agx:4.00;agy:3.00;agz:-998.00;

",83,0,0,0,0,0,0,4.00,3.00,-998.00,17.25,10,0
6976.686386,"pitch:0;roll:0;yaw:0;vgx:0;vgy:0;vgz:0;templ:86;temph:89;tof:10;h:0;bat:83;baro:17.28;time:0;agx:4.00;agy:1.00;agz:-997.00;

",83,0,0,0,0,0,0,4.00,1.00,-997.00,17.28,10,0
6976.788058,"pitch:0;roll:0;yaw:0;vgx:0;vgy:0;vgz:0;templ:86;temph:89;tof:10;h:0;bat:83;baro:17.28;time:0;agx:3.00;agy:2.00;agz:-1000.00;
",83,0,0,0,0,0,0,3.00,2.00,-1000.00,17.28,10,0
6976.890157,"pitch:0;roll:0;yaw:0;vgx:0;vgy:0;vgz:0;templ:86;temph:89;tof:10;h:0;bat:83;baro:17.29;time:0;agx:4.00;agy:4.00;agz:-1000.00;
",83,0,0,0,0,0,0,4.00,4.00,-1000.00,17.29,10,0
6976.992256,"pitch:0;roll:0;yaw:0;vgx:0;vgy:0;vgz:0;templ:86;temph:89;tof:10;h:0;bat:83;baro:17.27;time:0;agx:2.00;agy:3.00;agz:-1001.00;
",83,0,0,0,0,0,0,2.00,3.00,-1001.00,17.27,10,0
6977.095439,"pitch:0;roll:0;yaw:0;vgx:0;vgy:0;vgz:0;templ:86;temph:89;tof:10;h:0;bat:83;baro:17.30;time:0;agx:3.00;agy:4.00;agz:-1000.00;
",83,0,0,0,0,0,0,3.00,4.00,-1000.00,17.30,10,0
6977.196178,"pitch:0;roll:0;yaw:0;vgx:0;vgy:0;vgz:0;templ:86;temph:89;tof:10;h:0;bat:83;baro:17.25;time:0;agx:4.00;agy:2.00;agz:-999.00;

",83,0,0,0,0,0,0,4.00,2.00,-999.00,17.25,10,0
6977.299452,"pitch:0;roll:0;yaw:0;vgx:0;vgy:0;vgz:0;templ:86;temph:89;tof:10;h:0;bat:83;baro:17.25;time:0;agx:4.00;agy:3.00;agz:-1000.00;
",83,0,0,0,0,0,0,4.00,3.00,-1000.00,17.25,10,0
6977.401211,"pitch:0;roll:0;yaw:0;vgx:0;vgy:0;vgz:0;templ:86;temph:89;tof:10;h:0;bat:83;baro:17.21;time:0;agx:3.00;agy:3.00;agz:-1000.00;
",83,0,0,0,0,0,0,3.00,3.00,-1000.00,17.21,10,0
6977.503241,"pitch:0;roll:0;yaw:0;vgx:0;vgy:0;vgz:0;templ:86;temph:89;tof:10;h:0;bat:83;baro:17.22;time:0;agx:4.00;agy:3.00;agz:-999.00;

",83,0,0,0,0,0,0,4.00,3.00,-999.00,17.22,10,0
6977.605175,"pitch:0;roll:0;yaw:0;vgx:0;vgy:0;vgz:0;templ:86;temph:89;tof:10;h:0;bat:83;baro:17.26;time:0;agx:2.00;agy:3.00;agz:-1000.00;
",83,0,0,0,0,0,0,2.00,3.00,-1000.00,17.26,10,0
6977.707120,"pitch:0;roll:0;yaw:0;vgx:0;vgy:0;vgz:0;templ:86;temph:89;tof:10;h:0;bat:83;baro:17.26;time:0;agx:3.00;agy:2.00;agz:-1002.00;
",83,0,0,0,0,0,0,3.00,2.00,-1002.00,17.26,10,0
6977.809088,"pitch:0;roll:0;yaw:0;vgx:0;vgy:0;vgz:0;templ:86;temph:89;tof:10;h:0;bat:83;baro:17.26;time:0;agx:4.00;agy:3.00;agz:-1000.00;
",83,0,0,0,0,0,0,4.00,3.00,-1000.00,17.26,10,0
6977.911067,"pitch:0;roll:0;yaw:0;vgx:0;vgy:0;vgz:0;templ:86;temph:89;tof:10;h:0;bat:83;baro:17.26;time:0;agx:7.00;agy:0.00;agz:-999.00;

",83,0,0,0,0,0,0,7.00,0.00,-999.00,17.26,10,0
6978.013493,"pitch:0;roll:0;yaw:0;vgx:0;vgy:0;vgz:0;templ:86;temph:89;tof:10;h:0;bat:83;baro:17.26;time:0;agx:-9.00;agy:13.00;agz:-1004.00;
=Ą
c",83,0,0,0,0,0,0,-9.00,13.00,-1004.00,17.26,10,0
6978.115182,"pitch:0;roll:0;yaw:0;vgx:0;vgy:0;vgz:0;templ:86;temph:89;tof:10;h:0;bat:83;baro:17.26;time:0;agx:-11.00;agy:22.00;agz:-994.00;
=Ą
c",83,0,0,0,0,0,0,-11.00,22.00,-994.00,17.26,10,0
6978.217399,"pitch:0;roll:0;yaw:0;vgx:0;vgy:0;vgz:0;templ:86;temph:89;tof:10;h:0;bat:83;baro:17.26;time:0;agx:15.00;agy:1.00;agz:-1018.00;

=Ą
c",83,0,0,0,0,0,0,15.00,1.00,-1018.00,17.26,10,0
6978.319098,"pitch:0;roll:0;yaw:0;vgx:0;vgy:0;vgz:0;templ:86;temph:89;tof:10;h:0;bat:83;baro:17.26;time:0;agx:30.00;agy:-23.00;agz:-1066.00;
Ą
c",83,0,0,0,0,0,0,30.00,-23.00,-1066.00,17.26,10,0
6978.421157,"pitch:0;roll:0;yaw:0;vgx:0;vgy:0;vgz:0;templ:86;temph:89;tof:10;h:0;bat:83;baro:17.26;time:0;agx:1.00;agy:1.00;agz:-1192.00;
;
Ą
c",83,0,0,0,0,0,0,1.00,1.00,-1192.00,17.26,10,0
6978.523739,"pitch:0;roll:0;yaw:0;vgx:0;vgy:0;vgz:-1;templ:86;temph:89;tof:10;h:0;bat:83;baro:17.26;time:0;agx:-27.00;agy:-1.00;agz:-1352.00;

c",83,0,0,0,0,0,-1,-27.00,-1.00,-1352.00,17.26,10,0
6978.626078,"pitch:0;roll:0;yaw:0;vgx:0;vgy:0;vgz:-6;templ:87;temph:89;tof:16;h:0;bat:83;baro:17.37;time:0;agx:-2.00;agy:0.00;agz:-1194.00;


c",83,0,0,0,0,0,-6,-2.00,0.00,-1194.00,17.37,16,0
6978.728396,"pitch:0;roll:0;yaw:0;vgx:0;vgy:0;vgz:-7;templ:87;temph:89;tof:24;h:0;bat:83;baro:17.61;time:0;agx:-6.00;agy:-4.00;agz:-1075.00;


c",83,0,0,0,0,0,-7,-6.00,-4.00,-1075.00,17.61,24,0
6978.830168,"pitch:0;roll:0;yaw:0;vgx:0;vgy:0;vgz:-7;templ:87;temph:89;tof:34;h:10;bat:83;baro:17.71;time:1;agx:-29.00;agy:14.00;agz:-1066.00;
c",83,0,0,0,0,0,-7,-29.00,14.00,-1066.00,17.71,34,10
6978.932913,"pitch:0;roll:0;yaw:0;vgx:0;vgy:0;vgz:-7;templ:87;temph:89;tof:44;h:10;bat:83;baro:17.80;time:1;agx:19.00;agy:-16.00;agz:-976.00;

c",83,0,0,0,0,0,-7,19.00,-16.00,-976.00,17.80,44,10
6979.036033,"pitch:0;roll:0;yaw:0;vgx:0;vgy:0;vgz:-6;templ:87;temph:89;tof:53;h:20;bat:83;baro:17.87;time:1;agx:-8.00;agy:0.00;agz:-914.00;


c",83,0,0,0,0,0,-6,-8.00,0.00,-914.00,17.87,53,20
6979.136080,"pitch:0;roll:0;yaw:0;vgx:0;vgy:0;vgz:-5;templ:87;temph:89;tof:58;h:20;bat:83;baro:17.91;time:1;agx:2.00;agy:14.00;agz:-926.00;


c",83,0,0,0,0,0,-5,2.00,14.00,-926.00,17.91,58,20
6979.240829,"pitch:0;roll:0;yaw:0;vgx:0;vgy:0;vgz:-4;templ:87;temph:89;tof:65;h:30;bat:83;baro:18.03;time:1;agx:-5.00;agy:8.00;agz:-881.00;


c",83,0,0,0,0,0,-4,-5.00,8.00,-881.00,18.03,65,30
6979.340424,"pitch:0;roll:0;yaw:0;vgx:0;vgy:0;vgz:-2;templ:87;temph:89;tof:72;h:30;bat:83;baro:18.06;time:1;agx:4.00;agy:-21.00;agz:-859.00;


c",83,0,0,0,0,0,-2,4.00,-21.00,-859.00,18.06,72,30
6979.445146,"pitch:0;roll:0;yaw:0;vgx:0;vgy:0;vgz:-1;templ:87;temph:89;tof:77;h:30;bat:83;baro:18.17;time:1;agx:-20.00;agy:23.00;agz:-904.00;

c",83,0,0,0,0,0,-1,-20.00,23.00,-904.00,18.17,77,30
6979.547873,"pitch:-1;roll:-1;yaw:0;vgx:0;vgy:0;vgz:-1;templ:87;temph:89;tof:83;h:30;bat:83;baro:18.25;time:1;agx:-40.00;agy:50.00;agz:-926.00;
c",83,-1,-1,0,0,0,-1,-40.00,50.00,-926.00,18.25,83,30
6979.648054,"pitch:0;roll:0;yaw:0;vgx:0;vgy:0;vgz:0;templ:87;temph:90;tof:87;h:40;bat:83;baro:18.33;time:1;agx:-28.00;agy:40.00;agz:-943.00;
;
c",83,0,0,0,0,0,0,-28.00,40.00,-943.00,18.33,87,40
6979.754036,"pitch:0;roll:0;yaw:0;vgx:0;vgy:0;vgz:0;templ:87;temph:90;tof:90;h:40;bat:83;baro:18.31;time:1;agx:-10.00;agy:17.00;agz:-934.00;
;
c",83,0,0,0,0,0,0,-10.00,17.00,-934.00,18.31,90,40
6979.852896,"pitch:0;roll:0;yaw:0;vgx:0;vgy:0;vgz:0;templ:87;temph:90;tof:92;h:40;bat:83;baro:18.46;time:2;agx:6.00;agy:-9.00;agz:-949.00;

;
c",83,0,0,0,0,0,0,6.00,-9.00,-949.00,18.46,92,40
6979.952093,"pitch:0;roll:0;yaw:0;vgx:0;vgy:0;vgz:0;templ:87;temph:90;tof:94;h:40;bat:83;baro:18.37;time:2;agx:-18.00;agy:11.00;agz:-968.00;
;
c",83,0,0,0,0,0,0,-18.00,11.00,-968.00,18.37,94,40
6980.003513,"pitch:0;roll:0;yaw:0;vgx:0;vgy:0;vgz:0;templ:87;temph:90;tof:94;h:40;bat:83;baro:18.41;time:2;agx:44.00;agy:-18.00;agz:-962.00;
;
c",83,0,0,0,0,0,0,44.00,-18.00,-962.00,18.41,94,40
6980.105788,"pitch:0;roll:0;yaw:0;vgx:0;vgy:0;vgz:0;templ:87;temph:90;tof:95;h:40;bat:83;baro:18.35;time:2;agx:-6.00;agy:-4.00;agz:-949.00;

;
c",83,0,0,0,0,0,0,-6.00,-4.00,-949.00,18.35,95,40
6980.206938,"pitch:0;roll:0;yaw:0;vgx:0;vgy:0;vgz:0;templ:87;temph:90;tof:96;h:40;bat:83;baro:18.43;time:2;agx:10.00;agy:5.00;agz:-982.00;


;
c",83,0,0,0,0,0,0,10.00,5.00,-982.00,18.43,96,40
6980.309057,"pitch:0;roll:0;yaw:0;vgx:0;vgy:0;vgz:1;templ:87;temph:90;tof:97;h:40;bat:83;baro:18.38;time:2;agx:-2.00;agy:-15.00;agz:-959.00;
;
c",83,0,0,0,0,0,1,-2.00,-15.00,-959.00,18.38,97,40
6980.411098,"pitch:0;roll:0;yaw:0;vgx:0;vgy:0;vgz:1;templ:87;temph:90;tof:95;h:40;bat:83;baro:18.38;time:2;agx:-26.00;agy:8.00;agz:-975.00;

;
c",83,0,0,0,0,0,1,-26.00,8.00,-975.00,18.38,95,40
6980.512754,"pitch:0;roll:0;yaw:0;vgx:0;vgy:0;vgz:1;templ:87;temph:90;tof:95;h:40;bat:83;baro:18.41;time:2;agx:-14.00;agy:11.00;agz:-989.00;
;
c",83,0,0,0,0,0,1,-14.00,11.00,-989.00,18.41,95,40
6980.621703,"pitch:0;roll:0;yaw:0;vgx:0;vgy:0;vgz:1;templ:86;temph:88;tof:95;h:40;bat:83;baro:18.39;time:2;agx:0.00;agy:11.00;agz:-987.00;

;
c",83,0,0,0,0,0,1,0.00,11.00,-987.00,18.39,95,40
6980.716999,"pitch:0;roll:0;yaw:0;vgx:0;vgy:0;vgz:1;templ:86;temph:88;tof:95;h:40;bat:83;baro:18.41;time:2;agx:7.00;agy:0.00;agz:-967.00;


;
c",83,0,0,0,0,0,1,7.00,0.00,-967.00,18.41,95,40
6980.819135,"pitch:0;roll:0;yaw:0;vgx:0;vgy:0;vgz:1;templ:86;temph:88;tof:95;h:40;bat:83;baro:18.41;time:3;agx:-8.00;agy:4.00;agz:-990.00;

;
c",83,0,0,0,0,0,1,-8.00,4.00,-990.00,18.41,95,40
6980.921108,"pitch:0;roll:0;yaw:0;vgx:0;vgy:0;vgz:1;templ:86;temph:88;tof:94;h:40;bat:83;baro:18.41;time:3;agx:-19.00;agy:32.00;agz:-985.00;
;
c",83,0,0,0,0,0,1,-19.00,32.00,-985.00,18.41,94,40
6981.023031,"pitch:0;roll:0;yaw:0;vgx:0;vgy:0;vgz:1;templ:86;temph:88;tof:94;h:40;bat:83;baro:18.36;time:3;agx:-2.00;agy:1.00;agz:-999.00;

;
c",83,0,0,0,0,0,1,-2.00,1.00,-999.00,18.36,94,40
6981.125089,"pitch:0;roll:0;yaw:0;vgx:0;vgy:0;vgz:1;templ:86;temph:88;tof:94;h:40;bat:83;baro:18.43;time:3;agx:-25.00;agy:-5.00;agz:-1011.00;

c",83,0,0,0,0,0,1,-25.00,-5.00,-1011.00,18.43,94,40
6981.227067,"pitch:-2;roll:0;yaw:0;vgx:0;vgy:0;vgz:0;templ:86;temph:88;tof:94;h:40;bat:83;baro:18.36;time:3;agx:-12.00;agy:9.00;agz:-1057.00;

c",83,-2,0,0,0,0,0,-12.00,9.00,-1057.00,18.36,94,40
6981.329047,"pitch:-2;roll:0;yaw:0;vgx:0;vgy:0;vgz:0;templ:86;temph:88;tof:94;h:40;bat:83;baro:18.42;time:3;agx:-34.00;agy:21.00;agz:-1043.00;

c",83,-2,0,0,0,0,0,-34.00,21.00,-1043.00,18.42,94,40
6981.432224,"pitch:-1;roll:0;yaw:0;vgx:0;vgy:0;vgz:0;templ:86;temph:88;tof:94;h:40;bat:83;baro:18.43;time:3;agx:-11.00;agy:4.00;agz:-1001.00;


c",83,-1,0,0,0,0,0,-11.00,4.00,-1001.00,18.43,94,40
6981.535122,"pitch:0;roll:0;yaw:0;vgx:0;vgy:0;vgz:0;templ:86;temph:88;tof:94;h:50;bat:83;baro:18.40;time:3;agx:-55.00;agy:28.00;agz:-1007.00;


c",83,0,0,0,0,0,0,-55.00,28.00,-1007.00,18.40,94,50
6981.638661,"pitch:0;roll:0;yaw:0;vgx:0;vgy:0;vgz:0;templ:86;temph:88;tof:94;h:50;bat:83;baro:18.43;time:3;agx:1.00;agy:-6.00;agz:-987.00;
;


c",83,0,0,0,0,0,0,1.00,-6.00,-987.00,18.43,94,50
6981.739134,"pitch:0;roll:0;yaw:0;vgx:0;vgy:0;vgz:0;templ:86;temph:88;tof:94;h:50;bat:83;baro:18.39;time:3;agx:-8.00;agy:14.00;agz:-1011.00;



c",83,0,0,0,0,0,0,-8.00,14.00,-1011.00,18.39,94,50
6981.842459,"pitch:-2;roll:0;yaw:0;vgx:0;vgy:0;vgz:0;templ:86;temph:88;tof:95;h:50;bat:83;baro:18.41;time:4;agx:-27.00;agy:20.00;agz:-1012.00;

c",83,-2,0,0,0,0,0,-27.00,20.00,-1012.00,18.41,95,50
6981.942394,"pitch:-2;roll:0;yaw:0;vgx:1;vgy:0;vgz:0;templ:86;temph:88;tof:96;h:50;bat:83;baro:18.37;time:4;agx:26.00;agy:-2.00;agz:-1009.00;


c",83,-2,0,0,1,0,0,26.00,-2.00,-1009.00,18.37,96,50
6982.043904,"pitch:0;roll:0;yaw:0;vgx:1;vgy:0;vgz:0;templ:86;temph:88;tof:94;h:50;bat:83;baro:18.41;time:4;agx:-20.00;agy:-3.00;agz:-979.00;



c",83,0,0,0,1,0,0,-20.00,-3.00,-979.00,18.41,94,50
6982.145928,"pitch:0;roll:0;yaw:0;vgx:1;vgy:0;vgz:0;templ:86;temph:88;tof:94;h:50;bat:83;baro:18.40;time:4;agx:14.00;agy:-23.00;agz:-969.00;



c",83,0,0,0,1,0,0,14.00,-23.00,-969.00,18.40,94,50
6982.247926,"pitch:0;roll:0;yaw:0;vgx:1;vgy:0;vgz:0;templ:86;temph:88;tof:94;h:50;bat:83;baro:18.44;time:4;agx:-20.00;agy:29.00;agz:-1020.00;


c",83,0,0,0,1,0,0,-20.00,29.00,-1020.00,18.44,94,50
6982.349981,"pitch:-1;roll:0;yaw:0;vgx:1;vgy:0;vgz:0;templ:86;temph:88;tof:94;h:50;bat:83;baro:18.42;time:4;agx:-1.00;agy:8.00;agz:-1005.00;



c",83,-1,0,0,1,0,0,-1.00,8.00,-1005.00,18.42,94,50
6982.452096,"pitch:-3;roll:0;yaw:0;vgx:1;vgy:0;vgz:0;templ:86;temph:88;tof:93;h:50;bat:83;baro:18.45;time:4;agx:2.00;agy:-3.00;agz:-979.00;




c",83,-3,0,0,1,0,0,2.00,-3.00,-979.00,18.45,93,50
6982.554137,"pitch:-2;roll:0;yaw:0;vgx:2;vgy:0;vgz:0;templ:86;temph:88;tof:93;h:50;bat:83;baro:18.38;time:4;agx:0.00;agy:-14.00;agz:-1015.00;


c",83,-2,0,0,2,0,0,0.00,-14.00,-1015.00,18.38,93,50
6982.656036,"pitch:0;roll:0;yaw:0;vgx:2;vgy:0;vgz:0;templ:86;temph:88;tof:92;h:50;bat:83;baro:18.37;time:4;agx:-41.00;agy:32.00;agz:-1019.00;


c",83,0,0,0,2,0,0,-41.00,32.00,-1019.00,18.37,92,50
6982.757862,"pitch:0;roll:0;yaw:0;vgx:2;vgy:0;vgz:0;templ:86;temph:88;tof:91;h:50;bat:83;baro:18.34;time:4;agx:-37.00;agy:33.00;agz:-1013.00;


c",83,0,0,0,2,0,0,-37.00,33.00,-1013.00,18.34,91,50
6982.859819,"pitch:0;roll:0;yaw:0;vgx:2;vgy:0;vgz:0;templ:86;temph:88;tof:90;h:50;bat:83;baro:18.36;time:5;agx:-2.00;agy:-7.00;agz:-1019.00;



c",83,0,0,0,2,0,0,-2.00,-7.00,-1019.00,18.36,90,50
6982.961838,"pitch:0;roll:0;yaw:0;vgx:1;vgy:0;vgz:0;templ:86;temph:88;tof:89;h:50;bat:83;baro:18.31;time:5;agx:-2.00;agy:8.00;agz:-988.00;




c",83,0,0,0,1,0,0,-2.00,8.00,-988.00,18.31,89,50
6983.063898,"pitch:2;roll:0;yaw:0;vgx:1;vgy:0;vgz:0;templ:86;temph:88;tof:88;h:50;bat:83;baro:18.37;time:5;agx:-6.00;agy:8.00;agz:-992.00;




c",83,2,0,0,1,0,0,-6.00,8.00,-992.00,18.37,88,50
6983.165859,"pitch:3;roll:0;yaw:0;vgx:1;vgy:0;vgz:0;templ:86;temph:88;tof:88;h:40;bat:83;baro:18.32;time:5;agx:-45.00;agy:38.00;agz:-1044.00;


c",83,3,0,0,1,0,0,-45.00,38.00,-1044.00,18.32,88,40
6983.268792,"pitch:1;roll:0;yaw:0;vgx:0;vgy:0;vgz:0;templ:86;temph:88;tof:87;h:40;bat:83;baro:18.35;time:5;agx:4.00;agy:-2.00;agz:-1021.00;



c",83,1,0,0,0,0,0,4.00,-2.00,-1021.00,18.35,87,40
6983.369817,"pitch:0;roll:0;yaw:0;vgx:0;vgy:0;vgz:0;templ:86;temph:88;tof:87;h:40;bat:83;baro:18.32;time:5;agx:-20.00;agy:-3.00;agz:-1034.00;


c",83,0,0,0,0,0,0,-20.00,-3.00,-1034.00,18.32,87,40
6983.473463,"pitch:0;roll:0;yaw:0;vgx:0;vgy:0;vgz:0;templ:86;temph:88;tof:86;h:40;bat:83;baro:18.39;time:5;agx:-16.00;agy:6.00;agz:-1028.00;



c",83,0,0,0,0,0,0,-16.00,6.00,-1028.00,18.39,86,40
6983.577495,"pitch:0;roll:0;yaw:0;vgx:0;vgy:0;vgz:0;templ:86;temph:88;tof:86;h:40;bat:83;baro:18.33;time:5;agx:0.00;agy:12.00;agz:-1017.00;




c",83,0,0,0,0,0,0,0.00,12.00,-1017.00,18.33,86,40
6983.676940,"pitch:0;roll:0;yaw:0;vgx:0;vgy:0;vgz:0;templ:86;temph:88;tof:86;h:40;bat:83;baro:18.33;time:5;agx:-31.00;agy:22.00;agz:-1025.00;


c",83,0,0,0,0,0,0,-31.00,22.00,-1025.00,18.33,86,40
6983.777881,"pitch:0;roll:0;yaw:0;vgx:0;vgy:0;vgz:0;templ:86;temph:88;tof:86;h:40;bat:83;baro:18.31;time:5;agx:-4.00;agy:-9.00;agz:-994.00;



c",83,0,0,0,0,0,0,-4.00,-9.00,-994.00,18.31,86,40
6983.879550,"pitch:0;roll:0;yaw:0;vgx:0;vgy:0;vgz:0;templ:86;temph:88;tof:86;h:40;bat:83;baro:18.32;time:6;agx:-37.00;agy:22.00;agz:-1028.00;


c",83,0,0,0,0,0,0,-37.00,22.00,-1028.00,18.32,86,40
6983.930806,"pitch:0;roll:0;yaw:0;vgx:0;vgy:0;vgz:0;templ:86;temph:88;tof:87;h:40;bat:83;baro:18.31;time:6;agx:6.00;agy:8.00;agz:-1014.00;
;


c",83,0,0,0,0,0,0,6.00,8.00,-1014.00,18.31,87,40
6984.056809,"pitch:0;roll:0;yaw:0;vgx:0;vgy:0;vgz:0;templ:86;temph:88;tof:86;h:40;bat:83;baro:18.33;time:6;agx:-44.00;agy:39.00;agz:-1018.00;


c",83,0,0,0,0,0,0,-44.00,39.00,-1018.00,18.33,86,40
6984.135285,"pitch:0;roll:0;yaw:0;vgx:0;vgy:0;vgz:0;templ:86;temph:88;tof:86;h:40;bat:83;baro:18.31;time:6;agx:-18.00;agy:26.00;agz:-1012.00;


c",83,0,0,0,0,0,0,-18.00,26.00,-1012.00,18.31,86,40
6984.236823,"pitch:0;roll:0;yaw:0;vgx:0;vgy:0;vgz:0;templ:86;temph:88;tof:85;h:40;bat:83;baro:18.31;time:6;agx:-29.00;agy:-6.00;agz:-988.00;



c",83,0,0,0,0,0,0,-29.00,-6.00,-988.00,18.31,85,40
6984.338820,"pitch:0;roll:0;yaw:0;vgx:0;vgy:0;vgz:0;templ:86;temph:88;tof:84;h:40;bat:83;baro:18.34;time:6;agx:13.00;agy:-3.00;agz:-1029.00;



c",83,0,0,0,0,0,0,13.00,-3.00,-1029.00,18.34,84,40
6984.440837,"pitch:0;roll:0;yaw:0;vgx:0;vgy:0;vgz:0;templ:86;temph:88;tof:84;h:40;bat:83;baro:18.38;time:6;agx:0.00;agy:2.00;agz:-1025.00;




c",83,0,0,0,0,0,0,0.00,2.00,-1025.00,18.38,84,40
6984.542562,"pitch:0;roll:0;yaw:0;vgx:0;vgy:0;vgz:0;templ:86;temph:88;tof:85;h:40;bat:83;baro:18.29;time:6;agx:-47.00;agy:27.00;agz:-996.00;



c",83,0,0,0,0,0,0,-47.00,27.00,-996.00,18.29,85,40
6984.644745,"pitch:0;roll:0;yaw:0;vgx:0;vgy:0;vgz:0;templ:86;temph:88;tof:85;h:40;bat:83;baro:18.31;time:6;agx:14.00;agy:-30.00;agz:-964.00;



c",83,0,0,0,0,0,0,14.00,-30.00,-964.00,18.31,85,40
6984.746779,"pitch:0;roll:0;yaw:0;vgx:0;vgy:0;vgz:0;templ:86;temph:88;tof:85;h:40;bat:83;baro:18.30;time:6;agx:6.00;agy:0.00;agz:-1008.00;




c",83,0,0,0,0,0,0,6.00,0.00,-1008.00,18.30,85,40
6984.848909,"pitch:0;roll:0;yaw:0;vgx:0;vgy:0;vgz:0;templ:86;temph:88;tof:84;h:40;bat:83;baro:18.28;time:7;agx:-22.00;agy:35.00;agz:-1024.00;


c",83,0,0,0,0,0,0,-22.00,35.00,-1024.00,18.28,84,40
6984.950831,"pitch:0;roll:0;yaw:0;vgx:0;vgy:0;vgz:0;templ:86;temph:88;tof:84;h:40;bat:83;baro:18.33;time:7;agx:5.00;agy:3.00;agz:-999.00;
0;


c",83,0,0,0,0,0,0,5.00,3.00,-999.00,18.33,84,40
6985.052924,"pitch:0;roll:0;yaw:0;vgx:0;vgy:0;vgz:0;templ:86;temph:88;tof:84;h:40;bat:83;baro:18.30;time:7;agx:-37.00;agy:38.00;agz:-1012.00;


c",83,0,0,0,0,0,0,-37.00,38.00,-1012.00,18.30,84,40
6985.154940,"pitch:0;roll:0;yaw:0;vgx:0;vgy:0;vgz:0;templ:86;temph:88;tof:83;h:40;bat:83;baro:18.33;time:7;agx:-9.00;agy:0.00;agz:-1003.00;



c",83,0,0,0,0,0,0,-9.00,0.00,-1003.00,18.33,83,40
6985.256884,"pitch:0;roll:0;yaw:0;vgx:0;vgy:0;vgz:0;templ:86;temph:88;tof:84;h:40;bat:83;baro:18.36;time:7;agx:19.00;agy:-23.00;agz:-1001.00;


c",83,0,0,0,0,0,0,19.00,-23.00,-1001.00,18.36,84,40
6985.358680,"pitch:0;roll:0;yaw:0;vgx:0;vgy:0;vgz:0;templ:86;temph:88;tof:83;h:40;bat:83;baro:18.33;time:7;agx:6.00;agy:-17.00;agz:-994.00;



c",83,0,0,0,0,0,0,6.00,-17.00,-994.00,18.33,83,40
6985.461248,"pitch:0;roll:0;yaw:0;vgx:0;vgy:0;vgz:0;templ:86;temph:88;tof:84;h:40;bat:83;baro:18.30;time:7;agx:-25.00;agy:36.00;agz:-1019.00;


c",83,0,0,0,0,0,0,-25.00,36.00,-1019.00,18.30,84,40
6985.565208,"pitch:0;roll:0;yaw:0;vgx:0;vgy:0;vgz:0;templ:86;temph:88;tof:83;h:40;bat:83;baro:18.36;time:7;agx:-33.00;agy:44.00;agz:-1025.00;


c",83,0,0,0,0,0,0,-33.00,44.00,-1025.00,18.36,83,40
6985.670123,"pitch:0;roll:0;yaw:0;vgx:0;vgy:0;vgz:0;templ:84;temph:87;tof:84;h:40;bat:83;baro:18.32;time:7;agx:54.00;agy:-46.00;agz:-960.00;



c",83,0,0,0,0,0,0,54.00,-46.00,-960.00,18.32,84,40
6985.768960,"pitch:0;roll:0;yaw:0;vgx:0;vgy:0;vgz:0;templ:84;temph:87;tof:83;h:40;bat:83;baro:18.35;time:7;agx:-21.00;agy:13.00;agz:-959.00;



c",83,0,0,0,0,0,0,-21.00,13.00,-959.00,18.35,83,40
6985.870942,"pitch:0;roll:0;yaw:0;vgx:0;vgy:0;vgz:0;templ:84;temph:87;tof:83;h:40;bat:83;baro:18.33;time:8;agx:14.00;agy:20.00;agz:-952.00;




c",83,0,0,0,0,0,0,14.00,20.00,-952.00,18.33,83,40
6985.971940,"pitch:0;roll:0;yaw:0;vgx:0;vgy:0;vgz:0;templ:84;temph:87;tof:82;h:40;bat:83;baro:18.33;time:8;agx:26.00;agy:-24.00;agz:-926.00;



c",83,0,0,0,0,0,0,26.00,-24.00,-926.00,18.33,82,40
6986.073755,"pitch:0;roll:0;yaw:0;vgx:0;vgy:0;vgz:1;templ:84;temph:87;tof:81;h:40;bat:83;baro:18.26;time:8;agx:-30.00;agy:29.00;agz:-965.00;



c",83,0,0,0,0,0,1,-30.00,29.00,-965.00,18.26,81,40
6986.206081,"pitch:0;roll:0;yaw:0;vgx:0;vgy:0;vgz:2;templ:84;temph:87;tof:77;h:30;bat:83;baro:18.25;time:8;agx:-7.00;agy:-6.00;agz:-907.00;




c",83,0,0,0,0,0,2,-7.00,-6.00,-907.00,18.25,77,30
6986.277582,"pitch:0;roll:0;yaw:0;vgx:0;vgy:0;vgz:3;templ:84;temph:87;tof:74;h:30;bat:83;baro:18.22;time:8;agx:10.00;agy:-2.00;agz:-940.00;




c",83,0,0,0,0,0,3,10.00,-2.00,-940.00,18.22,74,30
6986.379691,"pitch:0;roll:0;yaw:0;vgx:0;vgy:0;vgz:4;templ:84;temph:87;tof:70;h:30;bat:83;baro:18.13;time:8;agx:4.00;agy:-6.00;agz:-971.00;





c",83,0,0,0,0,0,4,4.00,-6.00,-971.00,18.13,70,30
6986.481890,"pitch:0;roll:0;yaw:0;vgx:0;vgy:0;vgz:4;templ:84;temph:87;tof:65;h:20;bat:83;baro:18.04;time:8;agx:-26.00;agy:26.00;agz:-991.00;



c",83,0,0,0,0,0,4,-26.00,26.00,-991.00,18.04,65,20
6986.583907,"pitch:0;roll:0;yaw:0;vgx:0;vgy:0;vgz:4;templ:84;temph:87;tof:65;h:20;bat:83;baro:18.08;time:8;agx:-16.00;agy:-8.00;agz:-967.00;



c",83,0,0,0,0,0,4,-16.00,-8.00,-967.00,18.08,65,20
6986.685894,"pitch:0;roll:0;yaw:0;vgx:0;vgy:0;vgz:4;templ:84;temph:88;tof:59;h:10;bat:83;baro:18.03;time:8;agx:31.00;agy:-30.00;agz:-993.00;



c",83,0,0,0,0,0,4,31.00,-30.00,-993.00,18.03,59,10
6986.787825,"pitch:0;roll:0;yaw:0;vgx:0;vgy:0;vgz:4;templ:84;temph:88;tof:54;h:10;bat:83;baro:17.99;time:8;agx:10.00;agy:11.00;agz:-1014.00;



c",83,0,0,0,0,0,4,10.00,11.00,-1014.00,17.99,54,10
6986.889832,"pitch:0;roll:0;yaw:0;vgx:0;vgy:0;vgz:4;templ:84;temph:88;tof:48;h:10;bat:83;baro:17.95;time:9;agx:0.00;agy:-11.00;agz:-997.00;




c",83,0,0,0,0,0,4,0.00,-11.00,-997.00,17.95,48,10
6986.991519,"pitch:0;roll:0;yaw:0;vgx:0;vgy:0;vgz:4;templ:84;temph:88;tof:42;h:0;bat:83;baro:17.90;time:9;agx:9.00;agy:-5.00;agz:-992.00;





c",83,0,0,0,0,0,4,9.00,-5.00,-992.00,17.90,42,0
6987.093825,"pitch:0;roll:0;yaw:0;vgx:0;vgy:0;vgz:4;templ:84;temph:88;tof:41;h:0;bat:83;baro:17.85;time:9;agx:-19.00;agy:19.00;agz:-1012.00;



c",83,0,0,0,0,0,4,-19.00,19.00,-1012.00,17.85,41,0
6987.195793,"pitch:0;roll:0;yaw:0;vgx:0;vgy:0;vgz:4;templ:84;temph:88;tof:36;h:0;bat:83;baro:17.82;time:9;agx:-2.00;agy:-10.00;agz:-998.00;




c",83,0,0,0,0,0,4,-2.00,-10.00,-998.00,17.82,36,0
6987.299647,"pitch:0;roll:0;yaw:0;vgx:0;vgy:0;vgz:4;templ:84;temph:88;tof:30;h:0;bat:83;baro:17.80;time:9;agx:-22.00;agy:15.00;agz:-1009.00;



c",83,0,0,0,0,0,4,-22.00,15.00,-1009.00,17.80,30,0
6987.400583,"pitch:0;roll:0;yaw:0;vgx:0;vgy:0;vgz:4;templ:84;temph:88;tof:24;h:-10;bat:83;baro:17.63;time:9;agx:3.00;agy:15.00;agz:-1008.00;



c",83,0,0,0,0,0,4,3.00,15.00,-1008.00,17.63,24,-10
6987.505498,"pitch:0;roll:0;yaw:0;vgx:0;vgy:0;vgz:4;templ:84;temph:88;tof:20;h:-10;bat:83;baro:17.40;time:9;agx:-30.00;agy:22.00;agz:-1009.00;

c",83,0,0,0,0,0,4,-30.00,22.00,-1009.00,17.40,20,-10
6987.608108,"pitch:0;roll:0;yaw:0;vgx:0;vgy:0;vgz:4;templ:84;temph:88;tof:14;h:-20;bat:83;baro:17.02;time:9;agx:-8.00;agy:47.00;agz:-1056.00;


c",83,0,0,0,0,0,4,-8.00,47.00,-1056.00,17.02,14,-20
6987.710461,"pitch:0;roll:0;yaw:0;vgx:0;vgy:0;vgz:4;templ:85;temph:87;tof:10;h:-20;bat:83;baro:15.31;time:9;agx:-48.00;agy:41.00;agz:-1046.00;

c",83,0,0,0,0,0,4,-48.00,41.00,-1046.00,15.31,10,-20
6987.809425,"pitch:0;roll:0;yaw:0;vgx:0;vgy:0;vgz:3;templ:85;temph:87;tof:10;h:-30;bat:83;baro:14.15;time:9;agx:34.00;agy:-41.00;agz:-1046.00;

c",83,0,0,0,0,0,3,34.00,-41.00,-1046.00,14.15,10,-30
6987.911649,"pitch:0;roll:-1;yaw:0;vgx:0;vgy:0;vgz:0;templ:85;temph:87;tof:10;h:-30;bat:83;baro:15.84;time:10;agx:-29.00;agy:14.00;agz:-1055.00;
",83,0,-1,0,0,0,0,-29.00,14.00,-1055.00,15.84,10,-30
6988.013855,"pitch:1;roll:0;yaw:0;vgx:0;vgy:0;vgz:1;templ:85;temph:87;tof:10;h:0;bat:83;baro:16.44;time:10;agx:-165.00;agy:66.00;agz:-3019.00;

",83,1,0,0,0,0,1,-165.00,66.00,-3019.00,16.44,10,0
6988.067271,"pitch:0;roll:0;yaw:0;vgx:0;vgy:0;vgz:0;templ:85;temph:87;tof:10;h:0;bat:83;baro:16.77;time:10;agx:-15.00;agy:14.00;agz:-651.00;


",83,0,0,0,0,0,0,-15.00,14.00,-651.00,16.77,10,0
6988.169483,"pitch:0;roll:0;yaw:0;vgx:0;vgy:0;vgz:0;templ:85;temph:87;tof:10;h:0;bat:83;baro:16.98;time:10;agx:-20.00;agy:35.00;agz:-1076.00;


",83,0,0,0,0,0,0,-20.00,35.00,-1076.00,16.98,10,0
6988.269074,"pitch:0;roll:0;yaw:0;vgx:0;vgy:0;vgz:0;templ:85;temph:87;tof:10;h:0;bat:83;baro:17.16;time:10;agx:20.00;agy:-7.00;agz:-1005.00;



",83,0,0,0,0,0,0,20.00,-7.00,-1005.00,17.16,10,0
6988.370844,"pitch:0;roll:0;yaw:0;vgx:0;vgy:0;vgz:0;templ:85;temph:87;tof:10;h:0;bat:83;baro:17.18;time:10;agx:14.00;agy:-3.00;agz:-1004.00;



",83,0,0,0,0,0,0,14.00,-3.00,-1004.00,17.18,10,0
6988.474470,"pitch:0;roll:0;yaw:0;vgx:0;vgy:0;vgz:0;templ:85;temph:87;tof:10;h:0;bat:83;baro:17.24;time:10;agx:16.00;agy:0.00;agz:-1004.00;




",83,0,0,0,0,0,0,16.00,0.00,-1004.00,17.24,10,0
6988.580824,"pitch:0;roll:0;yaw:0;vgx:0;vgy:0;vgz:0;templ:85;temph:87;tof:10;h:0;bat:83;baro:17.28;time:10;agx:25.00;agy:-3.00;agz:-1001.00;



",83,0,0,0,0,0,0,25.00,-3.00,-1001.00,17.28,10,0
6988.676564,"pitch:0;roll:0;yaw:0;vgx:0;vgy:0;vgz:1;templ:84;temph:86;tof:10;h:0;bat:83;baro:17.31;time:10;agx:25.00;agy:-1.00;agz:-996.00;




",83,0,0,0,0,0,1,25.00,-1.00,-996.00,17.31,10,0
6988.778462,"pitch:0;roll:0;yaw:0;vgx:0;vgy:0;vgz:0;templ:84;temph:86;tof:10;h:0;bat:83;baro:17.32;time:10;agx:16.00;agy:-3.00;agz:-1001.00;



",83,0,0,0,0,0,0,16.00,-3.00,-1001.00,17.32,10,0
6988.880464,"pitch:0;roll:0;yaw:0;vgx:0;vgy:0;vgz:0;templ:84;temph:86;tof:10;h:0;bat:83;baro:17.34;time:10;agx:11.00;agy:0.00;agz:-1001.00;




",83,0,0,0,0,0,0,11.00,0.00,-1001.00,17.34,10,0
6988.982468,"pitch:0;roll:0;yaw:0;vgx:0;vgy:0;vgz:0;templ:84;temph:86;tof:10;h:0;bat:83;baro:17.33;time:10;agx:15.00;agy:-1.00;agz:-997.00;




",83,0,0,0,0,0,0,15.00,-1.00,-997.00,17.33,10,0
6989.084583,"pitch:0;roll:0;yaw:0;vgx:0;vgy:0;vgz:0;templ:84;temph:86;tof:10;h:0;bat:83;baro:17.37;time:10;agx:11.00;agy:0.00;agz:-999.00;





",83,0,0,0,0,0,0,11.00,0.00,-999.00,17.37,10,0
6989.186642,"pitch:0;roll:0;yaw:0;vgx:0;vgy:0;vgz:0;templ:84;temph:86;tof:10;h:0;bat:83;baro:17.33;time:10;agx:13.00;agy:1.00;agz:-1000.00;




",83,0,0,0,0,0,0,13.00,1.00,-1000.00,17.33,10,0
6989.288454,"pitch:0;roll:0;yaw:0;vgx:0;vgy:0;vgz:0;templ:84;temph:86;tof:10;h:0;bat:83;baro:17.30;time:10;agx:14.00;agy:0.00;agz:-999.00;





",83,0,0,0,0,0,0,14.00,0.00,-999.00,17.30,10,0
6989.390435,"pitch:0;roll:0;yaw:0;vgx:0;vgy:0;vgz:0;templ:84;temph:86;tof:10;h:0;bat:83;baro:17.34;time:10;agx:14.00;agy:0.00;agz:-1001.00;




",83,0,0,0,0,0,0,14.00,0.00,-1001.00,17.34,10,0
6989.492482,"pitch:0;roll:0;yaw:0;vgx:0;vgy:0;vgz:0;templ:84;temph:86;tof:10;h:0;bat:83;baro:17.37;time:10;agx:14.00;agy:0.00;agz:-1001.00;




",83,0,0,0,0,0,0,14.00,0.00,-1001.00,17.37,10,0
6989.600190,"pitch:0;roll:0;yaw:0;vgx:0;vgy:0;vgz:0;templ:84;temph:86;tof:10;h:0;bat:83;baro:17.37;time:10;agx:13.00;agy:1.00;agz:-998.00;





",83,0,0,0,0,0,0,13.00,1.00,-998.00,17.37,10,0
6989.698630,"pitch:0;roll:0;yaw:0;vgx:0;vgy:0;vgz:0;templ:84;temph:86;tof:10;h:0;bat:83;baro:17.35;time:10;agx:13.00;agy:0.00;agz:-997.00;





",83,0,0,0,0,0,0,13.00,0.00,-997.00,17.35,10,0
6989.800942,"pitch:0;roll:0;yaw:0;vgx:0;vgy:0;vgz:0;templ:84;temph:86;tof:10;h:0;bat:83;baro:17.34;time:10;agx:15.00;agy:2.00;agz:-999.00;





",83,0,0,0,0,0,0,15.00,2.00,-999.00,17.34,10,0
6989.904185,"pitch:0;roll:0;yaw:0;vgx:0;vgy:0;vgz:0;templ:84;temph:86;tof:10;h:0;bat:83;baro:17.37;time:10;agx:15.00;agy:0.00;agz:-1000.00;




",83,0,0,0,0,0,0,15.00,0.00,-1000.00,17.37,10,0
6990.003528,"pitch:0;roll:0;yaw:0;vgx:0;vgy:0;vgz:0;templ:84;temph:86;tof:10;h:0;bat:83;baro:17.38;time:10;agx:14.00;agy:0.00;agz:-999.00;





",83,0,0,0,0,0,0,14.00,0.00,-999.00,17.38,10,0
6990.105455,"pitch:0;roll:0;yaw:0;vgx:0;vgy:0;vgz:0;templ:84;temph:86;tof:10;h:0;bat:83;baro:17.40;time:10;agx:13.00;agy:0.00;agz:-998.00;





",83,0,0,0,0,0,0,13.00,0.00,-998.00,17.40,10,0
6990.207754,"pitch:0;roll:0;yaw:0;vgx:0;vgy:0;vgz:0;templ:84;temph:86;tof:10;h:0;bat:83;baro:17.37;time:10;agx:14.00;agy:0.00;agz:-999.00;





",83,0,0,0,0,0,0,14.00,0.00,-999.00,17.37,10,0
6990.309404,"pitch:0;roll:0;yaw:0;vgx:0;vgy:0;vgz:0;templ:84;temph:86;tof:10;h:0;bat:83;baro:17.38;time:10;agx:14.00;agy:0.00;agz:-999.00;





",83,0,0,0,0,0,0,14.00,0.00,-999.00,17.38,10,0
6990.411373,"pitch:0;roll:0;yaw:0;vgx:0;vgy:0;vgz:0;templ:84;temph:86;tof:10;h:0;bat:83;baro:17.33;time:10;agx:14.00;agy:0.00;agz:-999.00;





",83,0,0,0,0,0,0,14.00,0.00,-999.00,17.33,10,0
6990.513505,"pitch:0;roll:0;yaw:0;vgx:0;vgy:0;vgz:0;templ:84;temph:86;tof:10;h:0;bat:83;baro:17.36;time:10;agx:13.00;agy:1.00;agz:-998.00;





",83,0,0,0,0,0,0,13.00,1.00,-998.00,17.36,10,0
6990.615374,"pitch:0;roll:0;yaw:0;vgx:0;vgy:0;vgz:0;templ:84;temph:86;tof:10;h:0;bat:83;baro:17.37;time:10;agx:12.00;agy:0.00;agz:-1002.00;




",83,0,0,0,0,0,0,12.00,0.00,-1002.00,17.37,10,0
6990.717741,"pitch:0;roll:0;yaw:0;vgx:0;vgy:0;vgz:0;templ:84;temph:86;tof:10;h:0;bat:83;baro:17.35;time:10;agx:12.00;agy:1.00;agz:-999.00;





",83,0,0,0,0,0,0,12.00,1.00,-999.00,17.35,10,0
6990.819377,"pitch:0;roll:0;yaw:0;vgx:0;vgy:0;vgz:0;templ:84;temph:86;tof:10;h:0;bat:83;baro:17.33;time:10;agx:13.00;agy:1.00;agz:-1001.00;




",83,0,0,0,0,0,0,13.00,1.00,-1001.00,17.33,10,0
6990.921525,"pitch:0;roll:0;yaw:0;vgx:0;vgy:0;vgz:0;templ:84;temph:86;tof:10;h:0;bat:83;baro:17.29;time:10;agx:13.00;agy:0.00;agz:-996.00;





",83,0,0,0,0,0,0,13.00,0.00,-996.00,17.29,10,0
6991.023726,"pitch:0;roll:0;yaw:0;vgx:0;vgy:0;vgz:0;templ:84;temph:86;tof:10;h:0;bat:83;baro:17.39;time:10;agx:14.00;agy:0.00;agz:-1001.00;




",83,0,0,0,0,0,0,14.00,0.00,-1001.00,17.39,10,0
6991.128634,"pitch:0;roll:0;yaw:0;vgx:0;vgy:0;vgz:0;templ:84;temph:86;tof:10;h:0;bat:83;baro:17.33;time:10;agx:12.00;agy:0.00;agz:-1001.00;




",83,0,0,0,0,0,0,12.00,0.00,-1001.00,17.33,10,0
