t_sec,raw,bat,pitch,roll,yaw,vgx,vgy,vgz,agx,agy,agz,baro,tof,h
12928.058365,"pitch:0;roll:0;yaw:0;vgx:0;vgy:0;vgz:0;templ:85;temph:87;tof:10;h:0;bat:31;baro:9.19;time:0;agx:12.00;agy:17.00;agz:-998.00;
",31,0,0,0,0,0,0,12.00,17.00,-998.00,9.19,10,0
12928.160317,"pitch:0;roll:0;yaw:0;vgx:0;vgy:0;vgz:0;templ:85;temph:87;tof:10;h:0;bat:31;baro:9.20;time:0;agx:8.00;agy:17.00;agz:-1000.00;
",31,0,0,0,0,0,0,8.00,17.00,-1000.00,9.20,10,0
12928.262087,"pitch:0;roll:0;yaw:0;vgx:0;vgy:0;vgz:0;templ:86;temph:88;tof:10;h:0;bat:31;baro:9.16;time:0;agx:8.00;agy:9.00;agz:-1000.00;

",31,0,0,0,0,0,0,8.00,9.00,-1000.00,9.16,10,0
12928.364187,"pitch:0;roll:0;yaw:0;vgx:0;vgy:0;vgz:0;templ:86;temph:88;tof:10;h:0;bat:31;baro:9.18;time:0;agx:10.00;agy:7.00;agz:-998.00;

",31,0,0,0,0,0,0,10.00,7.00,-998.00,9.18,10,0
12928.466253,"pitch:0;roll:0;yaw:0;vgx:0;vgy:0;vgz:0;templ:86;temph:88;tof:10;h:0;bat:31;baro:9.21;time:0;agx:8.00;agy:14.00;agz:-999.00;

",31,0,0,0,0,0,0,8.00,14.00,-999.00,9.21,10,0
12928.568107,"pitch:0;roll:0;yaw:0;vgx:0;vgy:0;vgz:0;templ:86;temph:88;tof:10;h:0;bat:31;baro:9.16;time:0;agx:9.00;agy:15.00;agz:-999.00;

",31,0,0,0,0,0,0,9.00,15.00,-999.00,9.16,10,0
12928.670295,"pitch:0;roll:0;yaw:0;vgx:0;vgy:0;vgz:0;templ:86;temph:88;tof:10;h:0;bat:31;baro:9.17;time:0;agx:12.00;agy:10.00;agz:-997.00;
",31,0,0,0,0,0,0,12.00,10.00,-997.00,9.17,10,0
12928.772398,"pitch:0;roll:0;yaw:0;vgx:0;vgy:0;vgz:0;templ:86;temph:88;tof:10;h:0;bat:31;baro:9.19;time:0;agx:12.00;agy:7.00;agz:-997.00;

",31,0,0,0,0,0,0,12.00,7.00,-997.00,9.19,10,0
12928.874298,"pitch:0;roll:0;yaw:0;vgx:0;vgy:0;vgz:0;templ:86;temph:88;tof:10;h:0;bat:31;baro:9.18;time:0;agx:13.00;agy:13.00;agz:-1000.00;
",31,0,0,0,0,0,0,13.00,13.00,-1000.00,9.18,10,0
12928.976350,"pitch:0;roll:0;yaw:0;vgx:0;vgy:0;vgz:0;templ:86;temph:88;tof:10;h:0;bat:31;baro:9.22;time:0;agx:12.00;agy:12.00;agz:-1000.00;
",31,0,0,0,0,0,0,12.00,12.00,-1000.00,9.22,10,0
12929.080450,"pitch:0;roll:0;yaw:0;vgx:0;vgy:0;vgz:0;templ:86;temph:88;tof:10;h:0;bat:31;baro:9.18;time:0;agx:12.00;agy:10.00;agz:-1000.00;
",31,0,0,0,0,0,0,12.00,10.00,-1000.00,9.18,10,0
12929.191963,"pitch:0;roll:0;yaw:0;vgx:0;vgy:0;vgz:0;templ:86;temph:88;tof:10;h:0;bat:31;baro:9.18;time:0;agx:11.00;agy:9.00;agz:-1000.00;

",31,0,0,0,0,0,0,11.00,9.00,-1000.00,9.18,10,0
12929.283234,"pitch:0;roll:0;yaw:0;vgx:0;vgy:0;vgz:0;templ:85;temph:88;tof:10;h:0;bat:31;baro:9.20;time:0;agx:11.00;agy:11.00;agz:-997.00;

",31,0,0,0,0,0,0,11.00,11.00,-997.00,9.20,10,0
12929.385186,"pitch:0;roll:0;yaw:0;vgx:0;vgy:0;vgz:0;templ:85;temph:88;tof:10;h:0;bat:31;baro:9.21;time:0;agx:10.00;agy:12.00;agz:-998.00;

",31,0,0,0,0,0,0,10.00,12.00,-998.00,9.21,10,0
12929.487181,"pitch:0;roll:0;yaw:0;vgx:0;vgy:0;vgz:0;templ:85;temph:88;tof:10;h:0;bat:31;baro:9.22;time:0;agx:11.00;agy:11.00;agz:-998.00;

",31,0,0,0,0,0,0,11.00,11.00,-998.00,9.22,10,0
12929.589261,"pitch:0;roll:0;yaw:0;vgx:0;vgy:0;vgz:0;templ:85;temph:88;tof:10;h:0;bat:31;baro:9.22;time:0;agx:11.00;agy:11.00;agz:-998.00;

",31,0,0,0,0,0,0,11.00,11.00,-998.00,9.22,10,0
12929.640185,"pitch:0;roll:0;yaw:0;vgx:0;vgy:0;vgz:0;templ:85;temph:88;tof:10;h:0;bat:31;baro:9.18;time:0;agx:10.00;agy:12.00;agz:-999.00;

",31,0,0,0,0,0,0,10.00,12.00,-999.00,9.18,10,0
12929.749086,"pitch:0;roll:0;yaw:0;vgx:0;vgy:0;vgz:0;templ:85;temph:88;tof:10;h:0;bat:31;baro:9.22;time:0;agx:11.00;agy:11.00;agz:-1001.00;
",31,0,0,0,0,0,0,11.00,11.00,-1001.00,9.22,10,0
12929.846243,"pitch:0;roll:0;yaw:0;vgx:0;vgy:0;vgz:0;templ:85;temph:88;tof:10;h:0;bat:31;baro:9.23;time:0;agx:10.00;agy:10.00;agz:-1000.00;
",31,0,0,0,0,0,0,10.00,10.00,-1000.00,9.23,10,0
12929.947179,"pitch:0;roll:0;yaw:0;vgx:0;vgy:0;vgz:0;templ:85;temph:88;tof:10;h:0;bat:31;baro:9.22;time:0;agx:10.00;agy:9.00;agz:-999.00;

",31,0,0,0,0,0,0,10.00,9.00,-999.00,9.22,10,0
12930.049155,"pitch:0;roll:0;yaw:0;vgx:0;vgy:0;vgz:0;templ:85;temph:88;tof:10;h:0;bat:31;baro:9.20;time:0;agx:10.00;agy:10.00;agz:-997.00;

",31,0,0,0,0,0,0,10.00,10.00,-997.00,9.20,10,0
12930.151302,"pitch:0;roll:0;yaw:0;vgx:0;vgy:0;vgz:0;templ:85;temph:88;tof:10;h:0;bat:31;baro:9.21;time:0;agx:12.00;agy:10.00;agz:-1001.00;
",31,0,0,0,0,0,0,12.00,10.00,-1001.00,9.21,10,0
12930.253348,"pitch:0;roll:0;yaw:0;vgx:0;vgy:0;vgz:0;templ:86;temph:89;tof:10;h:0;bat:31;baro:9.18;time:0;agx:10.00;agy:11.00;agz:-1000.00;
",31,0,0,0,0,0,0,10.00,11.00,-1000.00,9.18,10,0
12930.355556,"pitch:0;roll:0;yaw:0;vgx:0;vgy:0;vgz:0;templ:86;temph:89;tof:10;h:0;bat:31;baro:9.22;time:0;agx:9.00;agy:12.00;agz:-998.00;

",31,0,0,0,0,0,0,9.00,12.00,-998.00,9.22,10,0
12930.457161,"pitch:0;roll:0;yaw:0;vgx:0;vgy:0;vgz:0;templ:86;temph:89;tof:10;h:0;bat:31;baro:9.15;time:0;agx:11.00;agy:12.00;agz:-998.00;

",31,0,0,0,0,0,0,11.00,12.00,-998.00,9.15,10,0
12930.559195,"pitch:0;roll:0;yaw:0;vgx:0;vgy:0;vgz:0;templ:86;temph:89;tof:10;h:0;bat:31;baro:9.20;time:0;agx:11.00;agy:10.00;agz:-1001.00;
",31,0,0,0,0,0,0,11.00,10.00,-1001.00,9.20,10,0
12930.661190,"pitch:0;roll:0;yaw:0;vgx:0;vgy:0;vgz:0;templ:86;temph:89;tof:10;h:0;bat:31;baro:9.17;time:0;agx:14.00;agy:8.00;agz:-998.00;

",31,0,0,0,0,0,0,14.00,8.00,-998.00,9.17,10,0
12930.763384,"pitch:0;roll:0;yaw:0;vgx:0;vgy:0;vgz:0;templ:86;temph:89;tof:10;h:0;bat:31;baro:9.16;time:0;agx:12.00;agy:13.00;agz:-999.00;

",31,0,0,0,0,0,0,12.00,13.00,-999.00,9.16,10,0
12930.865382,"pitch:0;roll:0;yaw:0;vgx:0;vgy:0;vgz:0;templ:86;temph:89;tof:10;h:0;bat:31;baro:9.18;time:0;agx:10.00;agy:12.00;agz:-1000.00;
",31,0,0,0,0,0,0,10.00,12.00,-1000.00,9.18,10,0
12930.967158,"pitch:0;roll:0;yaw:0;vgx:0;vgy:0;vgz:0;templ:86;temph:89;tof:10;h:0;bat:31;baro:9.18;time:0;agx:10.00;agy:9.00;agz:-999.00;

",31,0,0,0,0,0,0,10.00,9.00,-999.00,9.18,10,0
12931.069184,"pitch:0;roll:0;yaw:0;vgx:0;vgy:0;vgz:0;templ:86;temph:89;tof:10;h:0;bat:31;baro:9.18;time:0;agx:9.00;agy:10.00;agz:-1002.00;

",31,0,0,0,0,0,0,9.00,10.00,-1002.00,9.18,10,0
12931.171040,"pitch:0;roll:0;yaw:0;vgx:0;vgy:0;vgz:0;templ:86;temph:89;tof:10;h:0;bat:31;baro:9.18;time:0;agx:11.00;agy:13.00;agz:-999.00;

",31,0,0,0,0,0,0,11.00,13.00,-999.00,9.18,10,0
12931.273180,"pitch:0;roll:0;yaw:0;vgx:0;vgy:0;vgz:0;templ:86;temph:88;tof:10;h:0;bat:31;baro:9.21;time:0;agx:12.00;agy:14.00;agz:-998.00;

",31,0,0,0,0,0,0,12.00,14.00,-998.00,9.21,10,0
12931.375067,"pitch:0;roll:0;yaw:0;vgx:0;vgy:0;vgz:0;templ:86;temph:88;tof:10;h:0;bat:31;baro:9.20;time:0;agx:11.00;agy:8.00;agz:-1001.00;

",31,0,0,0,0,0,0,11.00,8.00,-1001.00,9.20,10,0
12931.478310,"pitch:0;roll:0;yaw:0;vgx:0;vgy:0;vgz:0;templ:86;temph:88;tof:10;h:0;bat:31;baro:9.19;time:0;agx:12.00;agy:10.00;agz:-998.00;

",31,0,0,0,0,0,0,12.00,10.00,-998.00,9.19,10,0
12931.579187,"pitch:0;roll:0;yaw:0;vgx:0;vgy:0;vgz:0;templ:86;temph:88;tof:10;h:0;bat:31;baro:9.16;time:0;agx:13.00;agy:13.00;agz:-1001.00;
",31,0,0,0,0,0,0,13.00,13.00,-1001.00,9.16,10,0
12931.681253,"pitch:0;roll:0;yaw:0;vgx:0;vgy:0;vgz:0;templ:86;temph:88;tof:10;h:0;bat:31;baro:9.14;time:0;agx:12.00;agy:12.00;agz:-1000.00;
",31,0,0,0,0,0,0,12.00,12.00,-1000.00,9.14,10,0
12931.783261,"pitch:0;roll:0;yaw:0;vgx:0;vgy:0;vgz:0;templ:86;temph:88;tof:10;h:0;bat:31;baro:9.13;time:0;agx:12.00;agy:9.00;agz:-1002.00;

",31,0,0,0,0,0,0,12.00,9.00,-1002.00,9.13,10,0
12931.885056,"pitch:0;roll:0;yaw:0;vgx:0;vgy:0;vgz:0;templ:86;temph:88;tof:10;h:0;bat:31;baro:9.22;time:0;agx:10.00;agy:12.00;agz:-1003.00;
",31,0,0,0,0,0,0,10.00,12.00,-1003.00,9.22,10,0
12931.986976,"pitch:0;roll:0;yaw:0;vgx:0;vgy:0;vgz:0;templ:86;temph:88;tof:10;h:0;bat:31;baro:9.23;time:0;agx:11.00;agy:12.00;agz:-997.00;

",31,0,0,0,0,0,0,11.00,12.00,-997.00,9.23,10,0
12932.088988,"pitch:0;roll:0;yaw:0;vgx:0;vgy:0;vgz:0;templ:86;temph:88;tof:10;h:0;bat:31;baro:9.21;time:0;agx:12.00;agy:11.00;agz:-997.00;

",31,0,0,0,0,0,0,12.00,11.00,-997.00,9.21,10,0
12932.191198,"pitch:0;roll:0;yaw:0;vgx:0;vgy:0;vgz:0;templ:86;temph:88;tof:10;h:0;bat:31;baro:9.19;time:0;agx:12.00;agy:9.00;agz:-1002.00;

",31,0,0,0,0,0,0,12.00,9.00,-1002.00,9.19,10,0
12932.294085,"pitch:0;roll:0;yaw:0;vgx:0;vgy:0;vgz:0;templ:86;temph:88;tof:10;h:0;bat:31;baro:9.22;time:0;agx:11.00;agy:12.00;agz:-999.00;

",31,0,0,0,0,0,0,11.00,12.00,-999.00,9.22,10,0
12932.395991,"pitch:0;roll:0;yaw:0;vgx:0;vgy:0;vgz:0;templ:86;temph:88;tof:10;h:0;bat:31;baro:9.17;time:0;agx:10.00;agy:12.00;agz:-1000.00;
",31,0,0,0,0,0,0,10.00,12.00,-1000.00,9.17,10,0
12932.498036,"pitch:0;roll:0;yaw:0;vgx:0;vgy:0;vgz:0;templ:86;temph:88;tof:10;h:0;bat:31;baro:9.20;time:0;agx:7.00;agy:12.00;agz:-999.00;

",31,0,0,0,0,0,0,7.00,12.00,-999.00,9.20,10,0
12932.600118,"pitch:0;roll:0;yaw:0;vgx:0;vgy:0;vgz:0;templ:86;temph:88;tof:10;h:0;bat:31;baro:9.19;time:0;agx:11.00;agy:11.00;agz:-998.00;

",31,0,0,0,0,0,0,11.00,11.00,-998.00,9.19,10,0
12932.701984,"pitch:0;roll:0;yaw:0;vgx:0;vgy:0;vgz:0;templ:86;temph:88;tof:10;h:0;bat:31;baro:9.19;time:0;agx:12.00;agy:10.00;agz:-995.00;

",31,0,0,0,0,0,0,12.00,10.00,-995.00,9.19,10,0
12932.804188,"pitch:0;roll:0;yaw:0;vgx:0;vgy:0;vgz:0;templ:86;temph:88;tof:10;h:0;bat:31;baro:9.16;time:0;agx:12.00;agy:12.00;agz:-996.00;

",31,0,0,0,0,0,0,12.00,12.00,-996.00,9.16,10,0
12932.906054,"pitch:0;roll:0;yaw:0;vgx:0;vgy:0;vgz:0;templ:86;temph:88;tof:10;h:0;bat:31;baro:9.22;time:0;agx:11.00;agy:12.00;agz:-999.00;

",31,0,0,0,0,0,0,11.00,12.00,-999.00,9.22,10,0
12933.008068,"pitch:0;roll:0;yaw:0;vgx:0;vgy:0;vgz:0;templ:86;temph:88;tof:10;h:0;bat:31;baro:9.17;time:0;agx:12.00;agy:8.00;agz:-999.00;


",31,0,0,0,0,0,0,12.00,8.00,-999.00,9.17,10,0
12933.110549,"pitch:0;roll:0;yaw:0;vgx:0;vgy:0;vgz:0;templ:86;temph:88;tof:10;h:0;bat:31;baro:9.18;time:0;agx:11.00;agy:10.00;agz:-999.00;

",31,0,0,0,0,0,0,11.00,10.00,-999.00,9.18,10,0
12933.212984,"pitch:0;roll:0;yaw:0;vgx:0;vgy:0;vgz:0;templ:86;temph:88;tof:10;h:0;bat:31;baro:9.15;time:0;agx:9.00;agy:13.00;agz:-998.00;


",31,0,0,0,0,0,0,9.00,13.00,-998.00,9.15,10,0
12933.314061,"pitch:0;roll:0;yaw:0;vgx:0;vgy:0;vgz:0;templ:86;temph:88;tof:10;h:0;bat:31;baro:9.16;time:0;agx:12.00;agy:13.00;agz:-998.00;

",31,0,0,0,0,0,0,12.00,13.00,-998.00,9.16,10,0
12933.416101,"pitch:0;roll:0;yaw:0;vgx:0;vgy:0;vgz:0;templ:86;temph:88;tof:10;h:0;bat:31;baro:9.18;time:0;agx:12.00;agy:10.00;agz:-997.00;

",31,0,0,0,0,0,0,12.00,10.00,-997.00,9.18,10,0
12933.467028,"pitch:0;roll:0;yaw:0;vgx:0;vgy:0;vgz:0;templ:86;temph:88;tof:10;h:0;bat:31;baro:9.18;time:0;agx:9.00;agy:10.00;agz:-1000.00;

",31,0,0,0,0,0,0,9.00,10.00,-1000.00,9.18,10,0
12933.569025,"pitch:0;roll:0;yaw:0;vgx:0;vgy:0;vgz:0;templ:86;temph:88;tof:10;h:0;bat:31;baro:9.16;time:0;agx:11.00;agy:14.00;agz:-1000.00;
",31,0,0,0,0,0,0,11.00,14.00,-1000.00,9.16,10,0
12933.671069,"pitch:0;roll:0;yaw:0;vgx:0;vgy:0;vgz:0;templ:86;temph:88;tof:10;h:0;bat:31;baro:9.14;time:0;agx:12.00;agy:12.00;agz:-999.00;

",31,0,0,0,0,0,0,12.00,12.00,-999.00,9.14,10,0
12933.772801,"pitch:0;roll:0;yaw:0;vgx:0;vgy:0;vgz:0;templ:86;temph:88;tof:10;h:0;bat:31;baro:9.17;time:0;agx:9.00;agy:9.00;agz:-1000.00;


",31,0,0,0,0,0,0,9.00,9.00,-1000.00,9.17,10,0
12933.877094,"pitch:0;roll:0;yaw:0;vgx:0;vgy:0;vgz:0;templ:86;temph:88;tof:10;h:0;bat:31;baro:9.18;time:0;agx:11.00;agy:11.00;agz:-998.00;

",31,0,0,0,0,0,0,11.00,11.00,-998.00,9.18,10,0
12933.978897,"pitch:0;roll:0;yaw:0;vgx:0;vgy:0;vgz:0;templ:86;temph:88;tof:10;h:0;bat:31;baro:9.19;time:0;agx:10.00;agy:13.00;agz:-996.00;

",31,0,0,0,0,0,0,10.00,13.00,-996.00,9.19,10,0
12934.079266,"pitch:0;roll:0;yaw:0;vgx:0;vgy:0;vgz:0;templ:86;temph:88;tof:10;h:0;bat:31;baro:9.14;time:0;agx:11.00;agy:11.00;agz:-999.00;

",31,0,0,0,0,0,0,11.00,11.00,-999.00,9.14,10,0
12934.181982,"pitch:0;roll:0;yaw:0;vgx:0;vgy:0;vgz:0;templ:86;temph:88;tof:10;h:0;bat:31;baro:9.15;time:0;agx:13.00;agy:9.00;agz:-999.00;


",31,0,0,0,0,0,0,13.00,9.00,-999.00,9.15,10,0
12934.283966,"pitch:0;roll:0;yaw:0;vgx:0;vgy:0;vgz:0;templ:86;temph:89;tof:10;h:0;bat:31;baro:9.15;time:0;agx:11.00;agy:10.00;agz:-1001.00;
",31,0,0,0,0,0,0,11.00,10.00,-1001.00,9.15,10,0
12934.385938,"pitch:0;roll:0;yaw:0;vgx:0;vgy:0;vgz:0;templ:86;temph:89;tof:10;h:0;bat:31;baro:9.14;time:0;agx:9.00;agy:9.00;agz:-1001.00;

",31,0,0,0,0,0,0,9.00,9.00,-1001.00,9.14,10,0
12934.487941,"pitch:0;roll:0;yaw:0;vgx:0;vgy:0;vgz:0;templ:86;temph:89;tof:10;h:0;bat:31;baro:9.18;time:0;agx:11.00;agy:12.00;agz:-997.00;

",31,0,0,0,0,0,0,11.00,12.00,-997.00,9.18,10,0
12934.589976,"pitch:0;roll:0;yaw:0;vgx:0;vgy:0;vgz:0;templ:86;temph:89;tof:10;h:0;bat:31;baro:9.18;time:0;agx:12.00;agy:11.00;agz:-999.00;

",31,0,0,0,0,0,0,12.00,11.00,-999.00,9.18,10,0
12934.691889,"pitch:0;roll:0;yaw:0;vgx:0;vgy:0;vgz:0;templ:86;temph:89;tof:10;h:0;bat:31;baro:9.19;time:0;agx:11.00;agy:11.00;agz:-1001.00;
",31,0,0,0,0,0,0,11.00,11.00,-1001.00,9.19,10,0
12934.793959,"pitch:0;roll:0;yaw:0;vgx:0;vgy:0;vgz:0;templ:86;temph:89;tof:10;h:0;bat:31;baro:9.16;time:0;agx:9.00;agy:11.00;agz:-998.00;

",31,0,0,0,0,0,0,9.00,11.00,-998.00,9.16,10,0
12934.895821,"pitch:0;roll:0;yaw:0;vgx:0;vgy:0;vgz:0;templ:86;temph:89;tof:10;h:0;bat:31;baro:9.18;time:0;agx:10.00;agy:11.00;agz:-1000.00;
",31,0,0,0,0,0,0,10.00,11.00,-1000.00,9.18,10,0
12934.998025,"pitch:0;roll:0;yaw:0;vgx:0;vgy:0;vgz:0;templ:86;temph:89;tof:10;h:0;bat:31;baro:9.17;time:0;agx:10.00;agy:13.00;agz:-998.00;

",31,0,0,0,0,0,0,10.00,13.00,-998.00,9.17,10,0
12935.099915,"pitch:0;roll:0;yaw:0;vgx:0;vgy:0;vgz:0;templ:86;temph:89;tof:10;h:0;bat:31;baro:9.20;time:0;agx:11.00;agy:12.00;agz:-998.00;

",31,0,0,0,0,0,0,11.00,12.00,-998.00,9.20,10,0
12935.202057,"pitch:0;roll:0;yaw:0;vgx:0;vgy:0;vgz:0;templ:86;temph:89;tof:10;h:0;bat:31;baro:9.21;time:0;agx:11.00;agy:8.00;agz:-1000.00;

",31,0,0,0,0,0,0,11.00,8.00,-1000.00,9.21,10,0
12935.306543,"pitch:0;roll:0;yaw:0;vgx:0;vgy:0;vgz:0;templ:86;temph:88;tof:10;h:0;bat:31;baro:9.18;time:0;agx:12.00;agy:10.00;agz:-999.00;

",31,0,0,0,0,0,0,12.00,10.00,-999.00,9.18,10,0
12935.405970,"pitch:0;roll:0;yaw:0;vgx:0;vgy:0;vgz:0;templ:86;temph:88;tof:10;h:0;bat:31;baro:9.19;time:0;agx:11.00;agy:19.00;agz:-996.00;

",31,0,0,0,0,0,0,11.00,19.00,-996.00,9.19,10,0
12935.507915,"pitch:0;roll:0;yaw:0;vgx:0;vgy:0;vgz:0;templ:86;temph:88;tof:10;h:0;bat:31;baro:9.20;time:0;agx:6.00;agy:9.00;agz:-1001.00;


",31,0,0,0,0,0,0,6.00,9.00,-1001.00,9.20,10,0
12935.609989,"pitch:0;roll:0;yaw:0;vgx:0;vgy:0;vgz:0;templ:86;temph:88;tof:10;h:0;bat:31;baro:9.20;time:0;agx:4.00;agy:6.00;agz:-1001.00;


",31,0,0,0,0,0,0,4.00,6.00,-1001.00,9.20,10,0
12935.711920,"pitch:0;roll:0;yaw:0;vgx:0;vgy:0;vgz:0;templ:86;temph:88;tof:10;h:0;bat:31;baro:9.16;time:0;agx:8.00;agy:14.00;agz:-1000.00;

",31,0,0,0,0,0,0,8.00,14.00,-1000.00,9.16,10,0
12935.814746,"pitch:0;roll:0;yaw:0;vgx:0;vgy:0;vgz:0;templ:86;temph:88;tof:10;h:0;bat:31;baro:9.19;time:0;agx:13.00;agy:14.00;agz:-999.00;

",31,0,0,0,0,0,0,13.00,14.00,-999.00,9.19,10,0
12935.915781,"pitch:0;roll:0;yaw:0;vgx:0;vgy:0;vgz:0;templ:86;temph:88;tof:10;h:0;bat:31;baro:9.19;time:0;agx:39.00;agy:-17.00;agz:-1026.00;
",31,0,0,0,0,0,0,39.00,-17.00,-1026.00,9.19,10,0
12936.017807,"pitch:0;roll:0;yaw:0;vgx:0;vgy:0;vgz:0;templ:86;temph:88;tof:10;h:0;bat:31;baro:9.17;time:0;agx:21.00;agy:0.00;agz:-998.00;
;
",31,0,0,0,0,0,0,21.00,0.00,-998.00,9.17,10,0
12936.119884,"pitch:0;roll:0;yaw:0;vgx:0;vgy:0;vgz:0;templ:86;temph:88;tof:10;h:0;bat:31;baro:9.17;time:0;agx:6.00;agy:17.00;agz:-997.00;
;
",31,0,0,0,0,0,0,6.00,17.00,-997.00,9.17,10,0
12936.221897,"pitch:0;roll:0;yaw:0;vgx:0;vgy:0;vgz:0;templ:86;temph:88;tof:10;h:0;bat:31;baro:9.15;time:0;agx:27.00;agy:2.00;agz:-1012.00;

",31,0,0,0,0,0,0,27.00,2.00,-1012.00,9.15,10,0
12936.323842,"pitch:4;roll:-4;yaw:15;vgx:0;vgy:0;vgz:0;templ:87;temph:89;tof:10;h:0;bat:31;baro:9.22;time:0;agx:23.00;agy:66.00;agz:-1039.00;
",31,4,-4,15,0,0,0,23.00,66.00,-1039.00,9.22,10,0
12936.425789,"pitch:5;roll:-6;yaw:28;vgx:0;vgy:0;vgz:0;templ:87;temph:89;tof:10;h:0;bat:31;baro:9.18;time:0;agx:26.00;agy:87.00;agz:-1021.00;
",31,5,-6,28,0,0,0,26.00,87.00,-1021.00,9.18,10,0
12936.527818,"pitch:7;roll:-7;yaw:42;vgx:0;vgy:0;vgz:0;templ:87;temph:89;tof:10;h:0;bat:31;baro:9.25;time:0;agx:159.00;agy:80.00;agz:-937.00;
",31,7,-7,42,0,0,0,159.00,80.00,-937.00,9.25,10,0
12936.629952,"pitch:6;roll:-8;yaw:45;vgx:0;vgy:0;vgz:0;templ:87;temph:89;tof:10;h:0;bat:31;baro:9.17;time:0;agx:117.00;agy:58.00;agz:-943.00;
",31,6,-8,45,0,0,0,117.00,58.00,-943.00,9.17,10,0
12936.731808,"pitch:3;roll:-9;yaw:32;vgx:0;vgy:0;vgz:0;templ:87;temph:89;tof:10;h:0;bat:31;baro:9.17;time:0;agx:6.00;agy:195.00;agz:-956.00;

",31,3,-9,32,0,0,0,6.00,195.00,-956.00,9.17,10,0
12936.782984,"pitch:1;roll:-7;yaw:14;vgx:0;vgy:0;vgz:0;templ:87;temph:89;tof:10;h:0;bat:31;baro:9.21;time:0;agx:124.00;agy:203.00;agz:-980.00;
",31,1,-7,14,0,0,0,124.00,203.00,-980.00,9.21,10,0
12936.935836,"pitch:2;roll:-5;yaw:5;vgx:0;vgy:0;vgz:0;templ:87;temph:89;tof:10;h:0;bat:31;baro:9.23;time:0;agx:15.00;agy:145.00;agz:-1013.00;

",31,2,-5,5,0,0,0,15.00,145.00,-1013.00,9.23,10,0
12936.988392,"pitch:4;roll:-5;yaw:-3;vgx:0;vgy:0;vgz:0;templ:87;temph:89;tof:10;h:0;bat:31;baro:9.20;time:0;agx:128.00;agy:108.00;agz:-959.00;
",31,4,-5,-3,0,0,0,128.00,108.00,-959.00,9.20,10,0
12937.089035,"pitch:5;roll:-4;yaw:-11;vgx:0;vgy:0;vgz:0;templ:87;temph:89;tof:10;h:0;bat:31;baro:9.24;time:0;agx:100.00;agy:37.00;agz:-989.00;
",31,5,-4,-11,0,0,0,100.00,37.00,-989.00,9.24,10,0
12937.190925,"pitch:10;roll:-3;yaw:-19;vgx:0;vgy:0;vgz:0;templ:87;temph:89;tof:10;h:0;bat:31;baro:9.24;time:0;agx:117.00;agy:87.00;agz:-1006.00;
",31,10,-3,-19,0,0,0,117.00,87.00,-1006.00,9.24,10,0
12937.292899,"pitch:20;roll:-3;yaw:-29;vgx:0;vgy:0;vgz:0;templ:86;temph:89;tof:10;h:0;bat:31;baro:9.27;time:0;agx:287.00;agy:72.00;agz:-965.00;

",31,20,-3,-29,0,0,0,287.00,72.00,-965.00,9.27,10,0
12937.394764,"pitch:21;roll:-4;yaw:-35;vgx:0;vgy:0;vgz:0;templ:86;temph:89;tof:10;h:0;bat:31;baro:9.22;time:0;agx:333.00;agy:99.00;agz:-908.00;

",31,21,-4,-35,0,0,0,333.00,99.00,-908.00,9.22,10,0
12937.496859,"pitch:17;roll:-5;yaw:-40;vgx:0;vgy:0;vgz:0;templ:86;temph:89;tof:10;h:0;bat:31;baro:9.21;time:0;agx:273.00;agy:123.00;agz:-897.00;
",31,17,-5,-40,0,0,0,273.00,123.00,-897.00,9.21,10,0
12937.600717,"pitch:17;roll:-8;yaw:-45;vgx:0;vgy:0;vgz:0;templ:86;temph:89;tof:10;h:0;bat:31;baro:9.22;time:0;agx:364.00;agy:92.00;agz:-920.00;

",31,17,-8,-45,0,0,0,364.00,92.00,-920.00,9.22,10,0
12937.702047,"pitch:18;roll:-8;yaw:-47;vgx:0;vgy:0;vgz:0;templ:86;temph:89;tof:10;h:0;bat:31;baro:9.18;time:0;agx:302.00;agy:119.00;agz:-854.00;
",31,18,-8,-47,0,0,0,302.00,119.00,-854.00,9.18,10,0
12937.803859,"pitch:19;roll:-8;yaw:-47;vgx:0;vgy:0;vgz:0;templ:86;temph:89;tof:10;h:0;bat:31;baro:9.25;time:0;agx:323.00;agy:123.00;agz:-936.00;
",31,19,-8,-47,0,0,0,323.00,123.00,-936.00,9.25,10,0
12937.906053,"pitch:21;roll:-8;yaw:-48;vgx:0;vgy:0;vgz:0;templ:86;temph:89;tof:10;h:0;bat:31;baro:9.19;time:0;agx:338.00;agy:184.00;agz:-967.00;
",31,21,-8,-48,0,0,0,338.00,184.00,-967.00,9.19,10,0
12938.007828,"pitch:21;roll:-8;yaw:-49;vgx:0;vgy:0;vgz:0;templ:86;temph:89;tof:10;h:0;bat:31;baro:9.23;time:0;agx:391.00;agy:199.00;agz:-894.00;
",31,21,-8,-49,0,0,0,391.00,199.00,-894.00,9.23,10,0
12938.109914,"pitch:22;roll:-8;yaw:-50;vgx:0;vgy:0;vgz:0;templ:86;temph:89;tof:10;h:0;bat:31;baro:9.22;time:0;agx:366.00;agy:160.00;agz:-915.00;
",31,22,-8,-50,0,0,0,366.00,160.00,-915.00,9.22,10,0
12938.211886,"pitch:22;roll:-8;yaw:-51;vgx:0;vgy:0;vgz:0;templ:86;temph:89;tof:10;h:0;bat:31;baro:9.21;time:0;agx:408.00;agy:92.00;agz:-944.00;

",31,22,-8,-51,0,0,0,408.00,92.00,-944.00,9.21,10,0
12938.316867,"pitch:22;roll:-8;yaw:-52;vgx:0;vgy:0;vgz:0;templ:86;temph:88;tof:10;h:0;bat:31;baro:9.16;time:0;agx:372.00;agy:128.00;agz:-931.00;
",31,22,-8,-52,0,0,0,372.00,128.00,-931.00,9.16,10,0
12938.417323,"pitch:22;roll:-8;yaw:-52;vgx:0;vgy:0;vgz:0;templ:86;temph:88;tof:10;h:0;bat:31;baro:9.21;time:0;agx:410.00;agy:94.00;agz:-907.00;

",31,22,-8,-52,0,0,0,410.00,94.00,-907.00,9.21,10,0
12938.519126,"pitch:22;roll:-7;yaw:-51;vgx:0;vgy:0;vgz:0;templ:86;temph:88;tof:10;h:0;bat:31;baro:9.19;time:0;agx:380.00;agy:130.00;agz:-924.00;
",31,22,-7,-51,0,0,0,380.00,130.00,-924.00,9.19,10,0
12938.619754,"pitch:21;roll:-6;yaw:-51;vgx:0;vgy:0;vgz:0;templ:86;temph:88;tof:10;h:0;bat:31;baro:9.24;time:0;agx:419.00;agy:80.00;agz:-962.00;

",31,21,-6,-51,0,0,0,419.00,80.00,-962.00,9.24,10,0
12938.721780,"pitch:18;roll:-5;yaw:-51;vgx:0;vgy:0;vgz:0;templ:86;temph:88;tof:10;h:0;bat:31;baro:9.21;time:0;agx:403.00;agy:139.00;agz:-900.00;
",31,18,-5,-51,0,0,0,403.00,139.00,-900.00,9.21,10,0
12938.823849,"pitch:16;roll:-4;yaw:-51;vgx:0;vgy:0;vgz:2;templ:86;temph:88;tof:10;h:0;bat:31;baro:9.22;time:0;agx:306.00;agy:-17.00;agz:-765.00;
",31,16,-4,-51,0,0,2,306.00,-17.00,-765.00,9.22,10,0
12938.925679,"pitch:14;roll:-6;yaw:-49;vgx:0;vgy:0;vgz:1;templ:86;temph:88;tof:10;h:0;bat:31;baro:9.20;time:0;agx:282.00;agy:11.00;agz:-1070.00;
",31,14,-6,-49,0,0,1,282.00,11.00,-1070.00,9.20,10,0
12939.027707,"pitch:7;roll:0;yaw:-47;vgx:0;vgy:0;vgz:0;templ:86;temph:88;tof:10;h:0;bat:31;baro:9.17;time:0;agx:-48.00;agy:-2.00;agz:-1008.00;

",31,7,0,-47,0,0,0,-48.00,-2.00,-1008.00,9.17,10,0
12939.130619,"pitch:-4;roll:1;yaw:-42;vgx:0;vgy:0;vgz:0;templ:86;temph:88;tof:10;h:0;bat:31;baro:9.21;time:0;agx:214.00;agy:75.00;agz:-909.00;

",31,-4,1,-42,0,0,0,214.00,75.00,-909.00,9.21,10,0
12939.231723,"pitch:-3;roll:2;yaw:-42;vgx:0;vgy:0;vgz:0;templ:86;temph:88;tof:10;h:0;bat:31;baro:9.18;time:0;agx:-125.00;agy:62.00;agz:-1002.00;
",31,-3,2,-42,0,0,0,-125.00,62.00,-1002.00,9.18,10,0
12939.333806,"pitch:-2;roll:4;yaw:-42;vgx:0;vgy:0;vgz:0;templ:86;temph:89;tof:10;h:0;bat:31;baro:9.16;time:0;agx:-40.00;agy:-129.00;agz:-998.00;
",31,-2,4,-42,0,0,0,-40.00,-129.00,-998.00,9.16,10,0
12939.435712,"pitch:-2;roll:4;yaw:-42;vgx:0;vgy:0;vgz:0;templ:86;temph:89;tof:10;h:0;bat:31;baro:9.12;time:0;agx:-86.00;agy:-60.00;agz:-990.00;

",31,-2,4,-42,0,0,0,-86.00,-60.00,-990.00,9.12,10,0
12939.537913,"pitch:-2;roll:4;yaw:-42;vgx:0;vgy:0;vgz:0;templ:86;temph:89;tof:10;h:0;bat:31;baro:9.16;time:0;agx:-150.00;agy:-68.00;agz:-1016.00;
",31,-2,4,-42,0,0,0,-150.00,-68.00,-1016.00,9.16,10,0
12939.639787,"pitch:-5;roll:1;yaw:-42;vgx:0;vgy:0;vgz:0;templ:86;temph:89;tof:10;h:0;bat:31;baro:9.18;time:0;agx:-34.00;agy:-96.00;agz:-997.00;

",31,-5,1,-42,0,0,0,-34.00,-96.00,-997.00,9.18,10,0
12939.741750,"pitch:1;roll:7;yaw:-42;vgx:0;vgy:0;vgz:0;templ:86;temph:89;tof:10;h:0;bat:31;baro:9.13;time:0;agx:-23.00;agy:-104.00;agz:-984.00;

",31,1,7,-42,0,0,0,-23.00,-104.00,-984.00,9.13,10,0
12939.843783,"pitch:3;roll:7;yaw:-43;vgx:0;vgy:0;vgz:0;templ:86;temph:89;tof:10;h:0;bat:31;baro:9.14;time:0;agx:-122.00;agy:70.00;agz:-905.00;


",31,3,7,-43,0,0,0,-122.00,70.00,-905.00,9.14,10,0
12939.945708,"pitch:8;roll:7;yaw:-48;vgx:0;vgy:0;vgz:-1;templ:86;temph:89;tof:10;h:0;bat:31;baro:9.16;time:0;agx:-144.00;agy:-58.00;agz:-1031.00;
",31,8,7,-48,0,0,-1,-144.00,-58.00,-1031.00,9.16,10,0
12939.996665,"pitch:13;roll:6;yaw:-49;vgx:0;vgy:0;vgz:-1;templ:86;temph:89;tof:10;h:0;bat:31;baro:9.19;time:0;agx:20.00;agy:-74.00;agz:-1143.00;

",31,13,6,-49,0,0,-1,20.00,-74.00,-1143.00,9.19,10,0
12940.099023,"pitch:19;roll:6;yaw:-51;vgx:0;vgy:0;vgz:0;templ:86;temph:89;tof:10;h:0;bat:31;baro:9.18;time:0;agx:222.00;agy:-91.00;agz:-1123.00;

",31,19,6,-51,0,0,0,222.00,-91.00,-1123.00,9.18,10,0
12940.200758,"pitch:19;roll:6;yaw:-49;vgx:0;vgy:0;vgz:0;templ:86;temph:89;tof:10;h:0;bat:31;baro:9.16;time:0;agx:413.00;agy:-167.00;agz:-823.00;

",31,19,6,-49,0,0,0,413.00,-167.00,-823.00,9.16,10,0
12940.356100,"pitch:26;roll:9;yaw:-54;vgx:0;vgy:0;vgz:0;templ:86;temph:89;tof:10;h:0;bat:31;baro:9.24;time:0;agx:595.00;agy:-225.00;agz:-817.00;

",31,26,9,-54,0,0,0,595.00,-225.00,-817.00,9.24,10,0
12940.456583,"pitch:34;roll:5;yaw:-58;vgx:0;vgy:0;vgz:0;templ:86;temph:89;tof:10;h:0;bat:31;baro:9.18;time:0;agx:434.00;agy:-120.00;agz:-911.00;

",31,34,5,-58,0,0,0,434.00,-120.00,-911.00,9.18,10,0
12940.507678,"pitch:36;roll:1;yaw:-58;vgx:0;vgy:0;vgz:0;templ:86;temph:89;tof:10;h:0;bat:31;baro:9.21;time:0;agx:500.00;agy:-115.00;agz:-899.00;

",31,36,1,-58,0,0,0,500.00,-115.00,-899.00,9.21,10,0
12940.609961,"pitch:37;roll:0;yaw:-57;vgx:0;vgy:0;vgz:0;templ:86;temph:89;tof:45;h:0;bat:31;baro:9.22;time:0;agx:555.00;agy:-21.00;agz:-790.00;


",31,37,0,-57,0,0,0,555.00,-21.00,-790.00,9.22,45,0
12940.711404,"pitch:35;roll:-1;yaw:-57;vgx:0;vgy:0;vgz:0;templ:86;temph:89;tof:50;h:0;bat:31;baro:9.24;time:0;agx:582.00;agy:-52.00;agz:-836.00;

",31,35,-1,-57,0,0,0,582.00,-52.00,-836.00,9.24,50,0
12940.816247,"pitch:34;roll:-3;yaw:-57;vgx:0;vgy:0;vgz:0;templ:86;temph:89;tof:41;h:0;bat:31;baro:9.25;time:0;agx:547.00;agy:30.00;agz:-838.00;


",31,34,-3,-57,0,0,0,547.00,30.00,-838.00,9.25,41,0
12940.918655,"pitch:32;roll:-3;yaw:-57;vgx:0;vgy:0;vgz:0;templ:86;temph:89;tof:10;h:0;bat:31;baro:9.19;time:0;agx:493.00;agy:110.00;agz:-859.00;

",31,32,-3,-57,0,0,0,493.00,110.00,-859.00,9.19,10,0
12941.019089,"pitch:28;roll:-4;yaw:-57;vgx:0;vgy:0;vgz:0;templ:86;temph:89;tof:10;h:0;bat:31;baro:9.22;time:0;agx:561.00;agy:89.00;agz:-809.00;


",31,28,-4,-57,0,0,0,561.00,89.00,-809.00,9.22,10,0
12941.119594,"pitch:26;roll:-3;yaw:-59;vgx:0;vgy:0;vgz:0;templ:86;temph:89;tof:10;h:0;bat:31;baro:9.18;time:0;agx:340.00;agy:148.00;agz:-934.00;

",31,26,-3,-59,0,0,0,340.00,148.00,-934.00,9.18,10,0
12941.221636,"pitch:25;roll:-5;yaw:-62;vgx:0;vgy:0;vgz:1;templ:86;temph:89;tof:10;h:0;bat:31;baro:9.19;time:0;agx:355.00;agy:81.00;agz:-938.00;


",31,25,-5,-62,0,0,1,355.00,81.00,-938.00,9.19,10,0
12941.323560,"pitch:21;roll:-6;yaw:-64;vgx:0;vgy:0;vgz:1;templ:87;temph:89;tof:10;h:0;bat:31;baro:9.25;time:0;agx:369.00;agy:83.00;agz:-958.00;


",31,21,-6,-64,0,0,1,369.00,83.00,-958.00,9.25,10,0
12941.425574,"pitch:19;roll:-5;yaw:-70;vgx:0;vgy:0;vgz:1;templ:87;temph:89;tof:10;h:0;bat:31;baro:9.13;time:0;agx:385.00;agy:97.00;agz:-929.00;


",31,19,-5,-70,0,0,1,385.00,97.00,-929.00,9.13,10,0
12941.527539,"pitch:17;roll:-5;yaw:-75;vgx:0;vgy:0;vgz:0;templ:87;temph:89;tof:10;h:0;bat:31;baro:9.17;time:0;agx:320.00;agy:99.00;agz:-966.00;


",31,17,-5,-75,0,0,0,320.00,99.00,-966.00,9.17,10,0
12941.629536,"pitch:14;roll:-5;yaw:-79;vgx:0;vgy:0;vgz:0;templ:87;temph:89;tof:10;h:0;bat:31;baro:9.20;time:0;agx:377.00;agy:89.00;agz:-937.00;


",31,14,-5,-79,0,0,0,377.00,89.00,-937.00,9.20,10,0
12941.731559,"pitch:14;roll:-6;yaw:-71;vgx:0;vgy:0;vgz:0;templ:87;temph:89;tof:10;h:0;bat:31;baro:9.23;time:0;agx:345.00;agy:58.00;agz:-975.00;


",31,14,-6,-71,0,0,0,345.00,58.00,-975.00,9.23,10,0
12941.833813,"pitch:16;roll:0;yaw:-63;vgx:0;vgy:0;vgz:0;templ:87;temph:89;tof:10;h:0;bat:31;baro:9.23;time:0;agx:234.00;agy:79.00;agz:-929.00;



",31,16,0,-63,0,0,0,234.00,79.00,-929.00,9.23,10,0
12941.935577,"pitch:15;roll:1;yaw:-57;vgx:0;vgy:0;vgz:1;templ:87;temph:89;tof:10;h:0;bat:31;baro:9.20;time:0;agx:273.00;agy:-56.00;agz:-966.00;


",31,15,1,-57,0,0,1,273.00,-56.00,-966.00,9.20,10,0
12942.037655,"pitch:11;roll:0;yaw:-49;vgx:0;vgy:0;vgz:0;templ:87;temph:89;tof:10;h:0;bat:31;baro:9.17;time:0;agx:315.00;agy:-42.00;agz:-935.00;


",31,11,0,-49,0,0,0,315.00,-42.00,-935.00,9.17,10,0
12942.139518,"pitch:13;roll:0;yaw:-41;vgx:0;vgy:0;vgz:0;templ:87;temph:89;tof:10;h:0;bat:31;baro:9.22;time:0;agx:325.00;agy:35.00;agz:-922.00;



",31,13,0,-41,0,0,0,325.00,35.00,-922.00,9.22,10,0
12942.242746,"pitch:15;roll:3;yaw:-35;vgx:0;vgy:0;vgz:1;templ:87;temph:89;tof:10;h:0;bat:31;baro:9.25;time:0;agx:262.00;agy:67.00;agz:-919.00;



",31,15,3,-35,0,0,1,262.00,67.00,-919.00,9.25,10,0
12942.344650,"pitch:15;roll:3;yaw:-31;vgx:0;vgy:0;vgz:0;templ:86;temph:89;tof:10;h:0;bat:31;baro:9.23;time:0;agx:302.00;agy:-65.00;agz:-968.00;


",31,15,3,-31,0,0,0,302.00,-65.00,-968.00,9.23,10,0
12942.446561,"pitch:15;roll:3;yaw:-29;vgx:0;vgy:0;vgz:0;templ:86;temph:89;tof:10;h:0;bat:31;baro:9.21;time:0;agx:250.00;agy:-59.00;agz:-932.00;


",31,15,3,-29,0,0,0,250.00,-59.00,-932.00,9.21,10,0
12942.550734,"pitch:16;roll:4;yaw:-29;vgx:0;vgy:0;vgz:0;templ:86;temph:89;tof:10;h:0;bat:31;baro:9.22;time:0;agx:221.00;agy:-58.00;agz:-982.00;


",31,16,4,-29,0,0,0,221.00,-58.00,-982.00,9.22,10,0
12942.650868,"pitch:18;roll:5;yaw:-29;vgx:0;vgy:0;vgz:0;templ:86;temph:89;tof:10;h:0;bat:31;baro:9.24;time:0;agx:294.00;agy:-86.00;agz:-949.00;


",31,18,5,-29,0,0,0,294.00,-86.00,-949.00,9.24,10,0
12942.752601,"pitch:18;roll:4;yaw:-29;vgx:0;vgy:0;vgz:0;templ:86;temph:89;tof:10;h:0;bat:31;baro:9.23;time:0;agx:287.00;agy:-76.00;agz:-963.00;


",31,18,4,-29,0,0,0,287.00,-76.00,-963.00,9.23,10,0
12942.854548,"pitch:19;roll:4;yaw:-29;vgx:0;vgy:0;vgz:0;templ:86;temph:89;tof:10;h:0;bat:31;baro:9.24;time:0;agx:315.00;agy:-48.00;agz:-963.00;


",31,19,4,-29,0,0,0,315.00,-48.00,-963.00,9.24,10,0
12942.956437,"pitch:19;roll:4;yaw:-30;vgx:0;vgy:0;vgz:0;templ:86;temph:89;tof:10;h:0;bat:31;baro:9.28;time:0;agx:313.00;agy:-13.00;agz:-947.00;


",31,19,4,-30,0,0,0,313.00,-13.00,-947.00,9.28,10,0
12943.058553,"pitch:18;roll:4;yaw:-31;vgx:0;vgy:0;vgz:0;templ:86;temph:89;tof:10;h:0;bat:31;baro:9.19;time:0;agx:353.00;agy:-65.00;agz:-966.00;


",31,18,4,-31,0,0,0,353.00,-65.00,-966.00,9.19,10,0
12943.160594,"pitch:19;roll:5;yaw:-31;vgx:0;vgy:0;vgz:0;templ:86;temph:89;tof:10;h:0;bat:31;baro:9.20;time:0;agx:337.00;agy:-33.00;agz:-926.00;


",31,19,5,-31,0,0,0,337.00,-33.00,-926.00,9.20,10,0
12943.262541,"pitch:22;roll:6;yaw:-33;vgx:0;vgy:0;vgz:0;templ:86;temph:89;tof:10;h:0;bat:31;baro:9.22;time:0;agx:314.00;agy:-33.00;agz:-919.00;


",31,22,6,-33,0,0,0,314.00,-33.00,-919.00,9.22,10,0
12943.364498,"pitch:24;roll:5;yaw:-36;vgx:0;vgy:0;vgz:0;templ:86;temph:89;tof:10;h:0;bat:31;baro:9.23;time:0;agx:406.00;agy:-72.00;agz:-904.00;


",31,24,5,-36,0,0,0,406.00,-72.00,-904.00,9.23,10,0
12943.466549,"pitch:24;roll:4;yaw:-39;vgx:0;vgy:0;vgz:0;templ:86;temph:89;tof:10;h:0;bat:31;baro:9.21;time:0;agx:405.00;agy:-56.00;agz:-903.00;


",31,24,4,-39,0,0,0,405.00,-56.00,-903.00,9.21,10,0
12943.568458,"pitch:23;roll:2;yaw:-41;vgx:0;vgy:0;vgz:0;templ:86;temph:89;tof:10;h:0;bat:31;baro:9.22;time:0;agx:466.00;agy:-73.00;agz:-875.00;


",31,23,2,-41,0,0,0,466.00,-73.00,-875.00,9.22,10,0
12943.670546,"pitch:22;roll:1;yaw:-42;vgx:0;vgy:0;vgz:0;templ:86;temph:89;tof:10;h:0;bat:31;baro:9.22;time:0;agx:493.00;agy:-106.00;agz:-889.00;

",31,22,1,-42,0,0,0,493.00,-106.00,-889.00,9.22,10,0
12943.772877,"pitch:23;roll:1;yaw:-42;vgx:0;vgy:0;vgz:0;templ:86;temph:89;tof:10;h:0;bat:31;baro:9.27;time:0;agx:451.00;agy:-48.00;agz:-888.00;


",31,23,1,-42,0,0,0,451.00,-48.00,-888.00,9.27,10,0
12943.874485,"pitch:23;roll:1;yaw:-43;vgx:0;vgy:0;vgz:0;templ:86;temph:89;tof:10;h:0;bat:31;baro:9.23;time:0;agx:417.00;agy:-33.00;agz:-933.00;


",31,23,1,-43,0,0,0,417.00,-33.00,-933.00,9.23,10,0
12943.976731,"pitch:23;roll:1;yaw:-43;vgx:0;vgy:0;vgz:0;templ:86;temph:89;tof:10;h:0;bat:31;baro:9.19;time:0;agx:384.00;agy:-6.00;agz:-920.00;



",31,23,1,-43,0,0,0,384.00,-6.00,-920.00,9.19,10,0
12944.027314,"pitch:22;roll:1;yaw:-43;vgx:0;vgy:0;vgz:0;templ:86;temph:89;tof:10;h:0;bat:31;baro:9.23;time:0;agx:392.00;agy:-16.00;agz:-904.00;


",31,22,1,-43,0,0,0,392.00,-16.00,-904.00,9.23,10,0
12944.129726,"pitch:22;roll:1;yaw:-43;vgx:0;vgy:0;vgz:0;templ:86;temph:89;tof:10;h:0;bat:31;baro:9.23;time:0;agx:377.00;agy:-26.00;agz:-926.00;


",31,22,1,-43,0,0,0,377.00,-26.00,-926.00,9.23,10,0
12944.231306,"pitch:22;roll:1;yaw:-43;vgx:0;vgy:0;vgz:0;templ:86;temph:89;tof:10;h:0;bat:31;baro:9.24;time:0;agx:373.00;agy:-1.00;agz:-935.00;



",31,22,1,-43,0,0,0,373.00,-1.00,-935.00,9.24,10,0
12944.333359,"pitch:22;roll:2;yaw:-42;vgx:0;vgy:0;vgz:0;templ:87;temph:89;tof:10;h:0;bat:31;baro:9.22;time:0;agx:371.00;agy:-15.00;agz:-910.00;


",31,22,2,-42,0,0,0,371.00,-15.00,-910.00,9.22,10,0
12944.435474,"pitch:22;roll:1;yaw:-42;vgx:0;vgy:0;vgz:0;templ:87;temph:89;tof:10;h:0;bat:31;baro:9.25;time:0;agx:408.00;agy:-52.00;agz:-908.00;


",31,22,1,-42,0,0,0,408.00,-52.00,-908.00,9.25,10,0
12944.537510,"pitch:21;roll:1;yaw:-42;vgx:0;vgy:0;vgz:0;templ:87;temph:89;tof:10;h:0;bat:31;baro:9.23;time:0;agx:398.00;agy:-42.00;agz:-922.00;


",31,21,1,-42,0,0,0,398.00,-42.00,-922.00,9.23,10,0
12944.639494,"pitch:21;roll:1;yaw:-42;vgx:0;vgy:0;vgz:0;templ:87;temph:89;tof:10;h:0;bat:31;baro:9.22;time:0;agx:358.00;agy:-19.00;agz:-932.00;


",31,21,1,-42,0,0,0,358.00,-19.00,-932.00,9.22,10,0
12944.741513,"pitch:21;roll:1;yaw:-42;vgx:0;vgy:0;vgz:0;templ:87;temph:89;tof:10;h:0;bat:31;baro:9.24;time:0;agx:365.00;agy:3.00;agz:-923.00;



",31,21,1,-42,0,0,0,365.00,3.00,-923.00,9.24,10,0
12944.843506,"pitch:21;roll:1;yaw:-42;vgx:0;vgy:0;vgz:0;templ:87;temph:89;tof:10;h:0;bat:31;baro:9.24;time:0;agx:414.00;agy:-32.00;agz:-908.00;


",31,21,1,-42,0,0,0,414.00,-32.00,-908.00,9.24,10,0
12944.946933,"pitch:21;roll:1;yaw:-42;vgx:0;vgy:0;vgz:0;templ:87;temph:89;tof:10;h:0;bat:31;baro:9.28;time:0;agx:354.00;agy:-35.00;agz:-953.00;


",31,21,1,-42,0,0,0,354.00,-35.00,-953.00,9.28,10,0
12945.048839,"pitch:21;roll:1;yaw:-42;vgx:0;vgy:0;vgz:0;templ:87;temph:89;tof:10;h:0;bat:31;baro:9.22;time:0;agx:370.00;agy:-17.00;agz:-937.00;


",31,21,1,-42,0,0,0,370.00,-17.00,-937.00,9.22,10,0
12945.150411,"pitch:21;roll:1;yaw:-42;vgx:0;vgy:0;vgz:0;templ:87;temph:89;tof:10;h:0;bat:31;baro:9.24;time:0;agx:368.00;agy:-18.00;agz:-909.00;


",31,21,1,-42,0,0,0,368.00,-18.00,-909.00,9.24,10,0
12945.252747,"pitch:21;roll:1;yaw:-42;vgx:0;vgy:0;vgz:0;templ:87;temph:89;tof:10;h:0;bat:31;baro:9.21;time:0;agx:383.00;agy:-18.00;agz:-916.00;


",31,21,1,-42,0,0,0,383.00,-18.00,-916.00,9.21,10,0
12945.354394,"pitch:21;roll:1;yaw:-42;vgx:0;vgy:0;vgz:0;templ:87;temph:89;tof:10;h:0;bat:31;baro:9.25;time:0;agx:362.00;agy:-9.00;agz:-925.00;



",31,21,1,-42,0,0,0,362.00,-9.00,-925.00,9.25,10,0
12945.456475,"pitch:21;roll:1;yaw:-43;vgx:0;vgy:0;vgz:0;templ:87;temph:89;tof:10;h:0;bat:31;baro:9.26;time:0;agx:373.00;agy:-25.00;agz:-925.00;


",31,21,1,-43,0,0,0,373.00,-25.00,-925.00,9.26,10,0
12945.558401,"pitch:22;roll:0;yaw:-44;vgx:0;vgy:0;vgz:0;templ:87;temph:89;tof:10;h:0;bat:31;baro:9.28;time:0;agx:438.00;agy:-36.00;agz:-895.00;


",31,22,0,-44,0,0,0,438.00,-36.00,-895.00,9.28,10,0
12945.660616,"pitch:25;roll:0;yaw:-47;vgx:0;vgy:0;vgz:0;templ:87;temph:89;tof:10;h:0;bat:31;baro:9.25;time:0;agx:430.00;agy:0.00;agz:-856.00;



",31,25,0,-47,0,0,0,430.00,0.00,-856.00,9.25,10,0
12945.762444,"pitch:29;roll:0;yaw:-48;vgx:0;vgy:0;vgz:0;templ:87;temph:89;tof:10;h:0;bat:31;baro:9.23;time:0;agx:516.00;agy:0.00;agz:-881.00;



",31,29,0,-48,0,0,0,516.00,0.00,-881.00,9.23,10,0
12945.864357,"pitch:31;roll:0;yaw:-49;vgx:0;vgy:0;vgz:0;templ:87;temph:89;tof:10;h:0;bat:31;baro:9.22;time:0;agx:499.00;agy:10.00;agz:-882.00;



",31,31,0,-49,0,0,0,499.00,10.00,-882.00,9.22,10,0
12945.966343,"pitch:31;roll:0;yaw:-50;vgx:0;vgy:0;vgz:0;templ:87;temph:89;tof:10;h:0;bat:31;baro:9.24;time:0;agx:549.00;agy:24.00;agz:-844.00;



",31,31,0,-50,0,0,0,549.00,24.00,-844.00,9.24,10,0
12946.068568,"pitch:32;roll:-1;yaw:-51;vgx:0;vgy:0;vgz:0;templ:87;temph:89;tof:10;h:0;bat:31;baro:9.28;time:0;agx:540.00;agy:18.00;agz:-853.00;


",31,32,-1,-51,0,0,0,540.00,18.00,-853.00,9.28,10,0
12946.170461,"pitch:32;roll:-2;yaw:-52;vgx:0;vgy:0;vgz:0;templ:87;temph:89;tof:10;h:0;bat:31;baro:9.23;time:0;agx:544.00;agy:20.00;agz:-841.00;


",31,32,-2,-52,0,0,0,544.00,20.00,-841.00,9.23,10,0
12946.272437,"pitch:31;roll:-2;yaw:-53;vgx:0;vgy:0;vgz:0;templ:87;temph:89;tof:10;h:0;bat:31;baro:9.18;time:0;agx:517.00;agy:18.00;agz:-870.00;


",31,31,-2,-53,0,0,0,517.00,18.00,-870.00,9.18,10,0
12946.374321,"pitch:31;roll:-2;yaw:-53;vgx:0;vgy:0;vgz:0;templ:86;temph:89;tof:10;h:0;bat:31;baro:9.22;time:0;agx:473.00;agy:69.00;agz:-872.00;


",31,31,-2,-53,0,0,0,473.00,69.00,-872.00,9.22,10,0
12946.476780,"pitch:29;roll:-3;yaw:-66;vgx:0;vgy:0;vgz:0;templ:86;temph:89;tof:10;h:0;bat:31;baro:9.22;time:0;agx:417.00;agy:126.00;agz:-873.00;

",31,29,-3,-66,0,0,0,417.00,126.00,-873.00,9.22,10,0
12946.578391,"pitch:23;roll:-5;yaw:-96;vgx:0;vgy:0;vgz:0;templ:86;temph:89;tof:10;h:0;bat:31;baro:9.22;time:0;agx:261.00;agy:62.00;agz:-1254.00;

",31,23,-5,-96,0,0,0,261.00,62.00,-1254.00,9.22,10,0
12946.680368,"pitch:10;roll:-4;yaw:-118;vgx:0;vgy:0;vgz:0;templ:86;temph:89;tof:10;h:0;bat:31;baro:9.24;time:0;agx:233.00;agy:-10.00;agz:-969.00;
",31,10,-4,-118,0,0,0,233.00,-10.00,-969.00,9.24,10,0
12946.782759,"pitch:10;roll:-4;yaw:-113;vgx:0;vgy:0;vgz:0;templ:86;temph:89;tof:10;h:0;bat:31;baro:9.22;time:0;agx:-18.00;agy:130.00;agz:-1084.00;
",31,10,-4,-113,0,0,0,-18.00,130.00,-1084.00,9.22,10,0
12946.886445,"pitch:3;roll:-2;yaw:-110;vgx:0;vgy:0;vgz:0;templ:86;temph:89;tof:10;h:0;bat:31;baro:9.23;time:0;agx:21.00;agy:124.00;agz:-1062.00;

",31,3,-2,-110,0,0,0,21.00,124.00,-1062.00,9.23,10,0
12946.935653,"pitch:-1;roll:-1;yaw:-110;vgx:0;vgy:0;vgz:0;templ:86;temph:89;tof:10;h:0;bat:31;baro:9.24;time:0;agx:-99.00;agy:36.00;agz:-1054.00;

",31,-1,-1,-110,0,0,0,-99.00,36.00,-1054.00,9.24,10,0
12947.037335,"pitch:-5;roll:-2;yaw:-107;vgx:0;vgy:0;vgz:0;templ:86;temph:89;tof:10;h:0;bat:31;baro:9.23;time:0;agx:-204.00;agy:48.00;agz:-976.00;

",31,-5,-2,-107,0,0,0,-204.00,48.00,-976.00,9.23,10,0
12947.139721,"pitch:-10;roll:-2;yaw:-108;vgx:0;vgy:0;vgz:0;templ:86;temph:89;tof:39;h:0;bat:31;baro:9.25;time:0;agx:176.00;agy:22.00;agz:-915.00;

",31,-10,-2,-108,0,0,0,176.00,22.00,-915.00,9.25,39,0
12947.241405,"pitch:-9;roll:-1;yaw:-111;vgx:0;vgy:0;vgz:0;templ:86;temph:89;tof:56;h:0;bat:31;baro:9.18;time:0;agx:232.00;agy:-57.00;agz:-1006.00;
",31,-9,-1,-111,0,0,0,232.00,-57.00,-1006.00,9.18,56,0
12947.343741,"pitch:-7;roll:0;yaw:-111;vgx:0;vgy:0;vgz:0;templ:88;temph:90;tof:10;h:0;bat:31;baro:9.21;time:0;agx:211.00;agy:-14.00;agz:-1068.00;

",31,-7,0,-111,0,0,0,211.00,-14.00,-1068.00,9.21,10,0
12947.445347,"pitch:-3;roll:0;yaw:-108;vgx:0;vgy:0;vgz:0;templ:88;temph:90;tof:10;h:0;bat:31;baro:9.19;time:0;agx:141.00;agy:34.00;agz:-1070.00;


",31,-3,0,-108,0,0,0,141.00,34.00,-1070.00,9.19,10,0
12947.547259,"pitch:-1;roll:0;yaw:-101;vgx:0;vgy:0;vgz:0;templ:88;temph:90;tof:10;h:0;bat:31;baro:9.25;time:0;agx:167.00;agy:69.00;agz:-1011.00;


",31,-1,0,-101,0,0,0,167.00,69.00,-1011.00,9.25,10,0
12947.651100,"pitch:1;roll:0;yaw:-93;vgx:0;vgy:0;vgz:0;templ:88;temph:90;tof:10;h:0;bat:31;baro:9.23;time:0;agx:91.00;agy:110.00;agz:-978.00;
;


",31,1,0,-93,0,0,0,91.00,110.00,-978.00,9.23,10,0
12947.754711,"pitch:3;roll:1;yaw:-87;vgx:0;vgy:0;vgz:0;templ:88;temph:90;tof:10;h:0;bat:31;baro:9.23;time:0;agx:71.00;agy:121.00;agz:-1015.00;



",31,3,1,-87,0,0,0,71.00,121.00,-1015.00,9.23,10,0
12947.855442,"pitch:7;roll:1;yaw:-84;vgx:0;vgy:0;vgz:0;templ:88;temph:90;tof:10;h:0;bat:30;baro:9.24;time:0;agx:23.00;agy:142.00;agz:-1003.00;



",30,7,1,-84,0,0,0,23.00,142.00,-1003.00,9.24,10,0
12947.956240,"pitch:9;roll:0;yaw:-81;vgx:0;vgy:0;vgz:0;templ:88;temph:90;tof:10;h:0;bat:30;baro:9.20;time:0;agx:-63.00;agy:61.00;agz:-1051.00;



",30,9,0,-81,0,0,0,-63.00,61.00,-1051.00,9.20,10,0
12948.058239,"pitch:11;roll:0;yaw:-78;vgx:0;vgy:0;vgz:0;templ:88;temph:90;tof:10;h:0;bat:30;baro:9.18;time:0;agx:-380.00;agy:15.00;agz:-1085.00;


",30,11,0,-78,0,0,0,-380.00,15.00,-1085.00,9.18,10,0
12948.160579,"pitch:10;roll:-1;yaw:-84;vgx:0;vgy:0;vgz:0;templ:88;temph:90;tof:10;h:0;bat:30;baro:9.22;time:0;agx:-367.00;agy:-118.00;agz:-1071.00;
€",30,10,-1,-84,0,0,0,-367.00,-118.00,-1071.00,9.22,10,0
12948.263970,"pitch:7;roll:-1;yaw:-96;vgx:0;vgy:0;vgz:0;templ:88;temph:90;tof:10;h:0;bat:30;baro:9.22;time:0;agx:-230.00;agy:-52.00;agz:-971.00;
;
€",30,7,-1,-96,0,0,0,-230.00,-52.00,-971.00,9.22,10,0
12948.364204,"pitch:6;roll:0;yaw:-106;vgx:0;vgy:0;vgz:0;templ:87;temph:89;tof:10;h:0;bat:30;baro:9.20;time:0;agx:-348.00;agy:-115.00;agz:-1031.00;

€",30,6,0,-106,0,0,0,-348.00,-115.00,-1031.00,9.20,10,0
12948.466168,"pitch:3;roll:0;yaw:-122;vgx:0;vgy:0;vgz:1;templ:87;temph:89;tof:10;h:0;bat:30;baro:9.19;time:0;agx:-185.00;agy:44.00;agz:-973.00;
;

€",30,3,0,-122,0,0,1,-185.00,44.00,-973.00,9.19,10,0
12948.568399,"pitch:-2;roll:5;yaw:-154;vgx:0;vgy:0;vgz:0;templ:87;temph:89;tof:10;h:0;bat:30;baro:9.17;time:0;agx:-125.00;agy:130.00;agz:-999.00;


€",30,-2,5,-154,0,0,0,-125.00,130.00,-999.00,9.17,10,0
12948.670272,"pitch:-3;roll:3;yaw:179;vgx:0;vgy:0;vgz:0;templ:87;temph:89;tof:10;h:0;bat:30;baro:9.18;time:0;agx:-26.00;agy:190.00;agz:-1095.00;



€",30,-3,3,179,0,0,0,-26.00,190.00,-1095.00,9.18,10,0
12948.772283,"pitch:-7;roll:1;yaw:156;vgx:0;vgy:0;vgz:0;templ:87;temph:89;tof:10;h:0;bat:30;baro:9.23;time:0;agx:-145.00;agy:-48.00;agz:-890.00;



€",30,-7,1,156,0,0,0,-145.00,-48.00,-890.00,9.23,10,0
12948.874259,"pitch:-7;roll:0;yaw:148;vgx:0;vgy:0;vgz:1;templ:87;temph:89;tof:35;h:0;bat:30;baro:9.17;time:0;agx:-216.00;agy:40.00;agz:-949.00;




€",30,-7,0,148,0,0,1,-216.00,40.00,-949.00,9.17,35,0
12948.976275,"pitch:-4;roll:6;yaw:145;vgx:0;vgy:0;vgz:0;templ:87;temph:89;tof:43;h:0;bat:30;baro:9.19;time:0;agx:-271.00;agy:-17.00;agz:-1016.00;


€",30,-4,6,145,0,0,0,-271.00,-17.00,-1016.00,9.19,43,0
12949.078378,"pitch:-4;roll:8;yaw:151;vgx:0;vgy:0;vgz:0;templ:87;temph:89;tof:40;h:0;bat:30;baro:9.20;time:0;agx:-140.00;agy:-337.00;agz:-898.00;


€",30,-4,8,151,0,0,0,-140.00,-337.00,-898.00,9.20,40,0
12949.180107,"pitch:-4;roll:5;yaw:151;vgx:0;vgy:0;vgz:0;templ:87;temph:89;tof:49;h:0;bat:30;baro:9.21;time:0;agx:-281.00;agy:-224.00;agz:-876.00;


€",30,-4,5,151,0,0,0,-281.00,-224.00,-876.00,9.21,49,0
12949.283742,"pitch:-4;roll:3;yaw:148;vgx:0;vgy:0;vgz:1;templ:87;temph:89;tof:88;h:0;bat:30;baro:9.26;time:0;agx:-233.00;agy:46.00;agz:-943.00;



€",30,-4,3,148,0,0,1,-233.00,46.00,-943.00,9.26,88,0
12949.384285,"pitch:-3;roll:3;yaw:145;vgx:0;vgy:0;vgz:2;templ:87;temph:89;tof:86;h:0;bat:30;baro:9.17;time:0;agx:-85.00;agy:134.00;agz:-1053.00;



€",30,-3,3,145,0,0,2,-85.00,134.00,-1053.00,9.17,86,0
12949.486991,"pitch:-3;roll:2;yaw:143;vgx:0;vgy:0;vgz:1;templ:87;temph:89;tof:85;h:0;bat:30;baro:9.12;time:0;agx:65.00;agy:58.00;agz:-1000.00;




€",30,-3,2,143,0,0,1,65.00,58.00,-1000.00,9.12,85,0
12949.588837,"pitch:-5;roll:1;yaw:141;vgx:0;vgy:0;vgz:1;templ:87;temph:89;tof:85;h:0;bat:30;baro:9.12;time:0;agx:84.00;agy:107.00;agz:-1133.00;




€",30,-5,1,141,0,0,1,84.00,107.00,-1133.00,9.12,85,0
12949.690138,"pitch:-7;roll:0;yaw:140;vgx:0;vgy:0;vgz:0;templ:87;temph:89;tof:85;h:0;bat:30;baro:9.12;time:0;agx:225.00;agy:290.00;agz:-1143.00;



€",30,-7,0,140,0,0,0,225.00,290.00,-1143.00,9.12,85,0
12949.792082,"pitch:-6;roll:0;yaw:140;vgx:0;vgy:0;vgz:0;templ:87;temph:89;tof:83;h:0;bat:30;baro:9.18;time:0;agx:230.00;agy:294.00;agz:-935.00;




€",30,-6,0,140,0,0,0,230.00,294.00,-935.00,9.18,83,0
12949.894190,"pitch:-5;roll:0;yaw:142;vgx:0;vgy:0;vgz:0;templ:87;temph:89;tof:85;h:0;bat:30;baro:9.18;time:0;agx:135.00;agy:214.00;agz:-936.00;




€",30,-5,0,142,0,0,0,135.00,214.00,-936.00,9.18,85,0
12949.996196,"pitch:-5;roll:0;yaw:147;vgx:-9;vgy:-1;vgz:0;templ:87;temph:89;tof:85;h:0;bat:30;baro:9.14;time:0;agx:23.00;agy:192.00;agz:-1113.00;


€",30,-5,0,147,-9,-1,0,23.00,192.00,-1113.00,9.14,85,0
12950.098144,"pitch:-3;roll:0;yaw:154;vgx:-11;vgy:-2;vgz:0;templ:87;temph:89;tof:75;h:0;bat:30;baro:9.15;time:0;agx:-94.00;agy:-8.00;agz:-1108.00;

€",30,-3,0,154,-11,-2,0,-94.00,-8.00,-1108.00,9.15,75,0
12950.200184,"pitch:-1;roll:0;yaw:159;vgx:-11;vgy:-2;vgz:-1;templ:87;temph:89;tof:33;h:0;bat:30;baro:9.19;time:0;agx:32.00;agy:-107.00;agz:-1055.00;
",30,-1,0,159,-11,-2,-1,32.00,-107.00,-1055.00,9.19,33,0
12950.304722,"pitch:2;roll:3;yaw:164;vgx:-10;vgy:-1;vgz:-1;templ:87;temph:89;tof:60;h:0;bat:30;baro:9.21;time:0;agx:23.00;agy:-90.00;agz:-963.00;
;
",30,2,3,164,-10,-1,-1,23.00,-90.00,-963.00,9.21,60,0
12950.404157,"pitch:5;roll:3;yaw:165;vgx:-10;vgy:-1;vgz:-2;templ:88;temph:91;tof:10;h:0;bat:30;baro:9.20;time:0;agx:89.00;agy:-51.00;agz:-888.00;
;
",30,5,3,165,-10,-1,-2,89.00,-51.00,-888.00,9.20,10,0
12950.506507,"pitch:9;roll:1;yaw:165;vgx:-9;vgy:0;vgz:-1;templ:88;temph:91;tof:10;h:0;bat:30;baro:9.19;time:0;agx:21.00;agy:29.00;agz:-795.00;
;
;
",30,9,1,165,-9,0,-1,21.00,29.00,-795.00,9.19,10,0
12950.608209,"pitch:9;roll:0;yaw:162;vgx:-7;vgy:0;vgz:1;templ:88;temph:91;tof:10;h:0;bat:30;baro:9.19;time:0;agx:12.00;agy:-52.00;agz:-1007.00;

;
",30,9,0,162,-7,0,1,12.00,-52.00,-1007.00,9.19,10,0
12950.710404,"pitch:8;roll:-3;yaw:160;vgx:-6;vgy:0;vgz:2;templ:88;temph:91;tof:10;h:0;bat:30;baro:9.17;time:0;agx:105.00;agy:-124.00;agz:-1073.00;

",30,8,-3,160,-6,0,2,105.00,-124.00,-1073.00,9.17,10,0
12950.812084,"pitch:7;roll:0;yaw:165;vgx:0;vgy:0;vgz:1;templ:88;temph:91;tof:10;h:0;bat:30;baro:9.17;time:0;agx:36.00;agy:-138.00;agz:-1092.00;
;

",30,7,0,165,0,0,1,36.00,-138.00,-1092.00,9.17,10,0
12950.862933,"pitch:6;roll:2;yaw:169;vgx:0;vgy:0;vgz:0;templ:88;temph:91;tof:10;h:0;bat:30;baro:9.16;time:0;agx:-8.00;agy:-137.00;agz:-1012.00;
;

",30,6,2,169,0,0,0,-8.00,-137.00,-1012.00,9.16,10,0
12950.965025,"pitch:4;roll:1;yaw:168;vgx:0;vgy:0;vgz:0;templ:88;temph:91;tof:10;h:0;bat:30;baro:9.11;time:0;agx:32.00;agy:198.00;agz:-903.00;

;

",30,4,1,168,0,0,0,32.00,198.00,-903.00,9.11,10,0
12951.067243,"pitch:-1;roll:0;yaw:168;vgx:0;vgy:0;vgz:1;templ:88;temph:91;tof:10;h:0;bat:30;baro:9.18;time:0;agx:65.00;agy:-108.00;agz:-1034.00;


",30,-1,0,168,0,0,1,65.00,-108.00,-1034.00,9.18,10,0
12951.169106,"pitch:-1;roll:0;yaw:168;vgx:0;vgy:0;vgz:0;templ:88;temph:91;tof:10;h:0;bat:30;baro:9.17;time:0;agx:4.00;agy:-2.00;agz:-997.00;
0;


",30,-1,0,168,0,0,0,4.00,-2.00,-997.00,9.17,10,0
12951.271174,"pitch:-1;roll:0;yaw:168;vgx:0;vgy:0;vgz:0;templ:88;temph:91;tof:10;h:0;bat:30;baro:9.12;time:0;agx:1.00;agy:-3.00;agz:-1000.00;
;


",30,-1,0,168,0,0,0,1.00,-3.00,-1000.00,9.12,10,0
12951.373270,"pitch:-1;roll:0;yaw:168;vgx:0;vgy:0;vgz:0;templ:87;temph:90;tof:10;h:0;bat:30;baro:9.15;time:0;agx:-3.00;agy:-1.00;agz:-999.00;
;


",30,-1,0,168,0,0,0,-3.00,-1.00,-999.00,9.15,10,0
12951.479192,"pitch:-1;roll:0;yaw:168;vgx:0;vgy:0;vgz:0;templ:87;temph:90;tof:10;h:0;bat:30;baro:9.13;time:0;agx:-1.00;agy:0.00;agz:-1000.00;
;


",30,-1,0,168,0,0,0,-1.00,0.00,-1000.00,9.13,10,0
12951.579597,"pitch:-1;roll:0;yaw:168;vgx:0;vgy:0;vgz:0;templ:87;temph:90;tof:10;h:0;bat:30;baro:9.14;time:0;agx:2.00;agy:0.00;agz:-999.00;

;


",30,-1,0,168,0,0,0,2.00,0.00,-999.00,9.14,10,0
12951.681720,"pitch:-1;roll:0;yaw:168;vgx:0;vgy:0;vgz:0;templ:87;temph:90;tof:10;h:0;bat:30;baro:9.16;time:0;agx:1.00;agy:-1.00;agz:-999.00;

;


",30,-1,0,168,0,0,0,1.00,-1.00,-999.00,9.16,10,0
12951.781945,"pitch:-1;roll:0;yaw:168;vgx:0;vgy:0;vgz:0;templ:87;temph:90;tof:10;h:0;bat:30;baro:9.09;time:0;agx:0.00;agy:-1.00;agz:-1002.00;
;


",30,-1,0,168,0,0,0,0.00,-1.00,-1002.00,9.09,10,0
12951.886349,"pitch:-1;roll:0;yaw:168;vgx:0;vgy:0;vgz:0;templ:87;temph:90;tof:10;h:0;bat:30;baro:9.16;time:0;agx:-2.00;agy:0.00;agz:-1001.00;
;


",30,-1,0,168,0,0,0,-2.00,0.00,-1001.00,9.16,10,0
12951.988863,"pitch:-1;roll:0;yaw:168;vgx:0;vgy:0;vgz:0;templ:87;temph:90;tof:10;h:0;bat:30;baro:9.15;time:0;agx:-4.00;agy:0.00;agz:-997.00;

;


",30,-1,0,168,0,0,0,-4.00,0.00,-997.00,9.15,10,0
12952.091188,"pitch:-1;roll:0;yaw:168;vgx:0;vgy:0;vgz:0;templ:87;temph:90;tof:10;h:0;bat:30;baro:9.15;time:0;agx:-9.00;agy:6.00;agz:-992.00;

;


",30,-1,0,168,0,0,0,-9.00,6.00,-992.00,9.15,10,0
12952.190051,"pitch:-1;roll:0;yaw:168;vgx:0;vgy:0;vgz:0;templ:87;temph:90;tof:10;h:0;bat:30;baro:9.07;time:0;agx:-5.00;agy:3.00;agz:-995.00;

;


",30,-1,0,168,0,0,0,-5.00,3.00,-995.00,9.07,10,0
12952.291869,"pitch:-1;roll:0;yaw:168;vgx:0;vgy:0;vgz:0;templ:87;temph:90;tof:10;h:0;bat:30;baro:9.16;time:0;agx:0.00;agy:-6.00;agz:-999.00;

;


",30,-1,0,168,0,0,0,0.00,-6.00,-999.00,9.16,10,0
12952.394074,"pitch:-1;roll:0;yaw:168;vgx:0;vgy:0;vgz:0;templ:87;temph:90;tof:10;h:0;bat:30;baro:9.17;time:0;agx:3.00;agy:-2.00;agz:-998.00;

;


",30,-1,0,168,0,0,0,3.00,-2.00,-998.00,9.17,10,0
12952.496083,"pitch:-1;roll:0;yaw:168;vgx:0;vgy:0;vgz:0;templ:87;temph:90;tof:10;h:0;bat:30;baro:9.11;time:0;agx:2.00;agy:5.00;agz:-997.00;


;


",30,-1,0,168,0,0,0,2.00,5.00,-997.00,9.11,10,0
12952.597973,"pitch:-1;roll:0;yaw:168;vgx:0;vgy:0;vgz:0;templ:87;temph:90;tof:10;h:0;bat:30;baro:9.13;time:0;agx:-3.00;agy:-3.00;agz:-997.00;
;


",30,-1,0,168,0,0,0,-3.00,-3.00,-997.00,9.13,10,0
